[{"id": "gw-freudenberg-1-97896", "kind": "gelbe_welle", "name": "Freudenberg 1", "area": "Main", "region": null, "land": "BW", "desc": "Offizieller Gelbe-Welle-Gastliegeplatz · Kanu-Anleger · Main km 135.0", "tags": ["Gastliegeplatz", "Kanu"], "tel": null, "web": "www.freudenberg-main.de", "source": "DTV Gelbe Welle Standortliste", "source_detail": "Stand März 2026 · Geokodierung OSM/Nominatim", "quality": "curated", "coord_quality": "exact", "lat": 54.25313, "lon": 13.34637}, {"id": "gw-freudenberg-2-97896", "kind": "gelbe_welle", "name": "Freudenberg 2", "area": "Main", "region": null, "land": "BW", "desc": "Offizieller Gelbe-Welle-Gastliegeplatz · Kanu-Anleger · Main km 133.0", "tags": ["Gastliegeplatz", "Kanu"], "tel": null, "web": "www.freudenberg-main.de", "source": "DTV Gelbe Welle Standortliste", "source_detail": "Stand März 2026 · Geokodierung OSM/Nominatim", "quality": "curated", "coord_quality": "exact", "lat": 54.25296, "lon": 13.34585}, {"id": "gw-bergrheinfeld-grafenrheinfeld-97493", "kind": "gelbe_welle", "name": "Bergrheinfeld/Grafenrheinfeld", "area": "Main", "region": null, "land": "BY", "desc": "Offizieller Gelbe-Welle-Gastliegeplatz · Kanu-Anleger · Main", "tags": ["Gastliegeplatz", "Kanu"], "tel": null, "web": null, "source": "DTV Gelbe Welle Standortliste", "source_detail": "Stand März 2026 · Geokodierung OSM/Nominatim", "quality": "curated", "coord_quality": "exact", "lat": 49.98971, "lon": 10.19828}, {"id": "gw-garstadt-97493", "kind": "gelbe_welle", "name": "Garstadt", "area": "Main", "region": null, "land": "BY", "desc": "Offizieller Gelbe-Welle-Gastliegeplatz · Kanu-Anleger · Main", "tags": ["Gastliegeplatz", "Kanu"], "tel": null, "web": null, "source": "DTV Gelbe Welle Standortliste", "source_detail": "Stand März 2026 · Geokodierung OSM/Nominatim", "quality": "curated", "coord_quality": "exact", "lat": 49.97491, "lon": 10.17278}, {"id": "gw-bischberg-96120", "kind": "gelbe_welle", "name": "Bischberg", "area": "Regnitz", "region": null, "land": "BY", "desc": "Offizieller Gelbe-Welle-Gastliegeplatz · Kanu-Anleger · Regnitz km 0.5", "tags": ["Gastliegeplatz", "Kanu"], "tel": null, "web": null, "source": "DTV Gelbe Welle Standortliste", "source_detail": "Stand März 2026 · Geokodierung OSM/Nominatim", "quality": "curated", "coord_quality": "exact", "lat": 49.91126, "lon": 10.83043}, {"id": "gw-trosdorf-96120", "kind": "gelbe_welle", "name": "Trosdorf", "area": "Main", "region": null, "land": "BY", "desc": "Offizieller Gelbe-Welle-Gastliegeplatz · Kanu-Anleger · Main km 383.1", "tags": ["Gastliegeplatz", "Kanu"], "tel": null, "web": null, "source": "DTV Gelbe Welle Standortliste", "source_detail": "Stand März 2026 · Geokodierung OSM/Nominatim", "quality": "curated", "coord_quality": "exact", "lat": 49.91257, "lon": 10.80138}, {"id": "gw-nmyc-landshut-94469", "kind": "gelbe_welle", "name": "NMYC Landshut", "area": "Donau", "region": null, "land": "BY", "desc": "Offizieller Gelbe-Welle-Gastliegeplatz · Donau km 2284.0", "tags": ["Gastliegeplatz"], "tel": "0151/12238802", "web": null, "source": "DTV Gelbe Welle Standortliste", "source_detail": "Stand März 2026 · Geokodierung OSM/Nominatim", "quality": "curated", "coord_quality": "cluster", "lat": 48.83335, "lon": 12.96205}, {"id": "gw-dettelbach-97337", "kind": "gelbe_welle", "name": "Dettelbach", "area": "Main", "region": null, "land": "BY", "desc": "Offizieller Gelbe-Welle-Gastliegeplatz · Kanu-Anleger · Main km 293.7", "tags": ["Gastliegeplatz", "Kanu"], "tel": null, "web": null, "source": "DTV Gelbe Welle Standortliste", "source_detail": "Stand März 2026 · Geokodierung OSM/Nominatim", "quality": "curated", "coord_quality": "exact", "lat": 49.80191, "lon": 10.16121}, {"id": "gw-alte-faehre-flussufer-eltmann-97483", "kind": "gelbe_welle", "name": "\"Alte Fähre\"-Flussufer Eltmann", "area": "Main", "region": null, "land": "BY", "desc": "Offizieller Gelbe-Welle-Gastliegeplatz · Kanu-Anleger · Main km 369.1", "tags": ["Gastliegeplatz", "Kanu"], "tel": null, "web": null, "source": "DTV Gelbe Welle Standortliste", "source_detail": "Stand März 2026 · Geokodierung OSM/Nominatim", "quality": "curated", "coord_quality": "cluster", "lat": 49.9725, "lon": 10.66621}, {"id": "gw-gaedheim-97503", "kind": "gelbe_welle", "name": "Gädheim", "area": "Main", "region": null, "land": "BY", "desc": "Offizieller Gelbe-Welle-Gastliegeplatz · Kanu-Anleger · Main km 342.5", "tags": ["Gastliegeplatz", "Kanu"], "tel": null, "web": null, "source": "DTV Gelbe Welle Standortliste", "source_detail": "Stand März 2026 · Geokodierung OSM/Nominatim", "quality": "curated", "coord_quality": "exact", "lat": 50.0224, "lon": 10.34867}, {"id": "gw-untereuerheim-97508", "kind": "gelbe_welle", "name": "Untereuerheim", "area": "Main", "region": null, "land": "BY", "desc": "Offizieller Gelbe-Welle-Gastliegeplatz · Kanu-Anleger · Main km 343.0", "tags": ["Gastliegeplatz", "Kanu"], "tel": null, "web": null, "source": "DTV Gelbe Welle Standortliste", "source_detail": "Stand März 2026 · Geokodierung OSM/Nominatim", "quality": "curated", "coord_quality": "exact", "lat": 50.01344, "lon": 10.35615}, {"id": "gw-heubacher-bootsfreunde-club-63920", "kind": "gelbe_welle", "name": "Heubacher Bootsfreunde Club", "area": "Main", "region": null, "land": "BY", "desc": "Offizieller Gelbe-Welle-Gastliegeplatz · Main km 120.4", "tags": ["Gastliegeplatz"], "tel": "0170/2106875", "web": null, "source": "DTV Gelbe Welle Standortliste", "source_detail": "Stand März 2026 · Geokodierung OSM/Nominatim", "quality": "curated", "coord_quality": "approx", "lat": 49.72389, "lon": 9.22488}, {"id": "gw-hassfurt-hafen-97437", "kind": "gelbe_welle", "name": "Haßfurt-Hafen", "area": "Main", "region": null, "land": "BY", "desc": "Offizieller Gelbe-Welle-Gastliegeplatz · Kanu-Anleger · Main km 355.4", "tags": ["Gastliegeplatz", "Kanu"], "tel": null, "web": null, "source": "DTV Gelbe Welle Standortliste", "source_detail": "Stand März 2026 · Geokodierung OSM/Nominatim", "quality": "curated", "coord_quality": "exact", "lat": 50.026, "lon": 10.5163}, {"id": "gw-hassfurt-naturfreundehaus-97437", "kind": "gelbe_welle", "name": "Haßfurt-Naturfreundehaus", "area": "Main", "region": null, "land": "BY", "desc": "Offizieller Gelbe-Welle-Gastliegeplatz · Kanu-Anleger · Main km 356.0", "tags": ["Gastliegeplatz", "Kanu"], "tel": null, "web": null, "source": "DTV Gelbe Welle Standortliste", "source_detail": "Stand März 2026 · Geokodierung OSM/Nominatim", "quality": "curated", "coord_quality": "cluster", "lat": 50.04278, "lon": 10.50862}, {"id": "gw-hassfurt-wuerflingen-97437", "kind": "gelbe_welle", "name": "Haßfurt-Würflingen", "area": "Main", "region": null, "land": "BY", "desc": "Offizieller Gelbe-Welle-Gastliegeplatz · Kanu-Anleger · Main km 353.0", "tags": ["Gastliegeplatz", "Kanu"], "tel": null, "web": null, "source": "DTV Gelbe Welle Standortliste", "source_detail": "Stand März 2026 · Geokodierung OSM/Nominatim", "quality": "curated", "coord_quality": "cluster", "lat": 50.04278, "lon": 10.50862}, {"id": "gw-marina-laessig-yachting-camping-63796", "kind": "gelbe_welle", "name": "Marina-Lässig Yachting & Camping", "area": "Main", "region": null, "land": "BY", "desc": "Offizieller Gelbe-Welle-Gastliegeplatz · 3 Gastliegeplätze · Main km 67.0", "tags": ["Gastliegeplatz"], "tel": "06188-2055", "web": "www.laessig-motor.de", "source": "DTV Gelbe Welle Standortliste", "source_detail": "Stand März 2026 · Geokodierung OSM/Nominatim", "quality": "curated", "coord_quality": "approx", "lat": 50.06396, "lon": 8.99179}, {"id": "gw-albertshofen-97318", "kind": "gelbe_welle", "name": "Albertshofen", "area": "Main", "region": null, "land": "BY", "desc": "Offizieller Gelbe-Welle-Gastliegeplatz · Kanu-Anleger · Main km 290.7", "tags": ["Gastliegeplatz", "Kanu"], "tel": null, "web": null, "source": "DTV Gelbe Welle Standortliste", "source_detail": "Stand März 2026 · Geokodierung OSM/Nominatim", "quality": "curated", "coord_quality": "exact", "lat": 49.77239, "lon": 10.16578}, {"id": "gw-mainstockheim-97318", "kind": "gelbe_welle", "name": "Mainstockheim", "area": "Main", "region": null, "land": "BY", "desc": "Offizieller Gelbe-Welle-Gastliegeplatz · Kanu-Anleger · Main km 290.7", "tags": ["Gastliegeplatz", "Kanu"], "tel": null, "web": null, "source": "DTV Gelbe Welle Standortliste", "source_detail": "Stand März 2026 · Geokodierung OSM/Nominatim", "quality": "curated", "coord_quality": "exact", "lat": 49.77415, "lon": 10.12725}, {"id": "gw-sulzfeld-am-main-97318", "kind": "gelbe_welle", "name": "Sulzfeld am Main", "area": "Main", "region": null, "land": "BY", "desc": "Offizieller Gelbe-Welle-Gastliegeplatz · Kanu-Anleger · Main km 282.3", "tags": ["Gastliegeplatz", "Kanu"], "tel": null, "web": null, "source": "DTV Gelbe Welle Standortliste", "source_detail": "Stand März 2026 · Geokodierung OSM/Nominatim", "quality": "curated", "coord_quality": "exact", "lat": 49.70805, "lon": 10.13097}, {"id": "gw-knetzgau-97478", "kind": "gelbe_welle", "name": "Knetzgau", "area": "Main", "region": null, "land": "BY", "desc": "Offizieller Gelbe-Welle-Gastliegeplatz · Kanu-Anleger · Main km 359.3", "tags": ["Gastliegeplatz", "Kanu"], "tel": null, "web": null, "source": "DTV Gelbe Welle Standortliste", "source_detail": "Stand März 2026 · Geokodierung OSM/Nominatim", "quality": "curated", "coord_quality": "exact", "lat": 49.97819, "lon": 10.56092}, {"id": "gw-stammheim-97509", "kind": "gelbe_welle", "name": "Stammheim", "area": "Main", "region": null, "land": "BY", "desc": "Offizieller Gelbe-Welle-Gastliegeplatz · Kanu-Anleger · Main km 314.8", "tags": ["Gastliegeplatz", "Kanu"], "tel": null, "web": null, "source": "DTV Gelbe Welle Standortliste", "source_detail": "Stand März 2026 · Geokodierung OSM/Nominatim", "quality": "curated", "coord_quality": "exact", "lat": 49.90823, "lon": 10.19293}, {"id": "gw-marktbreit-97340", "kind": "gelbe_welle", "name": "Marktbreit", "area": "Main", "region": null, "land": "BY", "desc": "Offizieller Gelbe-Welle-Gastliegeplatz · Kanu-Anleger · Main km 277.7", "tags": ["Gastliegeplatz", "Kanu"], "tel": null, "web": null, "source": "DTV Gelbe Welle Standortliste", "source_detail": "Stand März 2026 · Geokodierung OSM/Nominatim", "quality": "curated", "coord_quality": "exact", "lat": 49.66689, "lon": 10.14358}, {"id": "gw-marktsteft-97340", "kind": "gelbe_welle", "name": "Marktsteft", "area": "Main", "region": null, "land": "BY", "desc": "Offizieller Gelbe-Welle-Gastliegeplatz · Kanu-Anleger · Main km 280.8", "tags": ["Gastliegeplatz", "Kanu"], "tel": null, "web": null, "source": "DTV Gelbe Welle Standortliste", "source_detail": "Stand März 2026 · Geokodierung OSM/Nominatim", "quality": "curated", "coord_quality": "exact", "lat": 49.69672, "lon": 10.1351}, {"id": "gw-segnitz-97340", "kind": "gelbe_welle", "name": "Segnitz", "area": "Main", "region": null, "land": "BY", "desc": "Offizieller Gelbe-Welle-Gastliegeplatz · Kanu-Anleger · Main km 277.3", "tags": ["Gastliegeplatz", "Kanu"], "tel": null, "web": null, "source": "DTV Gelbe Welle Standortliste", "source_detail": "Stand März 2026 · Geokodierung OSM/Nominatim", "quality": "curated", "coord_quality": "exact", "lat": 49.67232, "lon": 10.14254}, {"id": "gw-faehre-nordheim-am-main-97334", "kind": "gelbe_welle", "name": "Fähre Nordheim am Main", "area": "Main", "region": null, "land": "BY", "desc": "Offizieller Gelbe-Welle-Gastliegeplatz · Kanu-Anleger · Main km 307.3", "tags": ["Gastliegeplatz", "Kanu"], "tel": null, "web": null, "source": "DTV Gelbe Welle Standortliste", "source_detail": "Stand März 2026 · Geokodierung OSM/Nominatim", "quality": "curated", "coord_quality": "cluster", "lat": 49.8595, "lon": 10.18325}, {"id": "gw-staffelbach-96173", "kind": "gelbe_welle", "name": "Staffelbach", "area": "Main", "region": null, "land": "BY", "desc": "Offizieller Gelbe-Welle-Gastliegeplatz · Kanu-Anleger · Main km 376.8", "tags": ["Gastliegeplatz", "Kanu"], "tel": null, "web": null, "source": "DTV Gelbe Welle Standortliste", "source_detail": "Stand März 2026 · Geokodierung OSM/Nominatim", "quality": "curated", "coord_quality": "exact", "lat": 49.9442, "lon": 10.75162}, {"id": "gw-hirschfeld-gemeinde-roethlein-97520", "kind": "gelbe_welle", "name": "Hirschfeld-Gemeinde Röthlein", "area": "Main", "region": null, "land": "BY", "desc": "Offizieller Gelbe-Welle-Gastliegeplatz · Kanu-Anleger · Main km 320.0", "tags": ["Gastliegeplatz", "Kanu"], "tel": null, "web": null, "source": "DTV Gelbe Welle Standortliste", "source_detail": "Stand März 2026 · Geokodierung OSM/Nominatim", "quality": "curated", "coord_quality": "cluster", "lat": 49.96599, "lon": 10.21122}, {"id": "gw-sand-zugang-baggersee-97522", "kind": "gelbe_welle", "name": "Sand-Zugang Baggersee", "area": "Main", "region": null, "land": "BY", "desc": "Offizieller Gelbe-Welle-Gastliegeplatz · Kanu-Anleger · Main km 362.2", "tags": ["Gastliegeplatz", "Kanu"], "tel": null, "web": null, "source": "DTV Gelbe Welle Standortliste", "source_detail": "Stand März 2026 · Geokodierung OSM/Nominatim", "quality": "curated", "coord_quality": "cluster", "lat": 49.97969, "lon": 10.58949}, {"id": "gw-alban-park-schonungen-97453", "kind": "gelbe_welle", "name": "Alban-Park Schonungen", "area": "Main", "region": null, "land": "BY", "desc": "Offizieller Gelbe-Welle-Gastliegeplatz · Kanu-Anleger · Main km 337.9", "tags": ["Gastliegeplatz", "Kanu"], "tel": null, "web": null, "source": "DTV Gelbe Welle Standortliste", "source_detail": "Stand März 2026 · Geokodierung OSM/Nominatim", "quality": "curated", "coord_quality": "cluster", "lat": 50.05038, "lon": 10.30448}, {"id": "gw-mainberg-97453", "kind": "gelbe_welle", "name": "Mainberg", "area": "Main", "region": null, "land": "BY", "desc": "Offizieller Gelbe-Welle-Gastliegeplatz · Kanu-Anleger · Main km 336.7", "tags": ["Gastliegeplatz", "Kanu"], "tel": null, "web": null, "source": "DTV Gelbe Welle Standortliste", "source_detail": "Stand März 2026 · Geokodierung OSM/Nominatim", "quality": "curated", "coord_quality": "exact", "lat": 50.05917, "lon": 10.29062}, {"id": "gw-nato-uebergang-schonungen-97453", "kind": "gelbe_welle", "name": "Nato-Übergang Schonungen", "area": "Main", "region": null, "land": "BY", "desc": "Offizieller Gelbe-Welle-Gastliegeplatz · Kanu-Anleger · Main km 338.9", "tags": ["Gastliegeplatz", "Kanu"], "tel": null, "web": null, "source": "DTV Gelbe Welle Standortliste", "source_detail": "Stand März 2026 · Geokodierung OSM/Nominatim", "quality": "curated", "coord_quality": "cluster", "lat": 50.05038, "lon": 10.30448}, {"id": "gw-wipfeld-97523", "kind": "gelbe_welle", "name": "Wipfeld", "area": "Main", "region": null, "land": "BY", "desc": "Offizieller Gelbe-Welle-Gastliegeplatz · Kanu-Anleger · Main km 317.0", "tags": ["Gastliegeplatz", "Kanu"], "tel": null, "web": null, "source": "DTV Gelbe Welle Standortliste", "source_detail": "Stand März 2026 · Geokodierung OSM/Nominatim", "quality": "curated", "coord_quality": "exact", "lat": 49.92237, "lon": 10.17257}, {"id": "gw-sandbank-an-der-schwarzach-muendung-97359", "kind": "gelbe_welle", "name": "Sandbank an der Schwarzach-Mündung", "area": "Main", "region": null, "land": "BY", "desc": "Offizieller Gelbe-Welle-Gastliegeplatz · Kanu-Anleger · Main km 299.0", "tags": ["Gastliegeplatz", "Kanu"], "tel": null, "web": null, "source": "DTV Gelbe Welle Standortliste", "source_detail": "Stand März 2026 · Geokodierung OSM/Nominatim", "quality": "curated", "coord_quality": "cluster", "lat": 49.79982, "lon": 10.2305}, {"id": "gw-schweinfurt-mainlaende-97421", "kind": "gelbe_welle", "name": "Schweinfurt Mainlände", "area": "Main", "region": null, "land": "BY", "desc": "Offizieller Gelbe-Welle-Gastliegeplatz · Kanu-Anleger · Main km 332.8", "tags": ["Gastliegeplatz", "Kanu"], "tel": null, "web": null, "source": "DTV Gelbe Welle Standortliste", "source_detail": "Stand März 2026 · Geokodierung OSM/Nominatim", "quality": "curated", "coord_quality": "cluster", "lat": 50.04515, "lon": 10.23406}, {"id": "gw-schweinfurt-ruderclub-97421", "kind": "gelbe_welle", "name": "Schweinfurt Ruderclub", "area": "Main", "region": null, "land": "BY", "desc": "Offizieller Gelbe-Welle-Gastliegeplatz · Kanu-Anleger · Main km 333.4", "tags": ["Gastliegeplatz", "Kanu"], "tel": null, "web": null, "source": "DTV Gelbe Welle Standortliste", "source_detail": "Stand März 2026 · Geokodierung OSM/Nominatim", "quality": "curated", "coord_quality": "cluster", "lat": 50.04515, "lon": 10.23406}, {"id": "gw-sommerach-97334", "kind": "gelbe_welle", "name": "Sommerach", "area": "Main", "region": null, "land": "BY", "desc": "Offizieller Gelbe-Welle-Gastliegeplatz · Kanu-Anleger · Main km 302.2", "tags": ["Gastliegeplatz", "Kanu"], "tel": null, "web": null, "source": "DTV Gelbe Welle Standortliste", "source_detail": "Stand März 2026 · Geokodierung OSM/Nominatim", "quality": "curated", "coord_quality": "exact", "lat": 49.82885, "lon": 10.20468}, {"id": "gw-theres-obertheres-97531", "kind": "gelbe_welle", "name": "Theres-Obertheres", "area": "Main", "region": null, "land": "BY", "desc": "Offizieller Gelbe-Welle-Gastliegeplatz · Kanu-Anleger · Main km 350.3", "tags": ["Gastliegeplatz", "Kanu"], "tel": null, "web": null, "source": "DTV Gelbe Welle Standortliste", "source_detail": "Stand März 2026 · Geokodierung OSM/Nominatim", "quality": "curated", "coord_quality": "exact", "lat": 50.01871, "lon": 10.45014}, {"id": "gw-theres-untertheres-97531", "kind": "gelbe_welle", "name": "Theres-Untertheres", "area": "Main", "region": null, "land": "BY", "desc": "Offizieller Gelbe-Welle-Gastliegeplatz · Kanu-Anleger · Main km 348.1", "tags": ["Gastliegeplatz", "Kanu"], "tel": null, "web": null, "source": "DTV Gelbe Welle Standortliste", "source_detail": "Stand März 2026 · Geokodierung OSM/Nominatim", "quality": "curated", "coord_quality": "exact", "lat": 50.01531, "lon": 10.41477}, {"id": "gw-ein-ausstiegsstelle-viereth-96191", "kind": "gelbe_welle", "name": "Ein-/Ausstiegsstelle Viereth", "area": "Main", "region": null, "land": "BY", "desc": "Offizieller Gelbe-Welle-Gastliegeplatz · Kanu-Anleger · Main km 380.1", "tags": ["Gastliegeplatz", "Kanu"], "tel": null, "web": null, "source": "DTV Gelbe Welle Standortliste", "source_detail": "Stand März 2026 · Geokodierung OSM/Nominatim", "quality": "curated", "coord_quality": "cluster", "lat": 49.92231, "lon": 10.75795}, {"id": "gw-volkach-97326", "kind": "gelbe_welle", "name": "Volkach", "area": "Main", "region": null, "land": "BY", "desc": "Offizieller Gelbe-Welle-Gastliegeplatz · Kanu-Anleger · Main km 305.8", "tags": ["Gastliegeplatz", "Kanu"], "tel": "09381/40112", "web": "www.volkach.de", "source": "DTV Gelbe Welle Standortliste", "source_detail": "Stand März 2026 · Geokodierung OSM/Nominatim", "quality": "curated", "coord_quality": "exact", "lat": 49.86743, "lon": 10.2326}, {"id": "gw-volkach-astheim-97326", "kind": "gelbe_welle", "name": "Volkach-Astheim", "area": "Main", "region": null, "land": "BY", "desc": "Offizieller Gelbe-Welle-Gastliegeplatz · Kanu-Anleger · Main km 305.8", "tags": ["Gastliegeplatz", "Kanu"], "tel": null, "web": null, "source": "DTV Gelbe Welle Standortliste", "source_detail": "Stand März 2026 · Geokodierung OSM/Nominatim", "quality": "curated", "coord_quality": "exact", "lat": 49.86434, "lon": 10.2181}, {"id": "gw-volkach-escherndorf-97326", "kind": "gelbe_welle", "name": "Volkach-Escherndorf", "area": "Main", "region": null, "land": "BY", "desc": "Offizieller Gelbe-Welle-Gastliegeplatz · Kanu-Anleger · Main km 307.3", "tags": ["Gastliegeplatz", "Kanu"], "tel": null, "web": null, "source": "DTV Gelbe Welle Standortliste", "source_detail": "Stand März 2026 · Geokodierung OSM/Nominatim", "quality": "curated", "coord_quality": "exact", "lat": 49.85669, "lon": 10.21898}, {"id": "gw-volkach-fahr-97326", "kind": "gelbe_welle", "name": "Volkach-Fahr", "area": "Main", "region": null, "land": "BY", "desc": "Offizieller Gelbe-Welle-Gastliegeplatz · Kanu-Anleger · Main km 311.2", "tags": ["Gastliegeplatz", "Kanu"], "tel": null, "web": null, "source": "DTV Gelbe Welle Standortliste", "source_detail": "Stand März 2026 · Geokodierung OSM/Nominatim", "quality": "curated", "coord_quality": "cluster", "lat": 49.86743, "lon": 10.2326}, {"id": "gw-volkach-koehler-97326", "kind": "gelbe_welle", "name": "Volkach-Köhler", "area": "Main", "region": null, "land": "BY", "desc": "Offizieller Gelbe-Welle-Gastliegeplatz · Kanu-Anleger · Main km 305.9", "tags": ["Gastliegeplatz", "Kanu"], "tel": null, "web": null, "source": "DTV Gelbe Welle Standortliste", "source_detail": "Stand März 2026 · Geokodierung OSM/Nominatim", "quality": "curated", "coord_quality": "cluster", "lat": 49.86743, "lon": 10.2326}, {"id": "gw-hafen-zeil-a-main-97475", "kind": "gelbe_welle", "name": "Hafen Zeil a. Main", "area": "Main", "region": null, "land": "BY", "desc": "Offizieller Gelbe-Welle-Gastliegeplatz · Kanu-Anleger · Main km 362.8", "tags": ["Gastliegeplatz", "Kanu"], "tel": null, "web": null, "source": "DTV Gelbe Welle Standortliste", "source_detail": "Stand März 2026 · Geokodierung OSM/Nominatim", "quality": "curated", "coord_quality": "cluster", "lat": 50.01375, "lon": 10.5948}, {"id": "gw-knaus-campingpark-frickenhausen-97199", "kind": "gelbe_welle", "name": "Knaus Campingpark Frickenhausen", "area": "Main", "region": null, "land": "BY", "desc": "Offizieller Gelbe-Welle-Gastliegeplatz · Kanu-Anleger · Main km 272.2", "tags": ["Gastliegeplatz", "Kanu"], "tel": "09331/983180", "web": "www.knauscamp.de", "source": "DTV Gelbe Welle Standortliste", "source_detail": "Stand März 2026 · Geokodierung OSM/Nominatim", "quality": "curated", "coord_quality": "approx", "lat": 49.66388, "lon": 10.07552}, {"id": "gw-stadtprozelten-alter-faehranleger-97909", "kind": "gelbe_welle", "name": "Stadtprozelten (alter Fähranleger)", "area": "Main", "region": null, "land": "BY", "desc": "Offizieller Gelbe-Welle-Gastliegeplatz · Kanu-Anleger · Main km 144.7", "tags": ["Gastliegeplatz", "Kanu"], "tel": null, "web": null, "source": "DTV Gelbe Welle Standortliste", "source_detail": "Stand März 2026 · Geokodierung OSM/Nominatim", "quality": "curated", "coord_quality": "cluster", "lat": 49.78093, "lon": 9.40533}, {"id": "gw-zur-einladung-fl-nr-1452-0-63911", "kind": "gelbe_welle", "name": "Zur Einladung, Fl. Nr. 1452/0", "area": "Main", "region": null, "land": "BY", "desc": "Offizieller Gelbe-Welle-Gastliegeplatz · Kanu-Anleger · Main km 112.5", "tags": ["Gastliegeplatz", "Kanu"], "tel": null, "web": "www.klingenber-main.de", "source": "DTV Gelbe Welle Standortliste", "source_detail": "Stand März 2026 · Geokodierung OSM/Nominatim", "quality": "curated", "coord_quality": "cluster", "lat": 49.7683, "lon": 9.18539}, {"id": "gw-am-rondell-63846", "kind": "gelbe_welle", "name": "\"Am Rondell\"", "area": "Main", "region": null, "land": "BY", "desc": "Offizieller Gelbe-Welle-Gastliegeplatz · Kanu-Anleger · Main km 95.9", "tags": ["Gastliegeplatz", "Kanu"], "tel": null, "web": "www.niedernberg.de", "source": "DTV Gelbe Welle Standortliste", "source_detail": "Stand März 2026 · Geokodierung OSM/Nominatim", "quality": "curated", "coord_quality": "cluster", "lat": 49.9159, "lon": 9.13664}, {"id": "gw-gemeinde-dorfprozelten-97904", "kind": "gelbe_welle", "name": "Gemeinde Dorfprozelten", "area": "Main", "region": null, "land": "BY", "desc": "Offizieller Gelbe-Welle-Gastliegeplatz · Kanu-Anleger · Main km 140.8", "tags": ["Gastliegeplatz", "Kanu"], "tel": null, "web": null, "source": "DTV Gelbe Welle Standortliste", "source_detail": "Stand März 2026 · Geokodierung OSM/Nominatim", "quality": "curated", "coord_quality": "cluster", "lat": 49.77871, "lon": 9.3836}, {"id": "gw-elsenfeld-63820", "kind": "gelbe_welle", "name": "Elsenfeld", "area": "Main", "region": null, "land": "BY", "desc": "Offizieller Gelbe-Welle-Gastliegeplatz · Kanu-Anleger · Main km 103.7", "tags": ["Gastliegeplatz", "Kanu"], "tel": null, "web": "www.elsenfeld.de", "source": "DTV Gelbe Welle Standortliste", "source_detail": "Stand März 2026 · Geokodierung OSM/Nominatim", "quality": "curated", "coord_quality": "exact", "lat": 49.84431, "lon": 9.17896}, {"id": "gw-ot-reistenhausen-festhalle-97903", "kind": "gelbe_welle", "name": "OT Reistenhausen (Festhalle)", "area": "Main", "region": null, "land": "BY", "desc": "Offizieller Gelbe-Welle-Gastliegeplatz · Kanu-Anleger · Main km 136.4", "tags": ["Gastliegeplatz", "Kanu"], "tel": "09376/97100", "web": null, "source": "DTV Gelbe Welle Standortliste", "source_detail": "Stand März 2026 · Geokodierung OSM/Nominatim", "quality": "curated", "coord_quality": "cluster", "lat": 49.7733, "lon": 9.32674}, {"id": "gw-ot-kirschfurt-97903", "kind": "gelbe_welle", "name": "OT Kirschfurt", "area": "Main", "region": null, "land": "BY", "desc": "Offizieller Gelbe-Welle-Gastliegeplatz · Kanu-Anleger · Main km 132.8", "tags": ["Gastliegeplatz", "Kanu"], "tel": "09376/97100", "web": null, "source": "DTV Gelbe Welle Standortliste", "source_detail": "Stand März 2026 · Geokodierung OSM/Nominatim", "quality": "curated", "coord_quality": "cluster", "lat": 49.7733, "lon": 9.32674}, {"id": "gw-woerth-am-main-63939", "kind": "gelbe_welle", "name": "Wörth am Main", "area": "Main", "region": null, "land": "BY", "desc": "Offizieller Gelbe-Welle-Gastliegeplatz · Kanu-Anleger · Main km 110.3", "tags": ["Gastliegeplatz", "Kanu"], "tel": null, "web": "www.woerth-am-main.de", "source": "DTV Gelbe Welle Standortliste", "source_detail": "Stand März 2026 · Geokodierung OSM/Nominatim", "quality": "curated", "coord_quality": "exact", "lat": 49.79365, "lon": 9.15665}, {"id": "gw-faulbach-97906", "kind": "gelbe_welle", "name": "Faulbach", "area": "Main", "region": null, "land": "BY", "desc": "Offizieller Gelbe-Welle-Gastliegeplatz · Kanu-Anleger · Main km 146.4", "tags": ["Gastliegeplatz", "Kanu"], "tel": "09392/9282 0", "web": "www.faulbach.de", "source": "DTV Gelbe Welle Standortliste", "source_detail": "Stand März 2026 · Geokodierung OSM/Nominatim", "quality": "curated", "coord_quality": "exact", "lat": 49.81717, "lon": 9.43285}, {"id": "gw-festplatz-mainaschaff-63814", "kind": "gelbe_welle", "name": "Festplatz Mainaschaff", "area": "Main", "region": null, "land": "BY", "desc": "Offizieller Gelbe-Welle-Gastliegeplatz · Kanu-Anleger · Main km 82.5", "tags": ["Gastliegeplatz", "Kanu"], "tel": null, "web": "www.mainaschaff.de", "source": "DTV Gelbe Welle Standortliste", "source_detail": "Stand März 2026 · Geokodierung OSM/Nominatim", "quality": "curated", "coord_quality": "exact", "lat": 49.9764, "lon": 9.08411}, {"id": "gw-miltenberg-63897", "kind": "gelbe_welle", "name": "Miltenberg", "area": "Main", "region": null, "land": "BY", "desc": "Offizieller Gelbe-Welle-Gastliegeplatz · Kanu-Anleger · Main km 125.0", "tags": ["Gastliegeplatz", "Kanu"], "tel": null, "web": "www.stadt-miltenberg.de", "source": "DTV Gelbe Welle Standortliste", "source_detail": "Stand März 2026 · Geokodierung OSM/Nominatim", "quality": "curated", "coord_quality": "exact", "lat": 49.70641, "lon": 9.24864}, {"id": "gw-obernburg-fl-nr-8622-8-63785", "kind": "gelbe_welle", "name": "Obernburg, Fl. Nr. 8622/8", "area": "Main", "region": null, "land": "BY", "desc": "Offizieller Gelbe-Welle-Gastliegeplatz · Kanu-Anleger · Main km 104.4", "tags": ["Gastliegeplatz", "Kanu"], "tel": "06022/61910", "web": "www.obernburg.de", "source": "DTV Gelbe Welle Standortliste", "source_detail": "Stand März 2026 · Geokodierung OSM/Nominatim", "quality": "curated", "coord_quality": "cluster", "lat": 49.8239, "lon": 9.11072}, {"id": "gw-anlegestelle-fuer-fahrgastschiffe-63927", "kind": "gelbe_welle", "name": "Anlegestelle für Fahrgastschiffe", "area": "Main", "region": null, "land": "BY", "desc": "Offizieller Gelbe-Welle-Gastliegeplatz · Kanu-Anleger · Main km 126.6", "tags": ["Gastliegeplatz", "Kanu"], "tel": null, "web": "www.buergstadt.de", "source": "DTV Gelbe Welle Standortliste", "source_detail": "Stand März 2026 · Geokodierung OSM/Nominatim", "quality": "curated", "coord_quality": "cluster", "lat": 49.71586, "lon": 9.27138}, {"id": "gw-erlenbach-am-main-63906", "kind": "gelbe_welle", "name": "Erlenbach am Main", "area": "Main", "region": null, "land": "BY", "desc": "Offizieller Gelbe-Welle-Gastliegeplatz · Kanu-Anleger · Main km 110.2", "tags": ["Gastliegeplatz", "Kanu"], "tel": null, "web": "www.stadt-erlenbach.de", "source": "DTV Gelbe Welle Standortliste", "source_detail": "Stand März 2026 · Geokodierung OSM/Nominatim", "quality": "curated", "coord_quality": "exact", "lat": 49.80462, "lon": 9.15947}, {"id": "gw-grosswallstadt-63868", "kind": "gelbe_welle", "name": "Großwallstadt", "area": "Main", "region": null, "land": "BY", "desc": "Offizieller Gelbe-Welle-Gastliegeplatz · Kanu-Anleger · Main km 100.3", "tags": ["Gastliegeplatz", "Kanu"], "tel": null, "web": "www.grosswallstadt.de", "source": "DTV Gelbe Welle Standortliste", "source_detail": "Stand März 2026 · Geokodierung OSM/Nominatim", "quality": "curated", "coord_quality": "exact", "lat": 49.89171, "lon": 9.14683}, {"id": "gw-markt-stockstadt-63811", "kind": "gelbe_welle", "name": "Markt Stockstadt", "area": "Main", "region": null, "land": "BY", "desc": "Offizieller Gelbe-Welle-Gastliegeplatz · Kanu-Anleger · Main km 81.2", "tags": ["Gastliegeplatz", "Kanu"], "tel": null, "web": "www.stockstadt-am-main.de", "source": "DTV Gelbe Welle Standortliste", "source_detail": "Stand März 2026 · Geokodierung OSM/Nominatim", "quality": "curated", "coord_quality": "exact", "lat": 49.96843, "lon": 9.07377}, {"id": "gw-kleinwallstadt-63839", "kind": "gelbe_welle", "name": "Kleinwallstadt", "area": "Main", "region": null, "land": "BY", "desc": "Offizieller Gelbe-Welle-Gastliegeplatz · Kanu-Anleger · Main km 101.1", "tags": ["Gastliegeplatz", "Kanu"], "tel": null, "web": "www.kleinwallstadt.de", "source": "DTV Gelbe Welle Standortliste", "source_detail": "Stand März 2026 · Geokodierung OSM/Nominatim", "quality": "curated", "coord_quality": "exact", "lat": 49.87277, "lon": 9.16524}, {"id": "gw-kleinwallstadt-63839-2", "kind": "gelbe_welle", "name": "Kleinwallstadt", "area": "Main", "region": null, "land": "BY", "desc": "Offizieller Gelbe-Welle-Gastliegeplatz · Kanu-Anleger · Main km 101.6", "tags": ["Gastliegeplatz", "Kanu"], "tel": null, "web": "www.kleinwallstadt.de", "source": "DTV Gelbe Welle Standortliste", "source_detail": "Stand März 2026 · Geokodierung OSM/Nominatim", "quality": "curated", "coord_quality": "exact", "lat": 49.87277, "lon": 9.16524}, {"id": "gw-kleinwallstadt-63839-2-2", "kind": "gelbe_welle", "name": "Kleinwallstadt", "area": "Main", "region": null, "land": "BY", "desc": "Offizieller Gelbe-Welle-Gastliegeplatz · Kanu-Anleger · Main km 100.6", "tags": ["Gastliegeplatz", "Kanu"], "tel": null, "web": "www.kleinwallstadt.de", "source": "DTV Gelbe Welle Standortliste", "source_detail": "Stand März 2026 · Geokodierung OSM/Nominatim", "quality": "curated", "coord_quality": "exact", "lat": 49.87277, "lon": 9.16524}, {"id": "gw-fl-nr-5715-an-bootsanlegestelle-63920", "kind": "gelbe_welle", "name": "Fl. Nr. 5715 an Bootsanlegestelle", "area": "Main", "region": null, "land": "BY", "desc": "Offizieller Gelbe-Welle-Gastliegeplatz · Kanu-Anleger · Main km 120.8", "tags": ["Gastliegeplatz", "Kanu"], "tel": null, "web": "www.grossheubach.de", "source": "DTV Gelbe Welle Standortliste", "source_detail": "Stand März 2026 · Geokodierung OSM/Nominatim", "quality": "curated", "coord_quality": "cluster", "lat": 49.73466, "lon": 9.22745}, {"id": "gw-fahrgasse-fahrtor-63924", "kind": "gelbe_welle", "name": "Fahrgasse/ Fahrtor", "area": "Main", "region": null, "land": "BY", "desc": "Offizieller Gelbe-Welle-Gastliegeplatz · Kanu-Anleger · Main km 120.9", "tags": ["Gastliegeplatz", "Kanu"], "tel": null, "web": "www.kleinheubach.de", "source": "DTV Gelbe Welle Standortliste", "source_detail": "Stand März 2026 · Geokodierung OSM/Nominatim", "quality": "curated", "coord_quality": "cluster", "lat": 49.72137, "lon": 9.19362}, {"id": "gw-langenprozelten-97737", "kind": "gelbe_welle", "name": "Langenprozelten", "area": "Main", "region": null, "land": "BY", "desc": "Offizieller Gelbe-Welle-Gastliegeplatz · Kanu-Anleger · Main km 209.2", "tags": ["Gastliegeplatz", "Kanu"], "tel": "09351/8001-73", "web": "www.stadt-gemuenden.info/page2", "source": "DTV Gelbe Welle Standortliste", "source_detail": "Stand März 2026 · Geokodierung OSM/Nominatim", "quality": "curated", "coord_quality": "exact", "lat": 50.0622, "lon": 9.66261}, {"id": "gw-gemuenden-am-main-97737", "kind": "gelbe_welle", "name": "Gemünden am Main", "area": "Main", "region": null, "land": "BY", "desc": "Offizieller Gelbe-Welle-Gastliegeplatz · Kanu-Anleger · Main km 211.2", "tags": ["Gastliegeplatz", "Kanu"], "tel": "09351/8001-73", "web": "www.stadt-gemuenden.info/page2", "source": "DTV Gelbe Welle Standortliste", "source_detail": "Stand März 2026 · Geokodierung OSM/Nominatim", "quality": "curated", "coord_quality": "exact", "lat": 50.05177, "lon": 9.72151}, {"id": "gw-wernfeld-97737", "kind": "gelbe_welle", "name": "Wernfeld", "area": "Main", "region": null, "land": "BY", "desc": "Offizieller Gelbe-Welle-Gastliegeplatz · Kanu-Anleger · Main km 216.1", "tags": ["Gastliegeplatz", "Kanu"], "tel": "09351/8001-73", "web": "www.stadt-gemuenden.info", "source": "DTV Gelbe Welle Standortliste", "source_detail": "Stand März 2026 · Geokodierung OSM/Nominatim", "quality": "curated", "coord_quality": "exact", "lat": 50.02439, "lon": 9.72867}, {"id": "gw-eibelstadt-97246", "kind": "gelbe_welle", "name": "Eibelstadt", "area": "Main", "region": null, "land": "BY", "desc": "Offizieller Gelbe-Welle-Gastliegeplatz · Kanu-Anleger · Main km 263.0", "tags": ["Gastliegeplatz", "Kanu"], "tel": "09303/906129", "web": "www.eibelstadt.de", "source": "DTV Gelbe Welle Standortliste", "source_detail": "Stand März 2026 · Geokodierung OSM/Nominatim", "quality": "curated", "coord_quality": "exact", "lat": 49.72434, "lon": 10.00027}, {"id": "gw-trennfeld-97855", "kind": "gelbe_welle", "name": "Trennfeld", "area": "Main", "region": null, "land": "BY", "desc": "Offizieller Gelbe-Welle-Gastliegeplatz · Kanu-Anleger · Main km 171.5", "tags": ["Gastliegeplatz", "Kanu"], "tel": "09395/970136", "web": "http://www.markt-triefenstein.de/", "source": "DTV Gelbe Welle Standortliste", "source_detail": "Stand März 2026 · Geokodierung OSM/Nominatim", "quality": "curated", "coord_quality": "exact", "lat": 49.79507, "lon": 9.61515}, {"id": "gw-homburg-am-main-97855", "kind": "gelbe_welle", "name": "Homburg am Main", "area": "Main", "region": null, "land": "BY", "desc": "Offizieller Gelbe-Welle-Gastliegeplatz · Kanu-Anleger · Main km 171.5", "tags": ["Gastliegeplatz", "Kanu"], "tel": "09395/970136", "web": "www.markt-triefenstein.de", "source": "DTV Gelbe Welle Standortliste", "source_detail": "Stand März 2026 · Geokodierung OSM/Nominatim", "quality": "curated", "coord_quality": "exact", "lat": 49.79306, "lon": 9.6339}, {"id": "gw-lengfurt-97855", "kind": "gelbe_welle", "name": "Lengfurt", "area": "Main", "region": null, "land": "BY", "desc": "Offizieller Gelbe-Welle-Gastliegeplatz · Kanu-Anleger · Main km 173.9", "tags": ["Gastliegeplatz", "Kanu"], "tel": "09395/970136", "web": "www.markt-triefenstein.de", "source": "DTV Gelbe Welle Standortliste", "source_detail": "Stand März 2026 · Geokodierung OSM/Nominatim", "quality": "curated", "coord_quality": "exact", "lat": 49.81081, "lon": 9.6058}, {"id": "gw-veitshoechheim-97209", "kind": "gelbe_welle", "name": "Veitshöchheim", "area": "Main", "region": null, "land": "BY", "desc": "Offizieller Gelbe-Welle-Gastliegeplatz · Kanu-Anleger · Main km 244.3", "tags": ["Gastliegeplatz", "Kanu"], "tel": "0931/9802-6", "web": "www.veitshoechheim.de", "source": "DTV Gelbe Welle Standortliste", "source_detail": "Stand März 2026 · Geokodierung OSM/Nominatim", "quality": "curated", "coord_quality": "exact", "lat": 49.83035, "lon": 9.87631}, {"id": "gw-thuengersheim-97291", "kind": "gelbe_welle", "name": "Thüngersheim", "area": "Main", "region": null, "land": "BY", "desc": "Offizieller Gelbe-Welle-Gastliegeplatz · Kanu-Anleger · Main km 238.1", "tags": ["Gastliegeplatz", "Kanu"], "tel": "09364/81350", "web": "www.thuengersheim.de", "source": "DTV Gelbe Welle Standortliste", "source_detail": "Stand März 2026 · Geokodierung OSM/Nominatim", "quality": "curated", "coord_quality": "exact", "lat": 49.87993, "lon": 9.84212}, {"id": "gw-zellingen-97225", "kind": "gelbe_welle", "name": "Zellingen", "area": "Main", "region": null, "land": "BY", "desc": "Offizieller Gelbe-Welle-Gastliegeplatz · Kanu-Anleger · Main km 235.5", "tags": ["Gastliegeplatz", "Kanu"], "tel": "09364/8139908", "web": "www.markt-zellingen.de", "source": "DTV Gelbe Welle Standortliste", "source_detail": "Stand März 2026 · Geokodierung OSM/Nominatim", "quality": "curated", "coord_quality": "exact", "lat": 49.89833, "lon": 9.81685}, {"id": "gw-retzbach-97225", "kind": "gelbe_welle", "name": "Retzbach", "area": "Main", "region": null, "land": "BY", "desc": "Offizieller Gelbe-Welle-Gastliegeplatz · Kanu-Anleger · Main km 235.5", "tags": ["Gastliegeplatz", "Kanu"], "tel": "09364/8139908", "web": "www.markt-zellingen.de", "source": "DTV Gelbe Welle Standortliste", "source_detail": "Stand März 2026 · Geokodierung OSM/Nominatim", "quality": "curated", "coord_quality": "exact", "lat": 49.90345, "lon": 9.82099}, {"id": "gw-karlburg-97753", "kind": "gelbe_welle", "name": "Karlburg", "area": "Main", "region": null, "land": "BY", "desc": "Offizieller Gelbe-Welle-Gastliegeplatz · Kanu-Anleger · Main km 224.2", "tags": ["Gastliegeplatz", "Kanu"], "tel": "09353/79020", "web": "www.karlstadt.de", "source": "DTV Gelbe Welle Standortliste", "source_detail": "Stand März 2026 · Geokodierung OSM/Nominatim", "quality": "curated", "coord_quality": "exact", "lat": 49.9783, "lon": 9.76025}, {"id": "gw-karlstadt-97753", "kind": "gelbe_welle", "name": "Karlstadt", "area": "Main", "region": null, "land": "BY", "desc": "Offizieller Gelbe-Welle-Gastliegeplatz · Kanu-Anleger · Main km 226.0", "tags": ["Gastliegeplatz", "Kanu"], "tel": "09353/79020", "web": "www.karlstadt.de", "source": "DTV Gelbe Welle Standortliste", "source_detail": "Stand März 2026 · Geokodierung OSM/Nominatim", "quality": "curated", "coord_quality": "exact", "lat": 49.96145, "lon": 9.76425}, {"id": "gw-sackenbach-97816", "kind": "gelbe_welle", "name": "Sackenbach", "area": "Main", "region": null, "land": "BY", "desc": "Offizieller Gelbe-Welle-Gastliegeplatz · Kanu-Anleger · Main km 200.0", "tags": ["Gastliegeplatz", "Kanu"], "tel": "09352/848-460", "web": "https://www.lohr.de", "source": "DTV Gelbe Welle Standortliste", "source_detail": "Stand März 2026 · Geokodierung OSM/Nominatim", "quality": "curated", "coord_quality": "exact", "lat": 50.00891, "lon": 9.59103}, {"id": "gw-lohr-am-main-97816", "kind": "gelbe_welle", "name": "Lohr am Main", "area": "Main", "region": null, "land": "BY", "desc": "Offizieller Gelbe-Welle-Gastliegeplatz · Kanu-Anleger · Main km 198.2", "tags": ["Gastliegeplatz", "Kanu"], "tel": "09352/848-460", "web": "https://www.lohr.de/", "source": "DTV Gelbe Welle Standortliste", "source_detail": "Stand März 2026 · Geokodierung OSM/Nominatim", "quality": "curated", "coord_quality": "exact", "lat": 49.99475, "lon": 9.57378}, {"id": "gw-pflochsbach-97816", "kind": "gelbe_welle", "name": "Pflochsbach", "area": "Main", "region": null, "land": "BY", "desc": "Offizieller Gelbe-Welle-Gastliegeplatz · Kanu-Anleger · Main km 194.2", "tags": ["Gastliegeplatz", "Kanu"], "tel": "09352/848-460", "web": "https://www.lohr.de/", "source": "DTV Gelbe Welle Standortliste", "source_detail": "Stand März 2026 · Geokodierung OSM/Nominatim", "quality": "curated", "coord_quality": "exact", "lat": 49.96018, "lon": 9.60315}, {"id": "gw-marktheidenfeld-97828", "kind": "gelbe_welle", "name": "Marktheidenfeld", "area": "Main", "region": null, "land": "BY", "desc": "Offizieller Gelbe-Welle-Gastliegeplatz · Kanu-Anleger · Main km 179.2", "tags": ["Gastliegeplatz", "Kanu"], "tel": "09391/5004-41", "web": "www.stadt-marktheidenfeld.de", "source": "DTV Gelbe Welle Standortliste", "source_detail": "Stand März 2026 · Geokodierung OSM/Nominatim", "quality": "curated", "coord_quality": "exact", "lat": 49.84441, "lon": 9.60039}, {"id": "gw-kreuzwertheim-97892", "kind": "gelbe_welle", "name": "Kreuzwertheim", "area": "Main", "region": null, "land": "BY", "desc": "Offizieller Gelbe-Welle-Gastliegeplatz · Kanu-Anleger · Main km 157.2", "tags": ["Gastliegeplatz", "Kanu"], "tel": "09342/9262-0", "web": "www.kreuzwertheim.de", "source": "DTV Gelbe Welle Standortliste", "source_detail": "Stand März 2026 · Geokodierung OSM/Nominatim", "quality": "curated", "coord_quality": "exact", "lat": 49.76664, "lon": 9.52297}, {"id": "gw-frickenhausen-97252", "kind": "gelbe_welle", "name": "Frickenhausen", "area": "Main", "region": null, "land": "BY", "desc": "Offizieller Gelbe-Welle-Gastliegeplatz · Kanu-Anleger · Main km 273.3", "tags": ["Gastliegeplatz", "Kanu"], "tel": "09331/2726", "web": "www.frickenhausen-main.de", "source": "DTV Gelbe Welle Standortliste", "source_detail": "Stand März 2026 · Geokodierung OSM/Nominatim", "quality": "curated", "coord_quality": "exact", "lat": 49.66871, "lon": 10.07527}, {"id": "gw-mainbruecke-lichtenfels-96215", "kind": "gelbe_welle", "name": "Mainbrücke Lichtenfels", "area": "Main", "region": null, "land": "BY", "desc": "Offizieller Gelbe-Welle-Gastliegeplatz · Kanu-Anleger · Main km 429.8", "tags": ["Gastliegeplatz", "Kanu"], "tel": null, "web": null, "source": "DTV Gelbe Welle Standortliste", "source_detail": "Stand März 2026 · Geokodierung OSM/Nominatim", "quality": "curated", "coord_quality": "exact", "lat": 50.1326, "lon": 11.24421}, {"id": "gw-bad-staffelstein-ot-unnersdorf-96231", "kind": "gelbe_welle", "name": "Bad Staffelstein OT Unnersdorf", "area": "Main", "region": null, "land": "BY", "desc": "Offizieller Gelbe-Welle-Gastliegeplatz · Kanu-Anleger · Main km 420.0", "tags": ["Gastliegeplatz", "Kanu"], "tel": null, "web": "http://www.main-", "source": "DTV Gelbe Welle Standortliste", "source_detail": "Stand März 2026 · Geokodierung OSM/Nominatim", "quality": "curated", "coord_quality": "cluster", "lat": 50.10283, "lon": 10.99916}, {"id": "gw-bad-staffelstein-ot-nedensdorf-96231", "kind": "gelbe_welle", "name": "Bad Staffelstein OT Nedensdorf", "area": "Main", "region": null, "land": "BY", "desc": "Offizieller Gelbe-Welle-Gastliegeplatz · Kanu-Anleger · Main km 418.2", "tags": ["Gastliegeplatz", "Kanu"], "tel": null, "web": "http://www.main-", "source": "DTV Gelbe Welle Standortliste", "source_detail": "Stand März 2026 · Geokodierung OSM/Nominatim", "quality": "curated", "coord_quality": "cluster", "lat": 50.10283, "lon": 10.99916}, {"id": "gw-markt-ebensfeld-96250", "kind": "gelbe_welle", "name": "Markt Ebensfeld", "area": "Main", "region": null, "land": "BY", "desc": "Offizieller Gelbe-Welle-Gastliegeplatz · Kanu-Anleger · Main km 412.2", "tags": ["Gastliegeplatz", "Kanu"], "tel": null, "web": "http://www.main-", "source": "DTV Gelbe Welle Standortliste", "source_detail": "Stand März 2026 · Geokodierung OSM/Nominatim", "quality": "curated", "coord_quality": "exact", "lat": 50.04132, "lon": 10.95877}, {"id": "gw-hochstadt-am-main-96272", "kind": "gelbe_welle", "name": "Hochstadt am Main", "area": "Main", "region": null, "land": "BY", "desc": "Offizieller Gelbe-Welle-Gastliegeplatz · Kanu-Anleger · Main km 442.2", "tags": ["Gastliegeplatz", "Kanu"], "tel": null, "web": null, "source": "DTV Gelbe Welle Standortliste", "source_detail": "Stand März 2026 · Geokodierung OSM/Nominatim", "quality": "curated", "coord_quality": "exact", "lat": 50.15715, "lon": 8.83377}, {"id": "gw-michelau-96247", "kind": "gelbe_welle", "name": "Michelau", "area": "Main", "region": null, "land": "BY", "desc": "Offizieller Gelbe-Welle-Gastliegeplatz · Kanu-Anleger · Main km 435.1", "tags": ["Gastliegeplatz", "Kanu"], "tel": null, "web": "http://www.main-", "source": "DTV Gelbe Welle Standortliste", "source_detail": "Stand März 2026 · Geokodierung OSM/Nominatim", "quality": "curated", "coord_quality": "exact", "lat": 50.11881, "lon": 9.76058}, {"id": "gw-marktgemeinde-winterhausen-97286", "kind": "gelbe_welle", "name": "Marktgemeinde Winterhausen", "area": "Main", "region": null, "land": "BY", "desc": "Offizieller Gelbe-Welle-Gastliegeplatz · Kanu-Anleger · Main km 265.2", "tags": ["Gastliegeplatz", "Kanu"], "tel": null, "web": "www.winterhausen.de", "source": "DTV Gelbe Welle Standortliste", "source_detail": "Stand März 2026 · Geokodierung OSM/Nominatim", "quality": "curated", "coord_quality": "cluster", "lat": 49.7069, "lon": 10.01545}, {"id": "gw-markt-sommerhausen-97286", "kind": "gelbe_welle", "name": "Markt Sommerhausen", "area": "Main", "region": null, "land": "BY", "desc": "Offizieller Gelbe-Welle-Gastliegeplatz · Kanu-Anleger · Main km 265.5", "tags": ["Gastliegeplatz", "Kanu"], "tel": null, "web": "www.sommerhausen.de", "source": "DTV Gelbe Welle Standortliste", "source_detail": "Stand März 2026 · Geokodierung OSM/Nominatim", "quality": "curated", "coord_quality": "cluster", "lat": 49.70527, "lon": 10.02445}, {"id": "gw-markt-randersacker-97236", "kind": "gelbe_welle", "name": "Markt Randersacker", "area": "Main", "region": null, "land": "BY", "desc": "Offizieller Gelbe-Welle-Gastliegeplatz · Kanu-Anleger · Main km 258.3", "tags": ["Gastliegeplatz", "Kanu"], "tel": null, "web": "www.randersacker.de", "source": "DTV Gelbe Welle Standortliste", "source_detail": "Stand März 2026 · Geokodierung OSM/Nominatim", "quality": "curated", "coord_quality": "exact", "lat": 49.76047, "lon": 9.9821}, {"id": "gw-stadt-ochsenfurt-97199", "kind": "gelbe_welle", "name": "Stadt Ochsenfurt", "area": "Main", "region": null, "land": "BY", "desc": "Offizieller Gelbe-Welle-Gastliegeplatz · Kanu-Anleger · Main km 268.3", "tags": ["Gastliegeplatz", "Kanu"], "tel": null, "web": "www.ochsenfurt.de", "source": "DTV Gelbe Welle Standortliste", "source_detail": "Stand März 2026 · Geokodierung OSM/Nominatim", "quality": "curated", "coord_quality": "exact", "lat": 49.66244, "lon": 10.07429}, {"id": "gw-stadt-ochsenfurt-97199-2", "kind": "gelbe_welle", "name": "Stadt Ochsenfurt", "area": "Main", "region": null, "land": "BY", "desc": "Offizieller Gelbe-Welle-Gastliegeplatz · Kanu-Anleger · Main km 269.9", "tags": ["Gastliegeplatz", "Kanu"], "tel": null, "web": "www.ochsenfurt.de", "source": "DTV Gelbe Welle Standortliste", "source_detail": "Stand März 2026 · Geokodierung OSM/Nominatim", "quality": "curated", "coord_quality": "exact", "lat": 49.66244, "lon": 10.07429}, {"id": "gw-stadt-ochsenfurt-97199-2-2", "kind": "gelbe_welle", "name": "Stadt Ochsenfurt", "area": "Main", "region": null, "land": "BY", "desc": "Offizieller Gelbe-Welle-Gastliegeplatz · Kanu-Anleger · Main km 270.9", "tags": ["Gastliegeplatz", "Kanu"], "tel": null, "web": "www.ochsenfurt.de", "source": "DTV Gelbe Welle Standortliste", "source_detail": "Stand März 2026 · Geokodierung OSM/Nominatim", "quality": "curated", "coord_quality": "exact", "lat": 49.66244, "lon": 10.07429}, {"id": "gw-stadt-ochsenfurt-97199-2-2-2", "kind": "gelbe_welle", "name": "Stadt Ochsenfurt", "area": "Main", "region": null, "land": "BY", "desc": "Offizieller Gelbe-Welle-Gastliegeplatz · Kanu-Anleger · Main km 271.3", "tags": ["Gastliegeplatz", "Kanu"], "tel": null, "web": "www.ochsenfurt.de", "source": "DTV Gelbe Welle Standortliste", "source_detail": "Stand März 2026 · Geokodierung OSM/Nominatim", "quality": "curated", "coord_quality": "exact", "lat": 49.66244, "lon": 10.07429}, {"id": "gw-sgvn-marina-20537", "kind": "gelbe_welle", "name": "SGVN Marina", "area": "Elbe", "region": null, "land": "HH", "desc": "Offizieller Gelbe-Welle-Gastliegeplatz · Elbe km 618.0", "tags": ["Gastliegeplatz"], "tel": "0700/01000247", "web": null, "source": "DTV Gelbe Welle Standortliste", "source_detail": "Stand März 2026 · Geokodierung OSM/Nominatim", "quality": "curated", "coord_quality": "approx", "lat": 53.54443, "lon": 10.05188}, {"id": "gw-hamburg-tatenberg-21037", "kind": "gelbe_welle", "name": "Hamburg Tatenberg", "area": "Dove Elbe", "region": null, "land": "HH", "desc": "Offizieller Gelbe-Welle-Gastliegeplatz · Dove Elbe km 20", "tags": ["Gastliegeplatz"], "tel": null, "web": "www.hamburger-yacht-club.de", "source": "DTV Gelbe Welle Standortliste", "source_detail": "Stand März 2026 · Geokodierung OSM/Nominatim", "quality": "curated", "coord_quality": "approx", "lat": 53.49381, "lon": 10.08595}, {"id": "gw-weserbergland-34385", "kind": "gelbe_welle", "name": "Weserbergland", "area": "Weser", "region": null, "land": "HE", "desc": "Offizieller Gelbe-Welle-Gastliegeplatz · Kanu-Anleger · Weser km 44.0", "tags": ["Gastliegeplatz", "Kanu"], "tel": null, "web": null, "source": "DTV Gelbe Welle Standortliste", "source_detail": "Stand März 2026 · Geokodierung OSM/Nominatim", "quality": "curated", "coord_quality": "exact", "lat": 51.66111, "lon": 9.4836}, {"id": "gw-weserbergland-34399", "kind": "gelbe_welle", "name": "Weserbergland", "area": "Weser", "region": null, "land": "HE", "desc": "Offizieller Gelbe-Welle-Gastliegeplatz · Kanu-Anleger · Weser km 28.0", "tags": ["Gastliegeplatz", "Kanu"], "tel": null, "web": null, "source": "DTV Gelbe Welle Standortliste", "source_detail": "Stand März 2026 · Geokodierung OSM/Nominatim", "quality": "curated", "coord_quality": "exact", "lat": 51.62416, "lon": 9.55179}, {"id": "gw-weserbergland-34399-2", "kind": "gelbe_welle", "name": "Weserbergland", "area": "Weser", "region": null, "land": "HE", "desc": "Offizieller Gelbe-Welle-Gastliegeplatz · Kanu-Anleger · Weser km 25.0", "tags": ["Gastliegeplatz", "Kanu"], "tel": null, "web": null, "source": "DTV Gelbe Welle Standortliste", "source_detail": "Stand März 2026 · Geokodierung OSM/Nominatim", "quality": "curated", "coord_quality": "exact", "lat": 51.62416, "lon": 9.55179}, {"id": "gw-weserbergland-34399-2-2", "kind": "gelbe_welle", "name": "Weserbergland", "area": "Weser", "region": null, "land": "HE", "desc": "Offizieller Gelbe-Welle-Gastliegeplatz · Kanu-Anleger · Weser km 22.2", "tags": ["Gastliegeplatz", "Kanu"], "tel": null, "web": null, "source": "DTV Gelbe Welle Standortliste", "source_detail": "Stand März 2026 · Geokodierung OSM/Nominatim", "quality": "curated", "coord_quality": "approx", "lat": 51.56597, "lon": 9.5926}, {"id": "gw-weserbergland-37194", "kind": "gelbe_welle", "name": "Weserbergland", "area": "Weser", "region": null, "land": "HE", "desc": "Offizieller Gelbe-Welle-Gastliegeplatz · Kanu-Anleger · Weser km 31.3", "tags": ["Gastliegeplatz", "Kanu"], "tel": null, "web": null, "source": "DTV Gelbe Welle Standortliste", "source_detail": "Stand März 2026 · Geokodierung OSM/Nominatim", "quality": "curated", "coord_quality": "exact", "lat": 51.62416, "lon": 9.55179}, {"id": "gw-schwimmclub-wiesbaden-1911-65396", "kind": "gelbe_welle", "name": "Schwimmclub Wiesbaden 1911", "area": "Rhein", "region": null, "land": "HE", "desc": "Offizieller Gelbe-Welle-Gastliegeplatz · Rhein km 505.9", "tags": ["Gastliegeplatz"], "tel": "06123/793300", "web": null, "source": "DTV Gelbe Welle Standortliste", "source_detail": "Stand März 2026 · Geokodierung OSM/Nominatim", "quality": "curated", "coord_quality": "approx", "lat": 50.03771, "lon": 8.15619}, {"id": "gw-kanustation-anklam-17389", "kind": "gelbe_welle", "name": "Kanustation Anklam", "area": "Peene", "region": null, "land": "MV", "desc": "Offizieller Gelbe-Welle-Gastliegeplatz · 2 Gastliegeplätze · Peene km 95.2", "tags": ["Gastliegeplatz"], "tel": "038231/2740", "web": "www.kanustation-anklam.de", "source": "DTV Gelbe Welle Standortliste", "source_detail": "Stand März 2026 · Geokodierung OSM/Nominatim", "quality": "curated", "coord_quality": "approx", "lat": 53.86125, "lon": 13.69218}, {"id": "gw-ladwig-97-1-17389", "kind": "gelbe_welle", "name": "Ladwig 97,1", "area": "Peene", "region": null, "land": "MV", "desc": "Offizieller Gelbe-Welle-Gastliegeplatz · 2 Gastliegeplätze · Peene km 97.1", "tags": ["Gastliegeplatz"], "tel": null, "web": null, "source": "DTV Gelbe Welle Standortliste", "source_detail": "Stand März 2026 · Geokodierung OSM/Nominatim", "quality": "curated", "coord_quality": "approx", "lat": 53.8609, "lon": 13.68845}, {"id": "gw-wasserwanderrastplatz-anklam-17389", "kind": "gelbe_welle", "name": "Wasserwanderrastplatz Anklam", "area": "Peene", "region": null, "land": "MV", "desc": "Offizieller Gelbe-Welle-Gastliegeplatz · Peene km 16", "tags": ["Gastliegeplatz"], "tel": "87+767", "web": "www.anklam.de", "source": "DTV Gelbe Welle Standortliste", "source_detail": "Stand März 2026 · Geokodierung OSM/Nominatim", "quality": "curated", "coord_quality": "approx", "lat": 53.85629, "lon": 13.68795}, {"id": "gw-wwr-bad-suelze-18334", "kind": "gelbe_welle", "name": "WWR Bad Sülze", "area": "Recknitz", "region": null, "land": "MV", "desc": "Offizieller Gelbe-Welle-Gastliegeplatz · Recknitz km 2", "tags": ["Gastliegeplatz"], "tel": null, "web": "www.JAMweb.de", "source": "DTV Gelbe Welle Standortliste", "source_detail": "Stand März 2026 · Geokodierung OSM/Nominatim", "quality": "curated", "coord_quality": "approx", "lat": 54.10743, "lon": 12.66651}, {"id": "gw-barther-yacht-service-gmbh-18356", "kind": "gelbe_welle", "name": "Barther Yacht-Service GmbH", "area": "Ostsee", "region": null, "land": "MV", "desc": "Offizieller Gelbe-Welle-Gastliegeplatz · Ostsee km 100", "tags": ["Gastliegeplatz"], "tel": "039774/20323", "web": "www.barther-yacht-service.de", "source": "DTV Gelbe Welle Standortliste", "source_detail": "Stand März 2026 · Geokodierung OSM/Nominatim", "quality": "curated", "coord_quality": "approx", "lat": 54.37127, "lon": 12.72364}, {"id": "gw-stadthafen-barth-18356", "kind": "gelbe_welle", "name": "Stadthafen Barth", "area": "Ostsee", "region": null, "land": "MV", "desc": "Offizieller Gelbe-Welle-Gastliegeplatz · Ostsee km 200", "tags": ["Gastliegeplatz"], "tel": null, "web": null, "source": "DTV Gelbe Welle Standortliste", "source_detail": "Stand März 2026 · Geokodierung OSM/Nominatim", "quality": "curated", "coord_quality": "exact", "lat": 54.37168, "lon": 12.72743}, {"id": "gw-wwr-alt-plestin-17129", "kind": "gelbe_welle", "name": "WWR Alt-Plestin", "area": "Peene", "region": null, "land": "MV", "desc": "Offizieller Gelbe-Welle-Gastliegeplatz · 12 Gastliegeplätze · Peene km 57.1", "tags": ["Gastliegeplatz"], "tel": null, "web": null, "source": "DTV Gelbe Welle Standortliste", "source_detail": "Stand März 2026 · Geokodierung OSM/Nominatim", "quality": "curated", "coord_quality": "cluster", "lat": 53.94578, "lon": 13.27487}, {"id": "gw-wasser-wanderrastplatz-born-18375", "kind": "gelbe_welle", "name": "Wasser-Wanderrastplatz Born", "area": "Koppelstrom (zwischen dem Saaler u.", "region": null, "land": "MV", "desc": "Offizieller Gelbe-Welle-Gastliegeplatz · Koppelstrom (zwischen dem Saaler u. km 35", "tags": ["Gastliegeplatz"], "tel": null, "web": "www.darss.org", "source": "DTV Gelbe Welle Standortliste", "source_detail": "Stand März 2026 · Geokodierung OSM/Nominatim", "quality": "curated", "coord_quality": "approx", "lat": 54.38717, "lon": 12.53194}, {"id": "gw-wwrp-breege-18556", "kind": "gelbe_welle", "name": "WWRP Breege", "area": "Breeger Bodden", "region": null, "land": "MV", "desc": "Offizieller Gelbe-Welle-Gastliegeplatz · Breeger Bodden km 50", "tags": ["Gastliegeplatz"], "tel": null, "web": null, "source": "DTV Gelbe Welle Standortliste", "source_detail": "Stand März 2026 · Geokodierung OSM/Nominatim", "quality": "curated", "coord_quality": "approx", "lat": 54.61238, "lon": 13.35496}, {"id": "gw-freizeitzentrum-schult-17109", "kind": "gelbe_welle", "name": "Freizeitzentrum Schult", "area": "Peene", "region": null, "land": "MV", "desc": "Offizieller Gelbe-Welle-Gastliegeplatz · 3 Gastliegeplätze · Peene km 36.5", "tags": ["Gastliegeplatz"], "tel": "0381/49455266", "web": null, "source": "DTV Gelbe Welle Standortliste", "source_detail": "Stand März 2026 · Geokodierung OSM/Nominatim", "quality": "curated", "coord_quality": "approx", "lat": 53.9105, "lon": 13.04128}, {"id": "gw-wwr-demmin-17109", "kind": "gelbe_welle", "name": "WWR Demmin", "area": "Peene", "region": null, "land": "MV", "desc": "Offizieller Gelbe-Welle-Gastliegeplatz · 18 Gastliegeplätze · Peene km 32.6", "tags": ["Gastliegeplatz"], "tel": null, "web": null, "source": "DTV Gelbe Welle Standortliste", "source_detail": "Stand März 2026 · Geokodierung OSM/Nominatim", "quality": "curated", "coord_quality": "cluster", "lat": 53.907, "lon": 13.03278}, {"id": "gw-elbhafen-doemitz-19303", "kind": "gelbe_welle", "name": "Elbhafen Dömitz", "area": "Elbe/Elde", "region": null, "land": "MV", "desc": "Offizieller Gelbe-Welle-Gastliegeplatz · Elbe/Elde km 16", "tags": ["Gastliegeplatz"], "tel": "0385/5814170", "web": null, "source": "DTV Gelbe Welle Standortliste", "source_detail": "Stand März 2026 · Geokodierung OSM/Nominatim", "quality": "curated", "coord_quality": "approx", "lat": 53.1376, "lon": 11.25867}, {"id": "gw-motoryachtclub-doemitz-e-v-19303", "kind": "gelbe_welle", "name": "Motoryachtclub Dömitz e.V.", "area": "Müritz-Elde-Wasserstraße", "region": null, "land": "MV", "desc": "Offizieller Gelbe-Welle-Gastliegeplatz · 8 Gastliegeplätze · Müritz-Elde-Wasserstraße km 0.6", "tags": ["Gastliegeplatz"], "tel": "038755/20309", "web": null, "source": "DTV Gelbe Welle Standortliste", "source_detail": "Stand März 2026 · Geokodierung OSM/Nominatim", "quality": "curated", "coord_quality": "approx", "lat": 53.13552, "lon": 11.26326}, {"id": "gw-bootshafen-eldena-19294", "kind": "gelbe_welle", "name": "Bootshafen Eldena", "area": "Müritz-Elde-WS", "region": null, "land": "MV", "desc": "Offizieller Gelbe-Welle-Gastliegeplatz · 15 Gastliegeplätze · Müritz-Elde-WS km 17.8", "tags": ["Gastliegeplatz"], "tel": "039823/20520", "web": "www.camping-eldena.de", "source": "DTV Gelbe Welle Standortliste", "source_detail": "Stand März 2026 · Geokodierung OSM/Nominatim", "quality": "curated", "coord_quality": "approx", "lat": 53.23176, "lon": 11.42424}, {"id": "gw-wasserwanderrastplatz-eldekrug-19300", "kind": "gelbe_welle", "name": "Wasserwanderrastplatz Eldekrug", "area": "Müritz-Elde-WS", "region": null, "land": "MV", "desc": "Offizieller Gelbe-Welle-Gastliegeplatz · 15 Gastliegeplätze · Müritz-Elde-WS km 27.7", "tags": ["Gastliegeplatz"], "tel": null, "web": "www.eldekrug.de", "source": "DTV Gelbe Welle Standortliste", "source_detail": "Stand März 2026 · Geokodierung OSM/Nominatim", "quality": "curated", "coord_quality": "approx", "lat": 53.26361, "lon": 11.54296}, {"id": "gw-hafen-glowe-18551", "kind": "gelbe_welle", "name": "Hafen Glowe", "area": "Ostsee", "region": null, "land": "MV", "desc": "Offizieller Gelbe-Welle-Gastliegeplatz · Ostsee km 60", "tags": ["Gastliegeplatz"], "tel": "03991/141803", "web": null, "source": "DTV Gelbe Welle Standortliste", "source_detail": "Stand März 2026 · Geokodierung OSM/Nominatim", "quality": "curated", "coord_quality": "approx", "lat": 54.57035, "lon": 13.472}, {"id": "gw-stadthafen-grabow-19300", "kind": "gelbe_welle", "name": "Stadthafen Grabow", "area": "Müritz-Elde-WS", "region": null, "land": "MV", "desc": "Offizieller Gelbe-Welle-Gastliegeplatz · 18 Gastliegeplätze · Müritz-Elde-WS km 30.2", "tags": ["Gastliegeplatz"], "tel": null, "web": "www.stadtgrabow.de", "source": "DTV Gelbe Welle Standortliste", "source_detail": "Stand März 2026 · Geokodierung OSM/Nominatim", "quality": "curated", "coord_quality": "exact", "lat": 53.27763, "lon": 11.55927}, {"id": "gw-wwr-hechtsforthschleuse-19300", "kind": "gelbe_welle", "name": "WWR Hechtsforthschleuse", "area": "Müritz-Elde-WS", "region": null, "land": "MV", "desc": "Offizieller Gelbe-Welle-Gastliegeplatz · 25 Gastliegeplätze · Müritz-Elde-WS km 34.5", "tags": ["Gastliegeplatz"], "tel": null, "web": null, "source": "DTV Gelbe Welle Standortliste", "source_detail": "Stand März 2026 · Geokodierung OSM/Nominatim", "quality": "curated", "coord_quality": "approx", "lat": 53.30359, "lon": 11.59661}, {"id": "gw-freizeitsteg-mirow-rundtoern-marina-17252", "kind": "gelbe_welle", "name": "Freizeitsteg Mirow (Rundtörn-Marina)", "area": "Müritz-Havel-WS Granzower Möschen", "region": null, "land": "MV", "desc": "Offizieller Gelbe-Welle-Gastliegeplatz · 20 Gastliegeplätze · Müritz-Havel-WS Granzower Möschen km 4.3", "tags": ["Gastliegeplatz"], "tel": "038328/85317", "web": "www.rundtoern-marinas.de", "source": "DTV Gelbe Welle Standortliste", "source_detail": "Stand März 2026 · Geokodierung OSM/Nominatim", "quality": "curated", "coord_quality": "cluster", "lat": 53.30198, "lon": 12.81231}, {"id": "gw-yachthafen-maribel-17194", "kind": "gelbe_welle", "name": "Yachthafen Maribel", "area": "Müritz-Elde-WS Jabelscher See", "region": null, "land": "MV", "desc": "Offizieller Gelbe-Welle-Gastliegeplatz · 80 Gastliegeplätze · Müritz-Elde-WS Jabelscher See km 104.4", "tags": ["Gastliegeplatz"], "tel": null, "web": "www.maribell.de", "source": "DTV Gelbe Welle Standortliste", "source_detail": "Stand März 2026 · Geokodierung OSM/Nominatim", "quality": "curated", "coord_quality": "approx", "lat": 53.53199, "lon": 12.54103}, {"id": "gw-peenestrom-17449", "kind": "gelbe_welle", "name": "Peenestrom", "area": "Peenestrom", "region": null, "land": "MV", "desc": "Offizieller Gelbe-Welle-Gastliegeplatz · Peenestrom km 112", "tags": ["Gastliegeplatz"], "tel": "038371/20066", "web": "www.karlshagen.de", "source": "DTV Gelbe Welle Standortliste", "source_detail": "Stand März 2026 · Geokodierung OSM/Nominatim", "quality": "curated", "coord_quality": "approx", "lat": 54.10849, "lon": 13.81302}, {"id": "gw-yachthafen-am-schloss-17192", "kind": "gelbe_welle", "name": "Yachthafen am Schloss", "area": "Müritz-Elde-WS", "region": null, "land": "MV", "desc": "Offizieller Gelbe-Welle-Gastliegeplatz · 50 Gastliegeplätze · Müritz-Elde-WS km 153.5", "tags": ["Gastliegeplatz"], "tel": null, "web": "www.yachthafen-am-schloss.de", "source": "DTV Gelbe Welle Standortliste", "source_detail": "Stand März 2026 · Geokodierung OSM/Nominatim", "quality": "curated", "coord_quality": "approx", "lat": 53.48062, "lon": 12.62528}, {"id": "gw-marina-kroeslin-17440", "kind": "gelbe_welle", "name": "Marina Kröslin", "area": "Ostsee", "region": null, "land": "MV", "desc": "Offizieller Gelbe-Welle-Gastliegeplatz · Ostsee", "tags": ["Gastliegeplatz"], "tel": "038370/2510", "web": "www.marina-kroeslin.de", "source": "DTV Gelbe Welle Standortliste", "source_detail": "Stand März 2026 · Geokodierung OSM/Nominatim", "quality": "curated", "coord_quality": "approx", "lat": 54.12093, "lon": 13.75354}, {"id": "gw-hafen-kummerow-17139", "kind": "gelbe_welle", "name": "Hafen Kummerow", "area": "Kummerower See", "region": null, "land": "MV", "desc": "Offizieller Gelbe-Welle-Gastliegeplatz · Kummerower See km 20", "tags": ["Gastliegeplatz"], "tel": "039931/59198", "web": null, "source": "DTV Gelbe Welle Standortliste", "source_detail": "Stand März 2026 · Geokodierung OSM/Nominatim", "quality": "curated", "coord_quality": "exact", "lat": 53.77264, "lon": 12.8358}, {"id": "gw-wwr-sophienhof-17121", "kind": "gelbe_welle", "name": "WWR Sophienhof", "area": "Peene", "region": null, "land": "MV", "desc": "Offizieller Gelbe-Welle-Gastliegeplatz · 5 Gastliegeplätze · Peene km 53.0", "tags": ["Gastliegeplatz"], "tel": null, "web": "www.loitz.de", "source": "DTV Gelbe Welle Standortliste", "source_detail": "Stand März 2026 · Geokodierung OSM/Nominatim", "quality": "curated", "coord_quality": "cluster", "lat": 53.96913, "lon": 13.12856}, {"id": "gw-hafen-und-sportmarina-loitz-17122", "kind": "gelbe_welle", "name": "Hafen und Sportmarina Loitz", "area": "Peene", "region": null, "land": "MV", "desc": "Offizieller Gelbe-Welle-Gastliegeplatz · 22 Gastliegeplätze · Peene km 49.0", "tags": ["Gastliegeplatz"], "tel": "03991/666754", "web": "www.loitz.de", "source": "DTV Gelbe Welle Standortliste", "source_detail": "Stand März 2026 · Geokodierung OSM/Nominatim", "quality": "curated", "coord_quality": "cluster", "lat": 53.96913, "lon": 13.12856}, {"id": "gw-wwr-burow-19386", "kind": "gelbe_welle", "name": "WWR Burow", "area": "Müritz-Elde-WS", "region": null, "land": "MV", "desc": "Offizieller Gelbe-Welle-Gastliegeplatz · 12 Gastliegeplätze · Müritz-Elde-WS km 91.1", "tags": ["Gastliegeplatz"], "tel": "038731-507210", "web": "www.amt-eldenburg-luebz.de", "source": "DTV Gelbe Welle Standortliste", "source_detail": "Stand März 2026 · Geokodierung OSM/Nominatim", "quality": "curated", "coord_quality": "exact", "lat": 53.40095, "lon": 12.01452}, {"id": "gw-wwr-stadmarina-luebz-19386", "kind": "gelbe_welle", "name": "WWR Stadmarina Lübz", "area": "Müritz-Elde-WS", "region": null, "land": "MV", "desc": "Offizieller Gelbe-Welle-Gastliegeplatz · 50 Gastliegeplätze · Müritz-Elde-WS km 98.5", "tags": ["Gastliegeplatz"], "tel": null, "web": null, "source": "DTV Gelbe Welle Standortliste", "source_detail": "Stand März 2026 · Geokodierung OSM/Nominatim", "quality": "curated", "coord_quality": "cluster", "lat": 53.46233, "lon": 12.02936}, {"id": "gw-wwr-ufercamp-eldeblick-neuburg-19386", "kind": "gelbe_welle", "name": "WWR Ufercamp \"Eldeblick\" Neuburg", "area": "Müritz-Elde-WS", "region": null, "land": "MV", "desc": "Offizieller Gelbe-Welle-Gastliegeplatz · 6 Gastliegeplätze · Müritz-Elde-WS km 82.1", "tags": ["Gastliegeplatz"], "tel": null, "web": null, "source": "DTV Gelbe Welle Standortliste", "source_detail": "Stand März 2026 · Geokodierung OSM/Nominatim", "quality": "curated", "coord_quality": "cluster", "lat": 53.46233, "lon": 12.02936}, {"id": "gw-sportboothafen-koesters-eck-17139", "kind": "gelbe_welle", "name": "Sportboothafen \"Kösters Eck\"", "area": "Peenekanal", "region": null, "land": "MV", "desc": "Offizieller Gelbe-Welle-Gastliegeplatz · Peenekanal km 0.1", "tags": ["Gastliegeplatz"], "tel": "038756/22967", "web": null, "source": "DTV Gelbe Welle Standortliste", "source_detail": "Stand März 2026 · Geokodierung OSM/Nominatim", "quality": "curated", "coord_quality": "cluster", "lat": 53.73826, "lon": 12.76442}, {"id": "gw-sportboothafen-salem-17139", "kind": "gelbe_welle", "name": "Sportboothafen Salem", "area": "Kummerower See", "region": null, "land": "MV", "desc": "Offizieller Gelbe-Welle-Gastliegeplatz · Kummerower See km 30", "tags": ["Gastliegeplatz"], "tel": null, "web": "www.malchin.de", "source": "DTV Gelbe Welle Standortliste", "source_detail": "Stand März 2026 · Geokodierung OSM/Nominatim", "quality": "curated", "coord_quality": "cluster", "lat": 53.73826, "lon": 12.76442}, {"id": "gw-bootswerft-max-thiele-17213", "kind": "gelbe_welle", "name": "Bootswerft Max Thiele", "area": "Fleesensee", "region": null, "land": "MV", "desc": "Offizieller Gelbe-Welle-Gastliegeplatz · 8 Gastliegeplätze · Fleesensee km 133.5", "tags": ["Gastliegeplatz"], "tel": "038301/8090", "web": "www.bootswerft-thiele.de", "source": "DTV Gelbe Welle Standortliste", "source_detail": "Stand März 2026 · Geokodierung OSM/Nominatim", "quality": "curated", "coord_quality": "approx", "lat": 53.47874, "lon": 12.4372}, {"id": "gw-stadthafen-malchow-17213", "kind": "gelbe_welle", "name": "Stadthafen Malchow", "area": "Malchower See", "region": null, "land": "MV", "desc": "Offizieller Gelbe-Welle-Gastliegeplatz · Malchower See km 15", "tags": ["Gastliegeplatz"], "tel": "039932/88101", "web": "www.stadt-malchow.de", "source": "DTV Gelbe Welle Standortliste", "source_detail": "Stand März 2026 · Geokodierung OSM/Nominatim", "quality": "curated", "coord_quality": "exact", "lat": 53.4735, "lon": 12.42661}, {"id": "gw-campingplatz-am-wiesengrund-19294", "kind": "gelbe_welle", "name": "Campingplatz am Wiesengrund", "area": "Müritz-Elde-WS", "region": null, "land": "MV", "desc": "Offizieller Gelbe-Welle-Gastliegeplatz · 10 Gastliegeplätze · Müritz-Elde-WS km 9.5", "tags": ["Gastliegeplatz"], "tel": "03994/640107", "web": "www.camping-malliss.m-vp.de", "source": "DTV Gelbe Welle Standortliste", "source_detail": "Stand März 2026 · Geokodierung OSM/Nominatim", "quality": "curated", "coord_quality": "approx", "lat": 53.196, "lon": 11.3407}, {"id": "gw-wwr-marlow-18337", "kind": "gelbe_welle", "name": "WWR Marlow", "area": "Recknitz", "region": null, "land": "MV", "desc": "Offizieller Gelbe-Welle-Gastliegeplatz · Recknitz", "tags": ["Gastliegeplatz"], "tel": null, "web": "www.stadtmarlow.de", "source": "DTV Gelbe Welle Standortliste", "source_detail": "Stand März 2026 · Geokodierung OSM/Nominatim", "quality": "curated", "coord_quality": "approx", "lat": 54.15437, "lon": 12.57261}, {"id": "gw-hafen-gravelotte-17111", "kind": "gelbe_welle", "name": "Hafen Gravelotte", "area": "Kummerower See", "region": null, "land": "MV", "desc": "Offizieller Gelbe-Welle-Gastliegeplatz · Kummerower See km 28", "tags": ["Gastliegeplatz"], "tel": "039929/70500", "web": null, "source": "DTV Gelbe Welle Standortliste", "source_detail": "Stand März 2026 · Geokodierung OSM/Nominatim", "quality": "curated", "coord_quality": "exact", "lat": 53.82427, "lon": 12.91109}, {"id": "gw-stadthafen-mirow-17252", "kind": "gelbe_welle", "name": "Stadthafen Mirow", "area": "Mirower See", "region": null, "land": "MV", "desc": "Offizieller Gelbe-Welle-Gastliegeplatz · Mirower See km 25", "tags": ["Gastliegeplatz"], "tel": null, "web": "www.amt-mecklenburgische-", "source": "DTV Gelbe Welle Standortliste", "source_detail": "Stand März 2026 · Geokodierung OSM/Nominatim", "quality": "curated", "coord_quality": "cluster", "lat": 53.28516, "lon": 12.84768}, {"id": "gw-yachthafen-moenkebude-17375", "kind": "gelbe_welle", "name": "Yachthafen Mönkebude", "area": "Stettiner Haff", "region": null, "land": "MV", "desc": "Offizieller Gelbe-Welle-Gastliegeplatz · Stettiner Haff km 30", "tags": ["Gastliegeplatz"], "tel": null, "web": "www.moenkebude.de", "source": "DTV Gelbe Welle Standortliste", "source_detail": "Stand März 2026 · Geokodierung OSM/Nominatim", "quality": "curated", "coord_quality": "exact", "lat": 53.77325, "lon": 13.97012}, {"id": "gw-wwr-nehringen-18513", "kind": "gelbe_welle", "name": "WWR Nehringen", "area": "Trebel", "region": null, "land": "MV", "desc": "Offizieller Gelbe-Welle-Gastliegeplatz · Trebel km 2", "tags": ["Gastliegeplatz"], "tel": null, "web": "www.storchentours.de", "source": "DTV Gelbe Welle Standortliste", "source_detail": "Stand März 2026 · Geokodierung OSM/Nominatim", "quality": "curated", "coord_quality": "cluster", "lat": 53.99863, "lon": 12.8347}, {"id": "gw-bootsanleger-und-camping-neu-goehren-19294", "kind": "gelbe_welle", "name": "Bootsanleger und Camping Neu-Göhren", "area": "Müritz-Elde-WS", "region": null, "land": "MV", "desc": "Offizieller Gelbe-Welle-Gastliegeplatz · 24 Gastliegeplätze · Müritz-Elde-WS km 11.6", "tags": ["Gastliegeplatz"], "tel": "038371/20066", "web": "www.bootsanleger-neugoehren.de", "source": "DTV Gelbe Welle Standortliste", "source_detail": "Stand März 2026 · Geokodierung OSM/Nominatim", "quality": "curated", "coord_quality": "approx", "lat": 53.1956, "lon": 11.37409}, {"id": "gw-hafen-neukalen-17154", "kind": "gelbe_welle", "name": "Hafen Neukalen", "area": "Kummerower See/ Peenekanal", "region": null, "land": "MV", "desc": "Offizieller Gelbe-Welle-Gastliegeplatz · Kummerower See/ Peenekanal km 30", "tags": ["Gastliegeplatz"], "tel": "039931/51123", "web": null, "source": "DTV Gelbe Welle Standortliste", "source_detail": "Stand März 2026 · Geokodierung OSM/Nominatim", "quality": "curated", "coord_quality": "exact", "lat": 53.82082, "lon": 12.79226}, {"id": "gw-sportboothafen-neustadt-glewe-19306", "kind": "gelbe_welle", "name": "Sportboothafen Neustadt-Glewe", "area": "Müritz-Elde-WS", "region": null, "land": "MV", "desc": "Offizieller Gelbe-Welle-Gastliegeplatz · 25 Gastliegeplätze · Müritz-Elde-WS km 46.0", "tags": ["Gastliegeplatz"], "tel": null, "web": "www.neustadt-glewe.de", "source": "DTV Gelbe Welle Standortliste", "source_detail": "Stand März 2026 · Geokodierung OSM/Nominatim", "quality": "curated", "coord_quality": "approx", "lat": 53.38336, "lon": 11.58584}, {"id": "gw-poeler-forellenhof-23999", "kind": "gelbe_welle", "name": "Poeler Forellenhof", "area": "Ostsee / Wismarer Bucht, Kirchsee", "region": null, "land": "MV", "desc": "Offizieller Gelbe-Welle-Gastliegeplatz · 15 Gastliegeplätze · Ostsee / Wismarer Bucht, Kirchsee km 59.8", "tags": ["Gastliegeplatz"], "tel": "038755/20020", "web": "www.poeler-forellenhof.de", "source": "DTV Gelbe Welle Standortliste", "source_detail": "Stand März 2026 · Geokodierung OSM/Nominatim", "quality": "curated", "coord_quality": "exact", "lat": 53.99495, "lon": 11.44639}, {"id": "gw-wwr-parchim-fischerdamm-19370", "kind": "gelbe_welle", "name": "WWR Parchim-Fischerdamm", "area": "Müritz-Elde-WS", "region": null, "land": "MV", "desc": "Offizieller Gelbe-Welle-Gastliegeplatz · 30-40 Gastliegeplätze · Müritz-Elde-WS km 72.0", "tags": ["Gastliegeplatz"], "tel": "038302/53445", "web": "www.parchim.de", "source": "DTV Gelbe Welle Standortliste", "source_detail": "Stand März 2026 · Geokodierung OSM/Nominatim", "quality": "curated", "coord_quality": "approx", "lat": 53.42726, "lon": 11.84798}, {"id": "gw-hafen-wwrp-ostseebad-prerow-18375", "kind": "gelbe_welle", "name": "Hafen/WWRP Ostseebad Prerow", "area": "Ostsee", "region": null, "land": "MV", "desc": "Offizieller Gelbe-Welle-Gastliegeplatz · Ostsee km 58", "tags": ["Gastliegeplatz"], "tel": null, "web": null, "source": "DTV Gelbe Welle Standortliste", "source_detail": "Stand März 2026 · Geokodierung OSM/Nominatim", "quality": "curated", "coord_quality": "cluster", "lat": 54.44591, "lon": 12.56602}, {"id": "gw-im-jaich-marina-lauterbach-18581", "kind": "gelbe_welle", "name": "im-Jaich Marina Lauterbach", "area": "Ostsee", "region": null, "land": "MV", "desc": "Offizieller Gelbe-Welle-Gastliegeplatz · Ostsee", "tags": ["Gastliegeplatz"], "tel": "039833/20655", "web": "www.im-jaich.de", "source": "DTV Gelbe Welle Standortliste", "source_detail": "Stand März 2026 · Geokodierung OSM/Nominatim", "quality": "curated", "coord_quality": "approx", "lat": 54.34436, "lon": 13.50529}, {"id": "gw-yachthafen-rechlin-17248", "kind": "gelbe_welle", "name": "Yachthafen Rechlin", "area": "Kleine Müritz", "region": null, "land": "MV", "desc": "Offizieller Gelbe-Welle-Gastliegeplatz · Kleine Müritz km 13", "tags": ["Gastliegeplatz"], "tel": null, "web": "www.ferien-igbau.de", "source": "DTV Gelbe Welle Standortliste", "source_detail": "Stand März 2026 · Geokodierung OSM/Nominatim", "quality": "curated", "coord_quality": "approx", "lat": 53.32996, "lon": 12.71742}, {"id": "gw-marina-claassee-rundtoern-marina-17248", "kind": "gelbe_welle", "name": "Marina Claassee (Rundtörn-Marina)", "area": "Müritz-Elde-WS", "region": null, "land": "MV", "desc": "Offizieller Gelbe-Welle-Gastliegeplatz · 125 Gastliegeplätze · Müritz-Elde-WS km 167.0", "tags": ["Gastliegeplatz"], "tel": "03831/444978", "web": "www.rundtoern-marinas.de", "source": "DTV Gelbe Welle Standortliste", "source_detail": "Stand März 2026 · Geokodierung OSM/Nominatim", "quality": "curated", "coord_quality": "cluster", "lat": 53.35333, "lon": 12.72207}, {"id": "gw-wwr-anleger-daskkow-18313", "kind": "gelbe_welle", "name": "WWR/Anleger Daskkow", "area": "Recknitz", "region": null, "land": "MV", "desc": "Offizieller Gelbe-Welle-Gastliegeplatz · Recknitz km 6", "tags": ["Gastliegeplatz"], "tel": "038234/55879", "web": null, "source": "DTV Gelbe Welle Standortliste", "source_detail": "Stand März 2026 · Geokodierung OSM/Nominatim", "quality": "curated", "coord_quality": "cluster", "lat": 54.24333, "lon": 12.43197}, {"id": "gw-wwr-anlger-pantlitz-18314", "kind": "gelbe_welle", "name": "WWR/Anlger Pantlitz", "area": "Recknitz", "region": null, "land": "MV", "desc": "Offizieller Gelbe-Welle-Gastliegeplatz · Recknitz km 4", "tags": ["Gastliegeplatz"], "tel": "03994/640310", "web": null, "source": "DTV Gelbe Welle Standortliste", "source_detail": "Stand März 2026 · Geokodierung OSM/Nominatim", "quality": "curated", "coord_quality": "cluster", "lat": 54.24333, "lon": 12.43197}, {"id": "gw-wwr-hafen-damgarten-18312", "kind": "gelbe_welle", "name": "WWR/Hafen Damgarten", "area": "Recknitz", "region": null, "land": "MV", "desc": "Offizieller Gelbe-Welle-Gastliegeplatz · Recknitz km 8", "tags": ["Gastliegeplatz"], "tel": "03991/1234000", "web": null, "source": "DTV Gelbe Welle Standortliste", "source_detail": "Stand März 2026 · Geokodierung OSM/Nominatim", "quality": "curated", "coord_quality": "cluster", "lat": 54.24333, "lon": 12.43197}, {"id": "gw-wwr-hafen-ribnitz-18311", "kind": "gelbe_welle", "name": "WWR/Hafen Ribnitz", "area": "Ribnitzer See / Saaler Bodden", "region": null, "land": "MV", "desc": "Offizieller Gelbe-Welle-Gastliegeplatz · Ribnitzer See / Saaler Bodden km 50", "tags": ["Gastliegeplatz"], "tel": "039771/53029", "web": "www.ribnitz-damgarten.de", "source": "DTV Gelbe Welle Standortliste", "source_detail": "Stand März 2026 · Geokodierung OSM/Nominatim", "quality": "curated", "coord_quality": "cluster", "lat": 54.24333, "lon": 12.43197}, {"id": "gw-roebler-seglerverein-mueritz-e-v-17207", "kind": "gelbe_welle", "name": "Röbler Seglerverein Müritz e. V.", "area": "Müritz-Elde-WS Binnensee", "region": null, "land": "MV", "desc": "Offizieller Gelbe-Welle-Gastliegeplatz · 65 Gastliegeplätze · Müritz-Elde-WS Binnensee km 164.5", "tags": ["Gastliegeplatz"], "tel": "038756/2746", "web": "www.rsv-mueritz.de", "source": "DTV Gelbe Welle Standortliste", "source_detail": "Stand März 2026 · Geokodierung OSM/Nominatim", "quality": "curated", "coord_quality": "approx", "lat": 53.3873, "lon": 12.61791}, {"id": "gw-wasser-service-center-17207", "kind": "gelbe_welle", "name": "Wasser-Service-Center", "area": "Müritz-Elde-WS Binnensee", "region": null, "land": "MV", "desc": "Offizieller Gelbe-Welle-Gastliegeplatz · 30 Gastliegeplätze · Müritz-Elde-WS Binnensee km 164.0", "tags": ["Gastliegeplatz"], "tel": null, "web": "www.wsc-roebel.de", "source": "DTV Gelbe Welle Standortliste", "source_detail": "Stand März 2026 · Geokodierung OSM/Nominatim", "quality": "curated", "coord_quality": "approx", "lat": 53.39287, "lon": 12.62333}, {"id": "gw-yachthafen-hohe-duene-18119", "kind": "gelbe_welle", "name": "Yachthafen Hohe Düne", "area": "Ostsee", "region": null, "land": "MV", "desc": "Offizieller Gelbe-Welle-Gastliegeplatz · Ostsee km 400", "tags": ["Gastliegeplatz"], "tel": null, "web": "www.yachthafen-Hohe-Duene.de", "source": "DTV Gelbe Welle Standortliste", "source_detail": "Stand März 2026 · Geokodierung OSM/Nominatim", "quality": "curated", "coord_quality": "exact", "lat": 54.18203, "lon": 12.10001}, {"id": "gw-wwr-trittelwitz-17111", "kind": "gelbe_welle", "name": "WWR Trittelwitz", "area": "Peene", "region": null, "land": "MV", "desc": "Offizieller Gelbe-Welle-Gastliegeplatz · Peene", "tags": ["Gastliegeplatz"], "tel": null, "web": null, "source": "DTV Gelbe Welle Standortliste", "source_detail": "Stand März 2026 · Geokodierung OSM/Nominatim", "quality": "curated", "coord_quality": "cluster", "lat": 53.85254, "lon": 12.95783}, {"id": "gw-hafen-marina-schweriner-segler-verein-1894-19055", "kind": "gelbe_welle", "name": "Hafen & Marina Schweriner Segler-Verein 1894", "area": "Stpr-WS Schweriner See", "region": null, "land": "MV", "desc": "Offizieller Gelbe-Welle-Gastliegeplatz · 60 Gastliegeplätze · Stpr-WS Schweriner See km 25.5", "tags": ["Gastliegeplatz"], "tel": null, "web": null, "source": "DTV Gelbe Welle Standortliste", "source_detail": "Stand März 2026 · Geokodierung OSM/Nominatim", "quality": "curated", "coord_quality": "approx", "lat": 53.62795, "lon": 11.42533}, {"id": "gw-marina-nord-19055", "kind": "gelbe_welle", "name": "Marina Nord", "area": "Heidensee", "region": null, "land": "MV", "desc": "Offizieller Gelbe-Welle-Gastliegeplatz · Heidensee km 10", "tags": ["Gastliegeplatz"], "tel": "038750/324", "web": "www.marina-nord.de", "source": "DTV Gelbe Welle Standortliste", "source_detail": "Stand März 2026 · Geokodierung OSM/Nominatim", "quality": "curated", "coord_quality": "approx", "lat": 53.64627, "lon": 11.43282}, {"id": "gw-sportverein-mecklenburgisches-staatstheater-1905", "kind": "gelbe_welle", "name": "Sportverein Mecklenburgisches Staatstheater", "area": "Schweriner See, Beutel", "region": null, "land": "MV", "desc": "Offizieller Gelbe-Welle-Gastliegeplatz · Schweriner See, Beutel km 20", "tags": ["Gastliegeplatz"], "tel": "0152/06839260", "web": "www.svthschwerin.de", "source": "DTV Gelbe Welle Standortliste", "source_detail": "Stand März 2026 · Geokodierung OSM/Nominatim", "quality": "curated", "coord_quality": "approx", "lat": 53.6288, "lon": 11.42277}, {"id": "gw-wwrp-stolpe-an-der-peene-17391", "kind": "gelbe_welle", "name": "WWRP Stolpe an der Peene", "area": "Peene", "region": null, "land": "MV", "desc": "Offizieller Gelbe-Welle-Gastliegeplatz · 24 Gastliegeplätze · Peene km 79.3", "tags": ["Gastliegeplatz"], "tel": "0176-21058588", "web": "www.hafenstolpe.de", "source": "DTV Gelbe Welle Standortliste", "source_detail": "Stand März 2026 · Geokodierung OSM/Nominatim", "quality": "curated", "coord_quality": "approx", "lat": 53.87443, "lon": 13.55904}, {"id": "gw-citymarina-stralsund-yachthafen-nordmole-18439", "kind": "gelbe_welle", "name": "Citymarina Stralsund (Yachthafen Nordmole)", "area": "Ostsee", "region": null, "land": "MV", "desc": "Offizieller Gelbe-Welle-Gastliegeplatz · Ostsee km 150", "tags": ["Gastliegeplatz"], "tel": "03841/643088", "web": "www.rundtoern-marinas.de", "source": "DTV Gelbe Welle Standortliste", "source_detail": "Stand März 2026 · Geokodierung OSM/Nominatim", "quality": "curated", "coord_quality": "approx", "lat": 54.31829, "lon": 13.0928}, {"id": "gw-marina-neuhof-18519", "kind": "gelbe_welle", "name": "Marina Neuhof", "area": "Ostsee", "region": null, "land": "MV", "desc": "Offizieller Gelbe-Welle-Gastliegeplatz · Ostsee", "tags": ["Gastliegeplatz"], "tel": null, "web": "www.marinaneuhof.de", "source": "DTV Gelbe Welle Standortliste", "source_detail": "Stand März 2026 · Geokodierung OSM/Nominatim", "quality": "curated", "coord_quality": "approx", "lat": 54.26398, "lon": 13.18093}, {"id": "gw-wwr-tribsees-18465", "kind": "gelbe_welle", "name": "WWR Tribsees", "area": "Trebel", "region": null, "land": "MV", "desc": "Offizieller Gelbe-Welle-Gastliegeplatz · Trebel km 2", "tags": ["Gastliegeplatz"], "tel": null, "web": "www.recknitz-trebeltal.de", "source": "DTV Gelbe Welle Standortliste", "source_detail": "Stand März 2026 · Geokodierung OSM/Nominatim", "quality": "curated", "coord_quality": "approx", "lat": 54.09448, "lon": 12.75707}, {"id": "gw-marina-lagunenstadt-ueckermuende-17373", "kind": "gelbe_welle", "name": "Marina Lagunenstadt Ueckermünde", "area": "Uecker, Stettiner Haffküste", "region": null, "land": "MV", "desc": "Offizieller Gelbe-Welle-Gastliegeplatz · Uecker, Stettiner Haffküste km 250", "tags": ["Gastliegeplatz"], "tel": "038425/4200", "web": null, "source": "DTV Gelbe Welle Standortliste", "source_detail": "Stand März 2026 · Geokodierung OSM/Nominatim", "quality": "curated", "coord_quality": "approx", "lat": 53.74694, "lon": 14.06857}, {"id": "gw-yachtclub-ueckermuende-e-v-17373", "kind": "gelbe_welle", "name": "Yachtclub Ueckermünde e. V.", "area": "Ostsee", "region": null, "land": "MV", "desc": "Offizieller Gelbe-Welle-Gastliegeplatz · Ostsee km 25", "tags": ["Gastliegeplatz"], "tel": "039771/22067", "web": "www.haffsegler.de", "source": "DTV Gelbe Welle Standortliste", "source_detail": "Stand März 2026 · Geokodierung OSM/Nominatim", "quality": "curated", "coord_quality": "approx", "lat": 53.74099, "lon": 14.04835}, {"id": "gw-sbs-yachthafenresort-fleesensee-17213", "kind": "gelbe_welle", "name": "SBS Yachthafenresort Fleesensee", "area": "Fleesensee", "region": null, "land": "MV", "desc": "Offizieller Gelbe-Welle-Gastliegeplatz · Fleesensee km 50", "tags": ["Gastliegeplatz"], "tel": "034298/30003", "web": "www.sbs-fleesensee.de", "source": "DTV Gelbe Welle Standortliste", "source_detail": "Stand März 2026 · Geokodierung OSM/Nominatim", "quality": "curated", "coord_quality": "approx", "lat": 53.49153, "lon": 12.48085}, {"id": "gw-wwr-verchen-aalbude-17111", "kind": "gelbe_welle", "name": "WWR Verchen/Aalbude", "area": "Peene", "region": null, "land": "MV", "desc": "Offizieller Gelbe-Welle-Gastliegeplatz · 15 Gastliegeplätze · Peene km 15.0", "tags": ["Gastliegeplatz"], "tel": null, "web": null, "source": "DTV Gelbe Welle Standortliste", "source_detail": "Stand März 2026 · Geokodierung OSM/Nominatim", "quality": "curated", "coord_quality": "cluster", "lat": 53.84896, "lon": 12.90714}, {"id": "gw-im-jaich-stadthafen-waren-mueritz-17192", "kind": "gelbe_welle", "name": "im jaich Stadthafen Waren/Müritz", "area": "Müritz", "region": null, "land": "MV", "desc": "Offizieller Gelbe-Welle-Gastliegeplatz · 180 Gastliegeplätze · Müritz km 150.0", "tags": ["Gastliegeplatz"], "tel": "039823/26688", "web": "www.im-jaich.de", "source": "DTV Gelbe Welle Standortliste", "source_detail": "Stand März 2026 · Geokodierung OSM/Nominatim", "quality": "curated", "coord_quality": "approx", "lat": 53.51098, "lon": 12.69111}, {"id": "gw-marina-eldenburg-tor-zur-mueritz-17192", "kind": "gelbe_welle", "name": "Marina Eldenburg \"Tor zur Müritz\"", "area": "Müritz-Elde-Wasserstraße", "region": null, "land": "MV", "desc": "Offizieller Gelbe-Welle-Gastliegeplatz · 49 Gastliegeplätze · Müritz-Elde-Wasserstraße km 148.0", "tags": ["Gastliegeplatz"], "tel": "0385/5810825", "web": "www.marina-eldenburg.de", "source": "DTV Gelbe Welle Standortliste", "source_detail": "Stand März 2026 · Geokodierung OSM/Nominatim", "quality": "curated", "coord_quality": "approx", "lat": 53.50857, "lon": 12.63577}, {"id": "gw-sailpoint-wassersportzentrum-17192", "kind": "gelbe_welle", "name": "Sailpoint Wassersportzentrum", "area": "Müritz-Elde-WS", "region": null, "land": "MV", "desc": "Offizieller Gelbe-Welle-Gastliegeplatz · Müritz-Elde-WS km 150.0", "tags": ["Gastliegeplatz"], "tel": null, "web": null, "source": "DTV Gelbe Welle Standortliste", "source_detail": "Stand März 2026 · Geokodierung OSM/Nominatim", "quality": "curated", "coord_quality": "cluster", "lat": 53.51562, "lon": 12.68506}, {"id": "gw-kanu-muehle-wesenberg-17255", "kind": "gelbe_welle", "name": "Kanu-Mühle Wesenberg", "area": "Havel / Woblitzsee", "region": null, "land": "MV", "desc": "Offizieller Gelbe-Welle-Gastliegeplatz · 50 Gastliegeplätze · Havel / Woblitzsee km 82.5", "tags": ["Gastliegeplatz"], "tel": "039832/20350", "web": "www.kanu-muehle.de", "source": "DTV Gelbe Welle Standortliste", "source_detail": "Stand März 2026 · Geokodierung OSM/Nominatim", "quality": "curated", "coord_quality": "approx", "lat": 53.27995, "lon": 12.98555}, {"id": "gw-stadthafen-wasserwanderrastplatz-wesenberg-17255", "kind": "gelbe_welle", "name": "Stadthafen & Wasserwanderrastplatz Wesenberg", "area": "Woblitzsee", "region": null, "land": "MV", "desc": "Offizieller Gelbe-Welle-Gastliegeplatz · Woblitzsee km 16", "tags": ["Gastliegeplatz"], "tel": "03971/242839", "web": "www.stadt-Wesenberg.de", "source": "DTV Gelbe Welle Standortliste", "source_detail": "Stand März 2026 · Geokodierung OSM/Nominatim", "quality": "curated", "coord_quality": "cluster", "lat": 53.28191, "lon": 12.96948}, {"id": "gw-sportbootservice-westhafen-23966", "kind": "gelbe_welle", "name": "Sportbootservice Westhafen", "area": "Ostsee", "region": null, "land": "MV", "desc": "Offizieller Gelbe-Welle-Gastliegeplatz · Ostsee", "tags": ["Gastliegeplatz"], "tel": "03841/389005", "web": null, "source": "DTV Gelbe Welle Standortliste", "source_detail": "Stand März 2026 · Geokodierung OSM/Nominatim", "quality": "curated", "coord_quality": "approx", "lat": 53.89687, "lon": 11.45508}, {"id": "gw-bootsverein-menzlin-17390", "kind": "gelbe_welle", "name": "Bootsverein Menzlin", "area": "Peene/ Stich-Kanal", "region": null, "land": "MV", "desc": "Offizieller Gelbe-Welle-Gastliegeplatz · 2 Gastliegeplätze · Peene/ Stich-Kanal km 89.9", "tags": ["Gastliegeplatz"], "tel": "038370/25111", "web": null, "source": "DTV Gelbe Welle Standortliste", "source_detail": "Stand März 2026 · Geokodierung OSM/Nominatim", "quality": "curated", "coord_quality": "cluster", "lat": 53.88784, "lon": 13.67533}, {"id": "gw-stadthafen-anleger-am-hafendeich-19258", "kind": "gelbe_welle", "name": "Stadthafen, Anleger am Hafendeich", "area": "Boize", "region": null, "land": "MV", "desc": "Offizieller Gelbe-Welle-Gastliegeplatz · 2 Gastliegeplätze · Boize km 1.5", "tags": ["Gastliegeplatz"], "tel": "0173/4170169", "web": null, "source": "DTV Gelbe Welle Standortliste", "source_detail": "Stand März 2026 · Geokodierung OSM/Nominatim", "quality": "curated", "coord_quality": "approx", "lat": 53.37418, "lon": 10.71983}, {"id": "gw-hafen-am-speicher-19386", "kind": "gelbe_welle", "name": "Hafen \"Am Speicher\"", "area": "Elde", "region": null, "land": "MV", "desc": "Offizieller Gelbe-Welle-Gastliegeplatz · Kanu-Anleger · Elde km 100.0", "tags": ["Gastliegeplatz", "Kanu"], "tel": "0172/3033955", "web": "www.lübzer-bootspension.de", "source": "DTV Gelbe Welle Standortliste", "source_detail": "Stand März 2026 · Geokodierung OSM/Nominatim", "quality": "curated", "coord_quality": "approx", "lat": 53.47027, "lon": 12.03323}, {"id": "gw-mittelweser-28832", "kind": "gelbe_welle", "name": "Mittelweser", "area": "Weser", "region": null, "land": "NI", "desc": "Offizieller Gelbe-Welle-Gastliegeplatz · 5 Gastliegeplätze · Weser km 340.0", "tags": ["Gastliegeplatz"], "tel": null, "web": null, "source": "DTV Gelbe Welle Standortliste", "source_detail": "Stand März 2026 · Geokodierung OSM/Nominatim", "quality": "curated", "coord_quality": "exact", "lat": 53.01378, "lon": 9.12452}, {"id": "gw-sportboothafen-artlenburg-21380", "kind": "gelbe_welle", "name": "Sportboothafen Artlenburg", "area": "Elbe", "region": null, "land": "NI", "desc": "Offizieller Gelbe-Welle-Gastliegeplatz · 25 Gastliegeplätze · Elbe km 574.2", "tags": ["Gastliegeplatz"], "tel": "0171 / 6788311", "web": "www.artlenburg.de", "source": "DTV Gelbe Welle Standortliste", "source_detail": "Stand März 2026 · Geokodierung OSM/Nominatim", "quality": "curated", "coord_quality": "approx", "lat": 53.37266, "lon": 10.48902}, {"id": "gw-wwwz-doemitz-31226", "kind": "gelbe_welle", "name": "wwwz Dömitz", "area": "Elde/Elbe", "region": null, "land": "NI", "desc": "Offizieller Gelbe-Welle-Gastliegeplatz · Elde/Elbe km 40", "tags": ["Gastliegeplatz"], "tel": null, "web": "www.wasserwanderzentrum-doemitz.de 0171/7993788", "source": "DTV Gelbe Welle Standortliste", "source_detail": "Stand März 2026 · Geokodierung OSM/Nominatim", "quality": "curated", "coord_quality": "approx", "lat": 52.31567, "lon": 10.22422}, {"id": "gw-weserbergland-37639", "kind": "gelbe_welle", "name": "Weserbergland", "area": "Weser", "region": null, "land": "NI", "desc": "Offizieller Gelbe-Welle-Gastliegeplatz · Kanu-Anleger · Weser km 102.1", "tags": ["Gastliegeplatz", "Kanu"], "tel": null, "web": null, "source": "DTV Gelbe Welle Standortliste", "source_detail": "Stand März 2026 · Geokodierung OSM/Nominatim", "quality": "curated", "coord_quality": "exact", "lat": 51.92819, "lon": 9.4644}, {"id": "gw-weserbergland-37639-2", "kind": "gelbe_welle", "name": "Weserbergland", "area": "Weser", "region": null, "land": "NI", "desc": "Offizieller Gelbe-Welle-Gastliegeplatz · Kanu-Anleger · Weser km 97.5", "tags": ["Gastliegeplatz", "Kanu"], "tel": null, "web": null, "source": "DTV Gelbe Welle Standortliste", "source_detail": "Stand März 2026 · Geokodierung OSM/Nominatim", "quality": "curated", "coord_quality": "exact", "lat": 51.92819, "lon": 9.4644}, {"id": "gw-sportboothafen-alt-garge-21354", "kind": "gelbe_welle", "name": "Sportboothafen Alt Garge", "area": "Elbe", "region": null, "land": "NI", "desc": "Offizieller Gelbe-Welle-Gastliegeplatz · Elbe km 4", "tags": ["Gastliegeplatz"], "tel": "04131-65430", "web": "www.ssv-altgarge.de", "source": "DTV Gelbe Welle Standortliste", "source_detail": "Stand März 2026 · Geokodierung OSM/Nominatim", "quality": "curated", "coord_quality": "exact", "lat": 53.27352, "lon": 10.80523}, {"id": "gw-sportboothafen-bleckede-21354", "kind": "gelbe_welle", "name": "Sportboothafen Bleckede", "area": "Elbe", "region": null, "land": "NI", "desc": "Offizieller Gelbe-Welle-Gastliegeplatz · Elbe km 10", "tags": ["Gastliegeplatz"], "tel": "05821/2628", "web": "www.vbb-bleckede.de", "source": "DTV Gelbe Welle Standortliste", "source_detail": "Stand März 2026 · Geokodierung OSM/Nominatim", "quality": "curated", "coord_quality": "exact", "lat": 53.29108, "lon": 10.73814}, {"id": "gw-weserbergland-37194-2", "kind": "gelbe_welle", "name": "Weserbergland", "area": "Weser", "region": null, "land": "NI", "desc": "Offizieller Gelbe-Welle-Gastliegeplatz · Kanu-Anleger · Weser km 32.6", "tags": ["Gastliegeplatz", "Kanu"], "tel": null, "web": null, "source": "DTV Gelbe Welle Standortliste", "source_detail": "Stand März 2026 · Geokodierung OSM/Nominatim", "quality": "curated", "coord_quality": "exact", "lat": 51.68267, "lon": 9.52684}, {"id": "gw-weserbergland-37194-2-2", "kind": "gelbe_welle", "name": "Weserbergland", "area": "Weser", "region": null, "land": "NI", "desc": "Offizieller Gelbe-Welle-Gastliegeplatz · Kanu-Anleger · Weser km 35.8", "tags": ["Gastliegeplatz", "Kanu"], "tel": null, "web": null, "source": "DTV Gelbe Welle Standortliste", "source_detail": "Stand März 2026 · Geokodierung OSM/Nominatim", "quality": "curated", "coord_quality": "exact", "lat": 51.68267, "lon": 9.52684}, {"id": "gw-weserbergland-37619", "kind": "gelbe_welle", "name": "Weserbergland", "area": "Weser", "region": null, "land": "NI", "desc": "Offizieller Gelbe-Welle-Gastliegeplatz · Kanu-Anleger · Weser km 111.6", "tags": ["Gastliegeplatz", "Kanu"], "tel": null, "web": null, "source": "DTV Gelbe Welle Standortliste", "source_detail": "Stand März 2026 · Geokodierung OSM/Nominatim", "quality": "curated", "coord_quality": "exact", "lat": 51.96824, "lon": 9.51881}, {"id": "gw-weserbergland-37619-2", "kind": "gelbe_welle", "name": "Weserbergland", "area": "Weser", "region": null, "land": "NI", "desc": "Offizieller Gelbe-Welle-Gastliegeplatz · Kanu-Anleger · Weser km 111.0", "tags": ["Gastliegeplatz", "Kanu"], "tel": null, "web": null, "source": "DTV Gelbe Welle Standortliste", "source_detail": "Stand März 2026 · Geokodierung OSM/Nominatim", "quality": "curated", "coord_quality": "exact", "lat": 51.96824, "lon": 9.51881}, {"id": "gw-weserbergland-37619-2-2", "kind": "gelbe_welle", "name": "Weserbergland", "area": "Weser", "region": null, "land": "NI", "desc": "Offizieller Gelbe-Welle-Gastliegeplatz · Kanu-Anleger · Weser km 108.8", "tags": ["Gastliegeplatz", "Kanu"], "tel": null, "web": null, "source": "DTV Gelbe Welle Standortliste", "source_detail": "Stand März 2026 · Geokodierung OSM/Nominatim", "quality": "curated", "coord_quality": "approx", "lat": 51.96039, "lon": 9.50436}, {"id": "gw-weserbergland-37619-2-2-2", "kind": "gelbe_welle", "name": "Weserbergland", "area": "Weser", "region": null, "land": "NI", "desc": "Offizieller Gelbe-Welle-Gastliegeplatz · Kanu-Anleger · Weser", "tags": ["Gastliegeplatz", "Kanu"], "tel": null, "web": null, "source": "DTV Gelbe Welle Standortliste", "source_detail": "Stand März 2026 · Geokodierung OSM/Nominatim", "quality": "curated", "coord_quality": "exact", "lat": 51.96824, "lon": 9.51881}, {"id": "gw-weserbergland-37619-2-2-2-2", "kind": "gelbe_welle", "name": "Weserbergland", "area": "Weser", "region": null, "land": "NI", "desc": "Offizieller Gelbe-Welle-Gastliegeplatz · Kanu-Anleger · Weser km 116.7", "tags": ["Gastliegeplatz", "Kanu"], "tel": null, "web": null, "source": "DTV Gelbe Welle Standortliste", "source_detail": "Stand März 2026 · Geokodierung OSM/Nominatim", "quality": "curated", "coord_quality": "exact", "lat": 51.96824, "lon": 9.51881}, {"id": "gw-weserbergland-37619-2-2-2-2-2", "kind": "gelbe_welle", "name": "Weserbergland", "area": "Weser", "region": null, "land": "NI", "desc": "Offizieller Gelbe-Welle-Gastliegeplatz · Kanu-Anleger · Weser km 104.4", "tags": ["Gastliegeplatz", "Kanu"], "tel": null, "web": null, "source": "DTV Gelbe Welle Standortliste", "source_detail": "Stand März 2026 · Geokodierung OSM/Nominatim", "quality": "curated", "coord_quality": "exact", "lat": 51.96824, "lon": 9.51881}, {"id": "gw-weserbergland-37619-2-2-2-2-2-2", "kind": "gelbe_welle", "name": "Weserbergland", "area": "Weser", "region": null, "land": "NI", "desc": "Offizieller Gelbe-Welle-Gastliegeplatz · Kanu-Anleger · Weser km 105.2", "tags": ["Gastliegeplatz", "Kanu"], "tel": null, "web": null, "source": "DTV Gelbe Welle Standortliste", "source_detail": "Stand März 2026 · Geokodierung OSM/Nominatim", "quality": "curated", "coord_quality": "exact", "lat": 51.96824, "lon": 9.51881}, {"id": "gw-weserbergland-37691", "kind": "gelbe_welle", "name": "Weserbergland", "area": "Weser", "region": null, "land": "NI", "desc": "Offizieller Gelbe-Welle-Gastliegeplatz · Kanu-Anleger · Weser km 65.7", "tags": ["Gastliegeplatz", "Kanu"], "tel": null, "web": null, "source": "DTV Gelbe Welle Standortliste", "source_detail": "Stand März 2026 · Geokodierung OSM/Nominatim", "quality": "curated", "coord_quality": "approx", "lat": 51.74624, "lon": 9.38692}, {"id": "gw-weserbergland-37691-2", "kind": "gelbe_welle", "name": "Weserbergland", "area": "Weser", "region": null, "land": "NI", "desc": "Offizieller Gelbe-Welle-Gastliegeplatz · Kanu-Anleger · Weser km 62.5", "tags": ["Gastliegeplatz", "Kanu"], "tel": null, "web": null, "source": "DTV Gelbe Welle Standortliste", "source_detail": "Stand März 2026 · Geokodierung OSM/Nominatim", "quality": "curated", "coord_quality": "approx", "lat": 51.72839, "lon": 9.40032}, {"id": "gw-weserbergland-37691-2-2", "kind": "gelbe_welle", "name": "Weserbergland", "area": "Weser", "region": null, "land": "NI", "desc": "Offizieller Gelbe-Welle-Gastliegeplatz · Kanu-Anleger · Weser", "tags": ["Gastliegeplatz", "Kanu"], "tel": null, "web": null, "source": "DTV Gelbe Welle Standortliste", "source_detail": "Stand März 2026 · Geokodierung OSM/Nominatim", "quality": "curated", "coord_quality": "exact", "lat": 51.66513, "lon": 9.48721}, {"id": "gw-sportboothafen-bremervoerde-27432", "kind": "gelbe_welle", "name": "Sportboothafen Bremervörde", "area": "Oste", "region": null, "land": "NI", "desc": "Offizieller Gelbe-Welle-Gastliegeplatz · 4 Gastliegeplätze · Oste km 8.7", "tags": ["Gastliegeplatz"], "tel": "04761/987148", "web": "www.bremervoerde.de", "source": "DTV Gelbe Welle Standortliste", "source_detail": "Stand März 2026 · Geokodierung OSM/Nominatim", "quality": "curated", "coord_quality": "cluster", "lat": 53.48502, "lon": 9.13621}, {"id": "gw-bootshafen-elbsdorf-21423", "kind": "gelbe_welle", "name": "Bootshafen Elbsdorf", "area": "Elbe", "region": null, "land": "NI", "desc": "Offizieller Gelbe-Welle-Gastliegeplatz · Elbe km 590.0", "tags": ["Gastliegeplatz"], "tel": "04177-719919", "web": "www.bc-drage.de", "source": "DTV Gelbe Welle Standortliste", "source_detail": "Stand März 2026 · Geokodierung OSM/Nominatim", "quality": "curated", "coord_quality": "approx", "lat": 53.41711, "lon": 10.27312}, {"id": "gw-doerverden-faehrweg-27313", "kind": "gelbe_welle", "name": "Dörverden-Fährweg", "area": "Aller", "region": null, "land": "NI", "desc": "Offizieller Gelbe-Welle-Gastliegeplatz · Aller", "tags": ["Gastliegeplatz"], "tel": null, "web": null, "source": "DTV Gelbe Welle Standortliste", "source_detail": "Stand März 2026 · Geokodierung OSM/Nominatim", "quality": "curated", "coord_quality": "cluster", "lat": 52.84721, "lon": 9.22991}, {"id": "gw-hafen-westen-27313", "kind": "gelbe_welle", "name": "Hafen Westen", "area": "Aller", "region": null, "land": "NI", "desc": "Offizieller Gelbe-Welle-Gastliegeplatz · 2 Gastliegeplätze · Aller km 98.6", "tags": ["Gastliegeplatz"], "tel": "04741/979916", "web": null, "source": "DTV Gelbe Welle Standortliste", "source_detail": "Stand März 2026 · Geokodierung OSM/Nominatim", "quality": "curated", "coord_quality": "approx", "lat": 52.84069, "lon": 9.3068},