{"type": "FeatureCollection", "features": [{"type": "Feature", "geometry": {"type": "Point", "coordinates": [13.65294, 52.37334]}, "properties": {"id": "osm-node-27378815", "kind": "slip", "name": "Wasserzugangsstelle Schmöckwitz", "area": "", "region": null, "land": "BE", "desc": null, "tags": [], "tel": null, "web": null, "source": "OpenStreetMap", "source_detail": "Overpass 2026-06-12", "quality": "unverified", "coord_quality": "exact"}}, {"type": "Feature", "geometry": {"type": "Point", "coordinates": [13.12203, 52.42931]}, "properties": {"id": "osm-node-92205086", "kind": "slip", "name": "Pfaueninsel", "area": "", "region": null, "land": "BE", "desc": null, "tags": [], "tel": null, "web": null, "source": "OpenStreetMap", "source_detail": "Overpass 2026-06-12", "quality": "unverified", "coord_quality": "exact"}}, {"type": "Feature", "geometry": {"type": "Point", "coordinates": [13.21575, 52.57274]}, "properties": {"id": "osm-node-269541509", "kind": "slip", "name": "Slipanlage", "area": "", "region": null, "land": "BE", "desc": null, "tags": [], "tel": null, "web": null, "source": "OpenStreetMap", "source_detail": "Overpass 2026-06-12", "quality": "unverified", "coord_quality": "exact"}}, {"type": "Feature", "geometry": {"type": "Point", "coordinates": [13.64957, 52.36904]}, "properties": {"id": "osm-node-392539496", "kind": "hafen", "name": "Privatanleger Waldhotel am See Berlin-Schmöckwitz", "area": "", "region": null, "land": "BE", "desc": null, "tags": ["230V", "Entsorgung"], "tel": null, "web": null, "source": "OpenStreetMap", "source_detail": "Overpass 2026-06-12", "quality": "unverified", "coord_quality": "exact"}}, {"type": "Feature", "geometry": {"type": "Point", "coordinates": [13.65309, 52.37407]}, "properties": {"id": "osm-node-431042123", "kind": "hafen", "name": "Besmer Bootswerft", "area": "Berlin", "region": null, "land": "BE", "desc": null, "tags": [], "tel": "+49 30 6758032", "web": "http://www.besmer-boote.de", "source": "OpenStreetMap", "source_detail": "Overpass 2026-06-12", "quality": "unverified", "coord_quality": "exact"}}, {"type": "Feature", "geometry": {"type": "Point", "coordinates": [13.65231, 52.37827]}, "properties": {"id": "osm-node-431042126", "kind": "hafen", "name": "Eisenbahn-Sportverein Schmöckwitz", "area": "", "region": null, "land": "BE", "desc": null, "tags": [], "tel": null, "web": "https://www.rudern-schmoeckwitz.de/", "source": "OpenStreetMap", "source_detail": "Overpass 2026-06-12", "quality": "unverified", "coord_quality": "exact"}}, {"type": "Feature", "geometry": {"type": "Point", "coordinates": [13.64851, 52.38037]}, "properties": {"id": "osm-node-431042145", "kind": "hafen", "name": "Bootshaus Krampenblick", "area": "", "region": null, "land": "BE", "desc": null, "tags": [], "tel": null, "web": "http://www.bootshaus-krampenblick.com/", "source": "OpenStreetMap", "source_detail": "Overpass 2026-06-12", "quality": "unverified", "coord_quality": "exact"}}, {"type": "Feature", "geometry": {"type": "Point", "coordinates": [13.65284, 52.37793]}, "properties": {"id": "osm-node-431042160", "kind": "hafen", "name": "Segel-Club Seddin", "area": "", "region": null, "land": "BE", "desc": null, "tags": [], "tel": "+49 30 6758254", "web": "https://www.sc-seddin.de/", "source": "OpenStreetMap", "source_detail": "Overpass 2026-06-12", "quality": "unverified", "coord_quality": "exact"}}, {"type": "Feature", "geometry": {"type": "Point", "coordinates": [13.64144, 52.38718]}, "properties": {"id": "osm-node-431042192", "kind": "hafen", "name": "Wassersport-Verein 1921", "area": "", "region": null, "land": "BE", "desc": null, "tags": [], "tel": "+49 30 6758530", "web": "https://www.wsv1921.de/", "source": "OpenStreetMap", "source_detail": "Overpass 2026-06-12", "quality": "unverified", "coord_quality": "exact"}}, {"type": "Feature", "geometry": {"type": "Point", "coordinates": [13.32719, 52.44345]}, "properties": {"id": "osm-node-431050783", "kind": "hafen", "name": "MRC Berlin", "area": "", "region": null, "land": "BE", "desc": null, "tags": ["230V"], "tel": "+49 30 76802916", "web": "https://www.mrc-berlin.com/", "source": "OpenStreetMap", "source_detail": "Overpass 2026-06-12", "quality": "unverified", "coord_quality": "exact"}}, {"type": "Feature", "geometry": {"type": "Point", "coordinates": [13.18855, 52.4553]}, "properties": {"id": "osm-node-431070637", "kind": "slip", "name": "Wasserzugangsstelle Unterhavel", "area": "", "region": null, "land": "BE", "desc": null, "tags": [], "tel": null, "web": null, "source": "OpenStreetMap", "source_detail": "Overpass 2026-06-12", "quality": "unverified", "coord_quality": "exact"}}, {"type": "Feature", "geometry": {"type": "Point", "coordinates": [13.6419, 52.34559]}, "properties": {"id": "osm-node-431077695", "kind": "hafen", "name": "Verein Berliner Segler e.V.", "area": "", "region": null, "land": "BE", "desc": null, "tags": [], "tel": "+49 30 6758151", "web": "https://www.vbs-1885.de/", "source": "OpenStreetMap", "source_detail": "Overpass 2026-06-12", "quality": "unverified", "coord_quality": "exact"}}, {"type": "Feature", "geometry": {"type": "Point", "coordinates": [13.57752, 52.45155]}, "properties": {"id": "osm-node-431089422", "kind": "tank", "name": "Spreves Wassertankstelle", "area": "", "region": null, "land": "BE", "desc": null, "tags": [], "tel": "+49 30 65667836; +49 30 656678 011", "web": "http://www.spreves.com/index.php?id=39", "source": "OpenStreetMap", "source_detail": "Overpass 2026-06-12", "quality": "unverified", "coord_quality": "exact"}}, {"type": "Feature", "geometry": {"type": "Point", "coordinates": [13.64042, 52.39339]}, "properties": {"id": "osm-node-431102051", "kind": "slip", "name": "Slipanlage", "area": "", "region": null, "land": "BE", "desc": null, "tags": [], "tel": null, "web": null, "source": "OpenStreetMap", "source_detail": "Overpass 2026-06-12", "quality": "unverified", "coord_quality": "exact"}}, {"type": "Feature", "geometry": {"type": "Point", "coordinates": [13.18857, 52.50194]}, "properties": {"id": "osm-node-431315670", "kind": "tank", "name": "Bootstankstelle Berlin", "area": "", "region": null, "land": "BE", "desc": null, "tags": [], "tel": null, "web": null, "source": "OpenStreetMap", "source_detail": "Overpass 2026-06-12", "quality": "unverified", "coord_quality": "exact"}}, {"type": "Feature", "geometry": {"type": "Point", "coordinates": [13.1208, 52.43004]}, "properties": {"id": "osm-node-512688214", "kind": "slip", "name": "Pfaueninsel", "area": "", "region": null, "land": "BE", "desc": null, "tags": [], "tel": null, "web": null, "source": "OpenStreetMap", "source_detail": "Overpass 2026-06-12", "quality": "unverified", "coord_quality": "exact"}}, {"type": "Feature", "geometry": {"type": "Point", "coordinates": [13.14735, 52.45045]}, "properties": {"id": "osm-node-604316621", "kind": "hafen", "name": "Wassersportclub Kladow", "area": "", "region": null, "land": "BE", "desc": null, "tags": [], "tel": "+49 30 8216788", "web": "https://wack-berlin.de/", "source": "OpenStreetMap", "source_detail": "Overpass 2026-06-12", "quality": "unverified", "coord_quality": "exact"}}, {"type": "Feature", "geometry": {"type": "Point", "coordinates": [13.20807, 52.50411]}, "properties": {"id": "osm-node-648259055", "kind": "hafen", "name": "Segelclub der Schele-Schule", "area": "", "region": null, "land": "BE", "desc": null, "tags": [], "tel": null, "web": null, "source": "OpenStreetMap", "source_detail": "Overpass 2026-06-12", "quality": "unverified", "coord_quality": "exact"}}, {"type": "Feature", "geometry": {"type": "Point", "coordinates": [13.20951, 52.50957]}, "properties": {"id": "osm-node-648259070", "kind": "hafen", "name": "TU-Bootshaus", "area": "", "region": null, "land": "BE", "desc": null, "tags": [], "tel": "+49 30 3623106", "web": null, "source": "OpenStreetMap", "source_detail": "Overpass 2026-06-12", "quality": "unverified", "coord_quality": "exact"}}, {"type": "Feature", "geometry": {"type": "Point", "coordinates": [13.6968, 52.38997]}, "properties": {"id": "osm-node-672103165", "kind": "hafen", "name": "Sportboothafen Gosen", "area": "", "region": null, "land": "BE", "desc": null, "tags": [], "tel": null, "web": null, "source": "OpenStreetMap", "source_detail": "Overpass 2026-06-12", "quality": "unverified", "coord_quality": "exact"}}, {"type": "Feature", "geometry": {"type": "Point", "coordinates": [13.20776, 52.50465]}, "properties": {"id": "osm-node-796932017", "kind": "hafen", "name": "Segel-Club Oberhavel", "area": "", "region": null, "land": "BE", "desc": null, "tags": [], "tel": null, "web": null, "source": "OpenStreetMap", "source_detail": "Overpass 2026-06-12", "quality": "unverified", "coord_quality": "exact"}}, {"type": "Feature", "geometry": {"type": "Point", "coordinates": [13.58381, 52.42363]}, "properties": {"id": "osm-node-799289307", "kind": "hafen", "name": "Segel-Club Fraternitas 1891 e.V.", "area": "Berlin", "region": null, "land": "BE", "desc": null, "tags": [], "tel": "+49 30 6515858", "web": "https://www.scf1891.de/", "source": "OpenStreetMap", "source_detail": "Overpass 2026-06-12", "quality": "unverified", "coord_quality": "exact"}}, {"type": "Feature", "geometry": {"type": "Point", "coordinates": [13.23896, 52.55962]}, "properties": {"id": "osm-node-825016578", "kind": "hafen", "name": "Bootsstände Lahe", "area": "Berlin", "region": null, "land": "BE", "desc": null, "tags": [], "tel": null, "web": null, "source": "OpenStreetMap", "source_detail": "Overpass 2026-06-12", "quality": "unverified", "coord_quality": "exact"}}, {"type": "Feature", "geometry": {"type": "Point", "coordinates": [13.47915, 52.48666]}, "properties": {"id": "osm-node-964736057", "kind": "charter", "name": "Rent-a-Boat Treptow", "area": "", "region": null, "land": "BE", "desc": null, "tags": [], "tel": "+49 177 299 3262", "web": null, "source": "OpenStreetMap", "source_detail": "Overpass 2026-06-12", "quality": "unverified", "coord_quality": "exact"}}, {"type": "Feature", "geometry": {"type": "Point", "coordinates": [13.58282, 52.41807]}, "properties": {"id": "osm-node-1044310084", "kind": "hafen", "name": "pier36eins", "area": "", "region": null, "land": "BE", "desc": null, "tags": ["230V", "Trinkwasser"], "tel": "+49 30 677880104", "web": "https://www.pier36eins.de/", "source": "OpenStreetMap", "source_detail": "Overpass 2026-06-12", "quality": "unverified", "coord_quality": "exact"}}, {"type": "Feature", "geometry": {"type": "Point", "coordinates": [13.58242, 52.4183]}, "properties": {"id": "osm-node-1049430671", "kind": "slip", "name": "Slipanlage", "area": "", "region": null, "land": "BE", "desc": null, "tags": [], "tel": null, "web": null, "source": "OpenStreetMap", "source_detail": "Overpass 2026-06-12", "quality": "unverified", "coord_quality": "exact"}}, {"type": "Feature", "geometry": {"type": "Point", "coordinates": [13.60909, 52.44788]}, "properties": {"id": "osm-node-1219940359", "kind": "hafen", "name": "Wassersportzentrum Berlin", "area": "", "region": null, "land": "BE", "desc": null, "tags": [], "tel": "+49 30 641800", "web": "https://wassersportzentrum.de/", "source": "OpenStreetMap", "source_detail": "Overpass 2026-06-12", "quality": "unverified", "coord_quality": "exact"}}, {"type": "Feature", "geometry": {"type": "Point", "coordinates": [13.4071, 52.4958]}, "properties": {"id": "osm-node-1226691195", "kind": "hafen", "name": "Anleger am Schiffsrestaurant van Loon", "area": "", "region": null, "land": "BE", "desc": null, "tags": [], "tel": "+49 30 6926293", "web": "https://vanloon.de/", "source": "OpenStreetMap", "source_detail": "Overpass 2026-06-12", "quality": "unverified", "coord_quality": "exact"}}, {"type": "Feature", "geometry": {"type": "Point", "coordinates": [13.2047, 52.52208]}, "properties": {"id": "osm-node-1230142557", "kind": "hafen", "name": "Tankschiffliegehafen", "area": "", "region": null, "land": "BE", "desc": null, "tags": [], "tel": null, "web": null, "source": "OpenStreetMap", "source_detail": "Overpass 2026-06-12", "quality": "unverified", "coord_quality": "exact"}}, {"type": "Feature", "geometry": {"type": "Point", "coordinates": [13.2084, 52.60763]}, "properties": {"id": "osm-node-1234411425", "kind": "slip", "name": "Slipanlage", "area": "", "region": null, "land": "BE", "desc": null, "tags": [], "tel": null, "web": null, "source": "OpenStreetMap", "source_detail": "Overpass 2026-06-12", "quality": "unverified", "coord_quality": "exact"}}, {"type": "Feature", "geometry": {"type": "Point", "coordinates": [13.24016, 52.5564]}, "properties": {"id": "osm-node-1314131220", "kind": "slip", "name": "VKB Motorboot Slipanlage", "area": "", "region": null, "land": "BE", "desc": null, "tags": [], "tel": null, "web": null, "source": "OpenStreetMap", "source_detail": "Overpass 2026-06-12", "quality": "unverified", "coord_quality": "exact"}}, {"type": "Feature", "geometry": {"type": "Point", "coordinates": [13.20096, 52.52769]}, "properties": {"id": "osm-node-1337616506", "kind": "tank", "name": "Bunkerboot Shell 5", "area": "", "region": null, "land": "BE", "desc": null, "tags": [], "tel": null, "web": null, "source": "OpenStreetMap", "source_detail": "Overpass 2026-06-12", "quality": "unverified", "coord_quality": "exact"}}, {"type": "Feature", "geometry": {"type": "Point", "coordinates": [13.63633, 52.39645]}, "properties": {"id": "osm-node-1399840384", "kind": "slip", "name": "Slipanlage", "area": "", "region": null, "land": "BE", "desc": null, "tags": [], "tel": null, "web": null, "source": "OpenStreetMap", "source_detail": "Overpass 2026-06-12", "quality": "unverified", "coord_quality": "exact"}}, {"type": "Feature", "geometry": {"type": "Point", "coordinates": [13.63654, 52.39664]}, "properties": {"id": "osm-node-1399840418", "kind": "hafen", "name": "Seesportclub Berlin-Grünau e.V.", "area": "", "region": null, "land": "BE", "desc": null, "tags": [], "tel": "+49 30 6743458", "web": "https://www.sscbg.de/", "source": "OpenStreetMap", "source_detail": "Overpass 2026-06-12", "quality": "unverified", "coord_quality": "exact"}}, {"type": "Feature", "geometry": {"type": "Point", "coordinates": [13.18295, 52.48946]}, "properties": {"id": "osm-node-1498298928", "kind": "hafen", "name": "Motor-Yacht-Club-Preußen e.v. im ADAC", "area": "Berlin", "region": null, "land": "BE", "desc": null, "tags": [], "tel": "+49 30 36 50 90 01", "web": "http://www.myc-preussen.de/", "source": "OpenStreetMap", "source_detail": "Overpass 2026-06-12", "quality": "unverified", "coord_quality": "exact"}}, {"type": "Feature", "geometry": {"type": "Point", "coordinates": [13.14893, 52.45215]}, "properties": {"id": "osm-node-1652078594", "kind": "slip", "name": "Sliprampe am Kladower Hafen", "area": "", "region": null, "land": "BE", "desc": null, "tags": [], "tel": null, "web": null, "source": "OpenStreetMap", "source_detail": "Overpass 2026-06-12", "quality": "unverified", "coord_quality": "exact"}}, {"type": "Feature", "geometry": {"type": "Point", "coordinates": [13.21016, 52.60865]}, "properties": {"id": "osm-node-1690478159", "kind": "hafen", "name": "Hotel Dannenberg", "area": "", "region": null, "land": "BE", "desc": null, "tags": [], "tel": "+49 30 4313091", "web": "https://www.haus-dannenberg.de", "source": "OpenStreetMap", "source_detail": "Overpass 2026-06-12", "quality": "unverified", "coord_quality": "exact"}}, {"type": "Feature", "geometry": {"type": "Point", "coordinates": [13.48292, 52.49131]}, "properties": {"id": "osm-node-1723706445", "kind": "hafen", "name": "Hafen Schiffskontor", "area": "", "region": null, "land": "BE", "desc": null, "tags": [], "tel": "+49 30 246479960", "web": "https://www.schiffskontor.de/", "source": "OpenStreetMap", "source_detail": "Overpass 2026-06-12", "quality": "unverified", "coord_quality": "exact"}}, {"type": "Feature", "geometry": {"type": "Point", "coordinates": [13.57331, 52.43147]}, "properties": {"id": "osm-node-1744587414", "kind": "hafen", "name": "PSB 24", "area": "", "region": null, "land": "BE", "desc": null, "tags": ["230V", "Entsorgung"], "tel": "+49 30 82309844", "web": "https://www.psb24-koepenick.de/", "source": "OpenStreetMap", "source_detail": "Overpass 2026-06-12", "quality": "unverified", "coord_quality": "exact"}}, {"type": "Feature", "geometry": {"type": "Point", "coordinates": [13.48894, 52.49118]}, "properties": {"id": "osm-node-1744631328", "kind": "slip", "name": "Slipanlage", "area": "", "region": null, "land": "BE", "desc": null, "tags": [], "tel": null, "web": null, "source": "OpenStreetMap", "source_detail": "Overpass 2026-06-12", "quality": "unverified", "coord_quality": "exact"}}, {"type": "Feature", "geometry": {"type": "Point", "coordinates": [13.58427, 52.42232]}, "properties": {"id": "osm-node-1785109039", "kind": "hafen", "name": "SC Brise 1898", "area": "Berlin", "region": null, "land": "BE", "desc": null, "tags": [], "tel": "+49 30 65499136", "web": "https://www.sc-brise.de", "source": "OpenStreetMap", "source_detail": "Overpass 2026-06-12", "quality": "unverified", "coord_quality": "exact"}}, {"type": "Feature", "geometry": {"type": "Point", "coordinates": [13.63388, 52.3968]}, "properties": {"id": "osm-node-1799470302", "kind": "hafen", "name": "WSV Karolinenhof e.V.", "area": "", "region": null, "land": "BE", "desc": null, "tags": [], "tel": "+49 30 6759523", "web": "https://www.wsvk.info/", "source": "OpenStreetMap", "source_detail": "Overpass 2026-06-12", "quality": "unverified", "coord_quality": "exact"}}, {"type": "Feature", "geometry": {"type": "Point", "coordinates": [13.48924, 52.49074]}, "properties": {"id": "osm-node-1799470309", "kind": "hafen", "name": "Citymarina Rummelsburg", "area": "Berlin", "region": null, "land": "BE", "desc": null, "tags": ["230V", "Trinkwasser", "Entsorgung"], "tel": "+49 30 422199299", "web": "https://citymarina-berlin.de/", "source": "OpenStreetMap", "source_detail": "Overpass 2026-06-12", "quality": "unverified", "coord_quality": "exact"}}, {"type": "Feature", "geometry": {"type": "Point", "coordinates": [13.18768, 52.50143]}, "properties": {"id": "osm-node-1805200004", "kind": "hafen", "name": "Marina Lanke", "area": "", "region": null, "land": "BE", "desc": null, "tags": [], "tel": null, "web": null, "source": "OpenStreetMap", "source_detail": "Overpass 2026-06-12", "quality": "unverified", "coord_quality": "exact"}}, {"type": "Feature", "geometry": {"type": "Point", "coordinates": [13.65314, 52.37396]}, "properties": {"id": "osm-node-1828614468", "kind": "slip", "name": "Slipanlage", "area": "", "region": null, "land": "BE", "desc": null, "tags": [], "tel": null, "web": null, "source": "OpenStreetMap", "source_detail": "Overpass 2026-06-12", "quality": "unverified", "coord_quality": "exact"}}, {"type": "Feature", "geometry": {"type": "Point", "coordinates": [13.48094, 52.49162]}, "properties": {"id": "osm-node-1854940462", "kind": "slip", "name": "Slipanlage", "area": "", "region": null, "land": "BE", "desc": null, "tags": [], "tel": null, "web": null, "source": "OpenStreetMap", "source_detail": "Overpass 2026-06-12", "quality": "unverified", "coord_quality": "exact"}}, {"type": "Feature", "geometry": {"type": "Point", "coordinates": [13.21761, 52.54992]}, "properties": {"id": "osm-node-1868515465", "kind": "hafen", "name": "Bootshaus Eiswerder", "area": "", "region": null, "land": "BE", "desc": null, "tags": [], "tel": "+49 30 3362907", "web": "http://www.bootshaus-eiswerder.de/", "source": "OpenStreetMap", "source_detail": "Overpass 2026-06-12", "quality": "unverified", "coord_quality": "exact"}}, {"type": "Feature", "geometry": {"type": "Point", "coordinates": [13.21286, 52.54683]}, "properties": {"id": "osm-node-1868515480", "kind": "hafen", "name": "Altstadthafen Berlin-Spandau", "area": "", "region": null, "land": "BE", "desc": null, "tags": ["Entsorgung"], "tel": null, "web": null, "source": "OpenStreetMap", "source_detail": "Overpass 2026-06-12", "quality": "unverified", "coord_quality": "exact"}}, {"type": "Feature", "geometry": {"type": "Point", "coordinates": [13.70448, 52.39374]}, "properties": {"id": "osm-node-1909984564", "kind": "slip", "name": "Gleitbahn", "area": "", "region": null, "land": "BE", "desc": null, "tags": [], "tel": null, "web": null, "source": "OpenStreetMap", "source_detail": "Overpass 2026-06-12", "quality": "unverified", "coord_quality": "exact"}}, {"type": "Feature", "geometry": {"type": "Point", "coordinates": [13.48687, 52.492]}, "properties": {"id": "osm-node-1912561249", "kind": "tank", "name": "Bunkerboot Spree", "area": "", "region": null, "land": "BE", "desc": null, "tags": [], "tel": null, "web": null, "source": "OpenStreetMap", "source_detail": "Overpass 2026-06-12", "quality": "unverified", "coord_quality": "exact"}}, {"type": "Feature", "geometry": {"type": "Point", "coordinates": [13.21773, 52.54978]}, "properties": {"id": "osm-node-1918753773", "kind": "slip", "name": "Slipanlage", "area": "", "region": null, "land": "BE", "desc": null, "tags": [], "tel": null, "web": null, "source": "OpenStreetMap", "source_detail": "Overpass 2026-06-12", "quality": "unverified", "coord_quality": "exact"}}, {"type": "Feature", "geometry": {"type": "Point", "coordinates": [13.18631, 52.50087]}, "properties": {"id": "osm-node-1918887323", "kind": "slip", "name": "Slipanlage", "area": "", "region": null, "land": "BE", "desc": null, "tags": [], "tel": null, "web": null, "source": "OpenStreetMap", "source_detail": "Overpass 2026-06-12", "quality": "unverified", "coord_quality": "exact"}}, {"type": "Feature", "geometry": {"type": "Point", "coordinates": [13.17624, 52.4441]}, "properties": {"id": "osm-node-1919004202", "kind": "slip", "name": "Slipanlage", "area": "", "region": null, "land": "BE", "desc": null, "tags": [], "tel": null, "web": null, "source": "OpenStreetMap", "source_detail": "Overpass 2026-06-12", "quality": "unverified", "coord_quality": "exact"}}, {"type": "Feature", "geometry": {"type": "Point", "coordinates": [13.19629, 52.50747]}, "properties": {"id": "osm-node-1921940693", "kind": "hafen", "name": "Bootshaus Hempler", "area": "", "region": null, "land": "BE", "desc": null, "tags": [], "tel": null, "web": null, "source": "OpenStreetMap", "source_detail": "Overpass 2026-06-12", "quality": "unverified", "coord_quality": "exact"}}, {"type": "Feature", "geometry": {"type": "Point", "coordinates": [13.64523, 52.37216]}, "properties": {"id": "osm-node-1922002328", "kind": "hafen", "name": "Bootshaus Zeuthener See", "area": "", "region": null, "land": "BE", "desc": null, "tags": [], "tel": "+49 30 67803927", "web": "http://bootshaus-berlin.de", "source": "OpenStreetMap", "source_detail": "Overpass 2026-06-12", "quality": "unverified", "coord_quality": "exact"}}, {"type": "Feature", "geometry": {"type": "Point", "coordinates": [13.24497, 52.56245]}, "properties": {"id": "osm-node-1922002329", "kind": "hafen", "name": "Bootshaus Zacholowsky", "area": "", "region": null, "land": "BE", "desc": null, "tags": [], "tel": "+49 30 3348919", "web": null, "source": "OpenStreetMap", "source_detail": "Overpass 2026-06-12", "quality": "unverified", "coord_quality": "exact"}}, {"type": "Feature", "geometry": {"type": "Point", "coordinates": [13.20094, 52.50852]}, "properties": {"id": "osm-node-1922073466", "kind": "hafen", "name": "Bootsstände Angermann", "area": "", "region": null, "land": "BE", "desc": null, "tags": [], "tel": null, "web": null, "source": "OpenStreetMap", "source_detail": "Overpass 2026-06-12", "quality": "unverified", "coord_quality": "exact"}}, {"type": "Feature", "geometry": {"type": "Point", "coordinates": [13.20057, 52.50885]}, "properties": {"id": "osm-node-1922073470", "kind": "slip", "name": "Slipanlage", "area": "", "region": null, "land": "BE", "desc": null, "tags": [], "tel": null, "web": null, "source": "OpenStreetMap", "source_detail": "Overpass 2026-06-12", "quality": "unverified", "coord_quality": "exact"}}, {"type": "Feature", "geometry": {"type": "Point", "coordinates": [13.20134, 52.50908]}, "properties": {"id": "osm-node-1922073473", "kind": "slip", "name": "Slipanlage", "area": "", "region": null, "land": "BE", "desc": null, "tags": [], "tel": null, "web": null, "source": "OpenStreetMap", "source_detail": "Overpass 2026-06-12", "quality": "unverified", "coord_quality": "exact"}}, {"type": "Feature", "geometry": {"type": "Point", "coordinates": [13.17021, 52.42159]}, "properties": {"id": "osm-node-1928056837", "kind": "slip", "name": "Slipanlage", "area": "", "region": null, "land": "BE", "desc": null, "tags": [], "tel": null, "web": null, "source": "OpenStreetMap", "source_detail": "Overpass 2026-06-12", "quality": "unverified", "coord_quality": "exact"}}, {"type": "Feature", "geometry": {"type": "Point", "coordinates": [13.16391, 52.42294]}, "properties": {"id": "osm-node-1928056872", "kind": "slip", "name": "Slipanlage", "area": "", "region": null, "land": "BE", "desc": null, "tags": [], "tel": null, "web": null, "source": "OpenStreetMap", "source_detail": "Overpass 2026-06-12", "quality": "unverified", "coord_quality": "exact"}}, {"type": "Feature", "geometry": {"type": "Point", "coordinates": [13.1823, 52.42916]}, "properties": {"id": "osm-node-1928056890", "kind": "slip", "name": "Slipanlage", "area": "", "region": null, "land": "BE", "desc": null, "tags": [], "tel": null, "web": null, "source": "OpenStreetMap", "source_detail": "Overpass 2026-06-12", "quality": "unverified", "coord_quality": "exact"}}, {"type": "Feature", "geometry": {"type": "Point", "coordinates": [13.64818, 52.37914]}, "properties": {"id": "osm-node-1928068570", "kind": "slip", "name": "Slipanlage", "area": "", "region": null, "land": "BE", "desc": null, "tags": [], "tel": null, "web": null, "source": "OpenStreetMap", "source_detail": "Overpass 2026-06-12", "quality": "unverified", "coord_quality": "exact"}}, {"type": "Feature", "geometry": {"type": "Point", "coordinates": [13.58146, 52.44951]}, "properties": {"id": "osm-node-1932222827", "kind": "hafen", "name": "Cöpenicker Segler-Verein", "area": "Berlin", "region": null, "land": "BE", "desc": null, "tags": [], "tel": "+49 30 657 20 48", "web": "https://www.csvberlin.de", "source": "OpenStreetMap", "source_detail": "Overpass 2026-06-12", "quality": "unverified", "coord_quality": "exact"}}, {"type": "Feature", "geometry": {"type": "Point", "coordinates": [13.62933, 52.42721]}, "properties": {"id": "osm-node-1932276990", "kind": "hafen", "name": "Bootsverleih SPREE POINT", "area": "", "region": null, "land": "BE", "desc": null, "tags": [], "tel": "+49 171 7140816; +49 30 6411291", "web": "https://www.bootsverleih-spreepoint.de/boote/", "source": "OpenStreetMap", "source_detail": "Overpass 2026-06-12", "quality": "unverified", "coord_quality": "exact"}}, {"type": "Feature", "geometry": {"type": "Point", "coordinates": [13.19282, 52.46767]}, "properties": {"id": "osm-node-1932329642", "kind": "hafen", "name": "Ideeninsel Lindwerder", "area": "", "region": null, "land": "BE", "desc": null, "tags": [], "tel": "+49 30 8036584", "web": "https://www.lindwerder.de/", "source": "OpenStreetMap", "source_detail": "Overpass 2026-06-12", "quality": "unverified", "coord_quality": "exact"}}, {"type": "Feature", "geometry": {"type": "Point", "coordinates": [13.16722, 52.43087]}, "properties": {"id": "osm-node-1932402684", "kind": "hafen", "name": "Motor-Boot-Club Berlin e. V.", "area": "", "region": null, "land": "BE", "desc": null, "tags": [], "tel": "+49 30 8053084", "web": "https://www.mbc-berlin.de/", "source": "OpenStreetMap", "source_detail": "Overpass 2026-06-12", "quality": "unverified", "coord_quality": "exact"}}, {"type": "Feature", "geometry": {"type": "Point", "coordinates": [13.27588, 52.58025]}, "properties": {"id": "osm-node-1937154972", "kind": "hafen", "name": "Motor-Yacht-Club Tegel e. V.", "area": "", "region": null, "land": "BE", "desc": null, "tags": [], "tel": "+49 30 4329880", "web": "https://www.myc-tegel.de/", "source": "OpenStreetMap", "source_detail": "Overpass 2026-06-12", "quality": "unverified", "coord_quality": "exact"}}, {"type": "Feature", "geometry": {"type": "Point", "coordinates": [13.27587, 52.57942]}, "properties": {"id": "osm-node-1937154973", "kind": "slip", "name": "Slipanlage", "area": "", "region": null, "land": "BE", "desc": null, "tags": [], "tel": null, "web": null, "source": "OpenStreetMap", "source_detail": "Overpass 2026-06-12", "quality": "unverified", "coord_quality": "exact"}}, {"type": "Feature", "geometry": {"type": "Point", "coordinates": [13.66536, 52.40954]}, "properties": {"id": "osm-node-1941672702", "kind": "hafen", "name": "Bläske & Schülke", "area": "", "region": null, "land": "BE", "desc": null, "tags": [], "tel": "+49 30 6596873", "web": null, "source": "OpenStreetMap", "source_detail": "Overpass 2026-06-12", "quality": "unverified", "coord_quality": "exact"}}, {"type": "Feature", "geometry": {"type": "Point", "coordinates": [13.22373, 52.5694]}, "properties": {"id": "osm-node-1941715870", "kind": "slip", "name": "Slipanlage", "area": "", "region": null, "land": "BE", "desc": null, "tags": [], "tel": null, "web": null, "source": "OpenStreetMap", "source_detail": "Overpass 2026-06-12", "quality": "unverified", "coord_quality": "exact"}}, {"type": "Feature", "geometry": {"type": "Point", "coordinates": [13.22435, 52.56955]}, "properties": {"id": "osm-node-1941715878", "kind": "hafen", "name": "SC Spandau e.V.", "area": "Berlin", "region": null, "land": "BE", "desc": null, "tags": [], "tel": null, "web": null, "source": "OpenStreetMap", "source_detail": "Overpass 2026-06-12", "quality": "unverified", "coord_quality": "exact"}}, {"type": "Feature", "geometry": {"type": "Point", "coordinates": [13.1674, 52.42209]}, "properties": {"id": "osm-node-1942006529", "kind": "slip", "name": "Slipanlage", "area": "", "region": null, "land": "BE", "desc": null, "tags": [], "tel": null, "web": null, "source": "OpenStreetMap", "source_detail": "Overpass 2026-06-12", "quality": "unverified", "coord_quality": "exact"}}, {"type": "Feature", "geometry": {"type": "Point", "coordinates": [13.16796, 52.42198]}, "properties": {"id": "osm-node-1942006531", "kind": "slip", "name": "Slipanlage", "area": "", "region": null, "land": "BE", "desc": null, "tags": [], "tel": null, "web": null, "source": "OpenStreetMap", "source_detail": "Overpass 2026-06-12", "quality": "unverified", "coord_quality": "exact"}}, {"type": "Feature", "geometry": {"type": "Point", "coordinates": [13.62398, 52.44249]}, "properties": {"id": "osm-node-1976324366", "kind": "hafen", "name": "Seglergemeinschaft am Müggelsee", "area": "", "region": null, "land": "BE", "desc": null, "tags": [], "tel": "+49 30 6440044", "web": "https://www.sgam-friedrichshagen.de/", "source": "OpenStreetMap", "source_detail": "Overpass 2026-06-12", "quality": "unverified", "coord_quality": "exact"}}, {"type": "Feature", "geometry": {"type": "Point", "coordinates": [13.2001, 52.5287]}, "properties": {"id": "osm-node-2024984797", "kind": "tank", "name": "Bunkerboot Aral 13", "area": "", "region": null, "land": "BE", "desc": null, "tags": [], "tel": "+49 172 3000226", "web": null, "source": "OpenStreetMap", "source_detail": "Overpass 2026-06-12", "quality": "unverified", "coord_quality": "exact"}}, {"type": "Feature", "geometry": {"type": "Point", "coordinates": [13.18587, 52.44947]}, "properties": {"id": "osm-node-2025013823", "kind": "hafen", "name": "Wassersportgemeinschaft am Großen Fenster", "area": "", "region": null, "land": "BE", "desc": null, "tags": [], "tel": "+49 30 8037137", "web": "https://www.wag-berlin.de/", "source": "OpenStreetMap", "source_detail": "Overpass 2026-06-12", "quality": "unverified", "coord_quality": "exact"}}, {"type": "Feature", "geometry": {"type": "Point", "coordinates": [13.57037, 52.44397]}, "properties": {"id": "osm-node-2031074621", "kind": "hafen", "name": "Marina Schloss Köpenick", "area": "", "region": null, "land": "BE", "desc": null, "tags": [], "tel": "+49 30 654790", "web": "https://www.pentahotels.com/hotels/koeph-berlin-koepenick/", "source": "OpenStreetMap", "source_detail": "Overpass 2026-06-12", "quality": "unverified", "coord_quality": "exact"}}, {"type": "Feature", "geometry": {"type": "Point", "coordinates": [13.63838, 52.34753]}, "properties": {"id": "osm-node-2046121167", "kind": "hafen", "name": "Segelclub ARGO e.V.", "area": "", "region": null, "land": "BE", "desc": null, "tags": [], "tel": "+49 30 6759246", "web": "https://www.sc-argo.de/", "source": "OpenStreetMap", "source_detail": "Overpass 2026-06-12", "quality": "unverified", "coord_quality": "exact"}}, {"type": "Feature", "geometry": {"type": "Point", "coordinates": [13.24074, 52.56137]}, "properties": {"id": "osm-node-2052929420", "kind": "hafen", "name": "Marina Schulz", "area": "", "region": null, "land": "BE", "desc": null, "tags": [], "tel": "+49 30 3343255", "web": "https://www.marinaschulz.de/", "source": "OpenStreetMap", "source_detail": "Overpass 2026-06-12", "quality": "unverified", "coord_quality": "exact"}}, {"type": "Feature", "geometry": {"type": "Point", "coordinates": [13.14993, 52.41252]}, "properties": {"id": "osm-node-2061653957", "kind": "hafen", "name": "Bootshaus Weller", "area": "", "region": null, "land": "BE", "desc": null, "tags": [], "tel": "+49 30 8051907", "web": null, "source": "OpenStreetMap", "source_detail": "Overpass 2026-06-12", "quality": "unverified", "coord_quality": "exact"}}, {"type": "Feature", "geometry": {"type": "Point", "coordinates": [13.14967, 52.4127]}, "properties": {"id": "osm-node-2061653964", "kind": "slip", "name": "Slipanlage", "area": "", "region": null, "land": "BE", "desc": null, "tags": [], "tel": null, "web": null, "source": "OpenStreetMap", "source_detail": "Overpass 2026-06-12", "quality": "unverified", "coord_quality": "exact"}}, {"type": "Feature", "geometry": {"type": "Point", "coordinates": [13.1478, 52.45094]}, "properties": {"id": "osm-node-2074833634", "kind": "hafen", "name": "Wassersportfreunde Imchen Berlin", "area": "", "region": null, "land": "BE", "desc": null, "tags": [], "tel": "+49 30 3653063", "web": "https://www.wsfi.de/", "source": "OpenStreetMap", "source_detail": "Overpass 2026-06-12", "quality": "unverified", "coord_quality": "exact"}}, {"type": "Feature", "geometry": {"type": "Point", "coordinates": [13.19435, 52.51136]}, "properties": {"id": "osm-node-2075962625", "kind": "hafen", "name": "Bootshafen Reiffer", "area": "", "region": null, "land": "BE", "desc": null, "tags": [], "tel": null, "web": null, "source": "OpenStreetMap", "source_detail": "Overpass 2026-06-12", "quality": "unverified", "coord_quality": "exact"}}, {"type": "Feature", "geometry": {"type": "Point", "coordinates": [13.19493, 52.51103]}, "properties": {"id": "osm-node-2075962627", "kind": "hafen", "name": "Kanuklub Charlottenburg", "area": "", "region": null, "land": "BE", "desc": null, "tags": [], "tel": null, "web": null, "source": "OpenStreetMap", "source_detail": "Overpass 2026-06-12", "quality": "unverified", "coord_quality": "exact"}}, {"type": "Feature", "geometry": {"type": "Point", "coordinates": [13.21174, 52.50919]}, "properties": {"id": "osm-node-2075962661", "kind": "hafen", "name": "Segelvereinigung Havel", "area": "", "region": null, "land": "BE", "desc": null, "tags": [], "tel": null, "web": null, "source": "OpenStreetMap", "source_detail": "Overpass 2026-06-12", "quality": "unverified", "coord_quality": "exact"}}, {"type": "Feature", "geometry": {"type": "Point", "coordinates": [13.18931, 52.5106]}, "properties": {"id": "osm-node-2075962663", "kind": "hafen", "name": "Segler Verein Scharfe Lanke", "area": "", "region": null, "land": "BE", "desc": null, "tags": [], "tel": null, "web": null, "source": "OpenStreetMap", "source_detail": "Overpass 2026-06-12", "quality": "unverified", "coord_quality": "exact"}}, {"type": "Feature", "geometry": {"type": "Point", "coordinates": [13.19318, 52.5111]}, "properties": {"id": "osm-node-2075962664", "kind": "hafen", "name": "Segler-Club Gothia", "area": "", "region": null, "land": "BE", "desc": null, "tags": [], "tel": null, "web": null, "source": "OpenStreetMap", "source_detail": "Overpass 2026-06-12", "quality": "unverified", "coord_quality": "exact"}}, {"type": "Feature", "geometry": {"type": "Point", "coordinates": [13.21056, 52.5041]}, "properties": {"id": "osm-node-2075962666", "kind": "hafen", "name": "VWG Berlin", "area": "", "region": null, "land": "BE", "desc": null, "tags": [], "tel": null, "web": null, "source": "OpenStreetMap", "source_detail": "Overpass 2026-06-12", "quality": "unverified", "coord_quality": "exact"}}, {"type": "Feature", "geometry": {"type": "Point", "coordinates": [13.20879, 52.50689]}, "properties": {"id": "osm-node-2075962668", "kind": "hafen", "name": "Verein Spandauer Jollensegler", "area": "", "region": null, "land": "BE", "desc": null, "tags": [], "tel": null, "web": null, "source": "OpenStreetMap", "source_detail": "Overpass 2026-06-12", "quality": "unverified", "coord_quality": "exact"}}, {"type": "Feature", "geometry": {"type": "Point", "coordinates": [13.18891, 52.50304]}, "properties": {"id": "osm-node-2075962669", "kind": "hafen", "name": "Yachthafen Blau-Rot", "area": "", "region": null, "land": "BE", "desc": null, "tags": [], "tel": null, "web": null, "source": "OpenStreetMap", "source_detail": "Overpass 2026-06-12", "quality": "unverified", "coord_quality": "exact"}}, {"type": "Feature", "geometry": {"type": "Point", "coordinates": [13.21069, 52.50927]}, "properties": {"id": "osm-node-2075962671", "kind": "hafen", "name": "Yachthafen Captain's Inn", "area": "", "region": null, "land": "BE", "desc": null, "tags": [], "tel": null, "web": null, "source": "OpenStreetMap", "source_detail": "Overpass 2026-06-12", "quality": "unverified", "coord_quality": "exact"}}, {"type": "Feature", "geometry": {"type": "Point", "coordinates": [13.16437, 52.42752]}, "properties": {"id": "osm-node-2076087429", "kind": "hafen", "name": "Berliner Segler-Verein 1907", "area": "", "region": null, "land": "BE", "desc": null, "tags": [], "tel": "+49 30 8053096", "web": "http://www.bsv1907.de/index2.php", "source": "OpenStreetMap", "source_detail": "Overpass 2026-06-12", "quality": "unverified", "coord_quality": "exact"}}, {"type": "Feature", "geometry": {"type": "Point", "coordinates": [13.48176, 52.48623]}, "properties": {"id": "osm-node-2084847947", "kind": "hafen", "name": "Segelschiffrestaurant \"Klipper\"", "area": "Berlin", "region": null, "land": "BE", "desc": null, "tags": [], "tel": null, "web": null, "source": "OpenStreetMap", "source_detail": "Overpass 2026-06-12", "quality": "unverified", "coord_quality": "exact"}}, {"type": "Feature", "geometry": {"type": "Point", "coordinates": [13.58043, 52.44603]}, "properties": {"id": "osm-node-2088402949", "kind": "charter", "name": "aqua.berlin", "area": "Berlin", "region": null, "land": "BE", "desc": null, "tags": [], "tel": "+49 30 67818084", "web": "https://aqua.berlin", "source": "OpenStreetMap", "source_detail": "Overpass 2026-06-12", "quality": "unverified", "coord_quality": "exact"}}, {"type": "Feature", "geometry": {"type": "Point", "coordinates": [13.58474, 52.44641]}, "properties": {"id": "osm-node-2088402950", "kind": "hafen", "name": "Bootshaus Klar", "area": "", "region": null, "land": "BE", "desc": null, "tags": [], "tel": "+49 30 6541675", "web": "http://www.lp-db.de/liegeplatz/zeigen/name/652b9081d051c87dc06bb3f2206919e6/i/Liegeplatz+von+Bootshaus+Klar", "source": "OpenStreetMap", "source_detail": "Overpass 2026-06-12", "quality": "unverified", "coord_quality": "exact"}}, {"type": "Feature", "geometry": {"type": "Point", "coordinates": [13.5728, 52.44487]}, "properties": {"id": "osm-node-2088436820", "kind": "hafen", "name": "Köpenick / Luisenhain - Stern und Kreisschiffahrt GmbH", "area": "", "region": null, "land": "BE", "desc": null, "tags": [], "tel": null, "web": null, "source": "OpenStreetMap", "source_detail": "Overpass 2026-06-12", "quality": "unverified", "coord_quality": "exact"}}, {"type": "Feature", "geometry": {"type": "Point", "coordinates": [13.2087, 52.50811]}, "properties": {"id": "osm-node-2098294592", "kind": "hafen", "name": "Akademischer Segel-Club zu Berlin", "area": "", "region": null, "land": "BE", "desc": null, "tags": [], "tel": null, "web": "https://www.asc-berlin.de/", "source": "OpenStreetMap", "source_detail": "Overpass 2026-06-12", "quality": "unverified", "coord_quality": "exact"}}, {"type": "Feature", "geometry": {"type": "Point", "coordinates": [13.22537, 52.56409]}, "properties": {"id": "osm-node-2102979804", "kind": "hafen", "name": "Polizei-Sport-Verein", "area": "", "region": null, "land": "BE", "desc": null, "tags": [], "tel": null, "web": "https://psv-wsa.de/", "source": "OpenStreetMap", "source_detail": "Overpass 2026-06-12", "quality": "unverified", "coord_quality": "exact"}}, {"type": "Feature", "geometry": {"type": "Point", "coordinates": [13.27107, 52.57827]}, "properties": {"id": "osm-node-2102979809", "kind": "hafen", "name": "Touren-Segler-Vereinigung", "area": "", "region": null, "land": "BE", "desc": null, "tags": [], "tel": "+49 30 4323549", "web": "https://www.tsv-berlin.de", "source": "OpenStreetMap", "source_detail": "Overpass 2026-06-12", "quality": "unverified", "coord_quality": "exact"}}, {"type": "Feature", "geometry": {"type": "Point", "coordinates": [13.24018, 52.56086]}, "properties": {"id": "osm-node-2102979811", "kind": "hafen", "name": "WSV 1929", "area": "", "region": null, "land": "BE", "desc": null, "tags": [], "tel": "+49 30 3349367", "web": "https://www.wsv1929.de/", "source": "OpenStreetMap", "source_detail": "Overpass 2026-06-12", "quality": "unverified", "coord_quality": "exact"}}, {"type": "Feature", "geometry": {"type": "Point", "coordinates": [13.22147, 52.5446]}, "properties": {"id": "osm-node-2102979813", "kind": "hafen", "name": "Wassersportclub Grün-Silber-Orange Berlin 1952", "area": "", "region": null, "land": "BE", "desc": null, "tags": [], "tel": "+49 30 3342988", "web": "https://www.wgso.de/", "source": "OpenStreetMap", "source_detail": "Overpass 2026-06-12", "quality": "unverified", "coord_quality": "exact"}}, {"type": "Feature", "geometry": {"type": "Point", "coordinates": [13.22763, 52.57219]}, "properties": {"id": "osm-node-2103035476", "kind": "hafen", "name": "Joersfelder Segel-Club", "area": "", "region": null, "land": "BE", "desc": null, "tags": [], "tel": "+49 30 43671267", "web": "https://joersfelder-segel-club.de/", "source": "OpenStreetMap", "source_detail": "Overpass 2026-06-12", "quality": "unverified", "coord_quality": "exact"}}, {"type": "Feature", "geometry": {"type": "Point", "coordinates": [13.22303, 52.57093]}, "properties": {"id": "osm-node-2103035492", "kind": "hafen", "name": "Segel-Club Nordstern Spandau", "area": "", "region": null, "land": "BE", "desc": null, "tags": [], "tel": "+49 30 3352558", "web": "https://www.segel-club-nordstern.de/", "source": "OpenStreetMap", "source_detail": "Overpass 2026-06-12", "quality": "unverified", "coord_quality": "exact"}}, {"type": "Feature", "geometry": {"type": "Point", "coordinates": [13.18764, 52.50238]}, "properties": {"id": "osm-node-2110740078", "kind": "slip", "name": "Slipanlage", "area": "", "region": null, "land": "BE", "desc": null, "tags": [], "tel": null, "web": null, "source": "OpenStreetMap", "source_detail": "Overpass 2026-06-12", "quality": "unverified", "coord_quality": "exact"}}, {"type": "Feature", "geometry": {"type": "Point", "coordinates": [13.25795, 52.57289]}, "properties": {"id": "osm-node-2115692975", "kind": "hafen", "name": "Anglerverein Wedding 1921", "area": "", "region": null, "land": "BE", "desc": null, "tags": [], "tel": "+49 30 4322850", "web": "http://www.angelverein-wedding.de/", "source": "OpenStreetMap", "source_detail": "Overpass 2026-06-12", "quality": "unverified", "coord_quality": "exact"}}, {"type": "Feature", "geometry": {"type": "Point", "coordinates": [13.25767, 52.57202]}, "properties": {"id": "osm-node-2115693300", "kind": "hafen", "name": "SAV Gut Biss 1920", "area": "", "region": null, "land": "BE", "desc": null, "tags": [], "tel": null, "web": "http://www.sav-gut-biss.de/", "source": "OpenStreetMap", "source_detail": "Overpass 2026-06-12", "quality": "unverified", "coord_quality": "exact"}}, {"type": "Feature", "geometry": {"type": "Point", "coordinates": [13.25922, 52.57427]}, "properties": {"id": "osm-node-2115693305", "kind": "hafen", "name": "Segel-Club Freia", "area": "", "region": null, "land": "BE", "desc": null, "tags": [], "tel": "+49 30 4327787", "web": "https://sc-freia.de/", "source": "OpenStreetMap", "source_detail": "Overpass 2026-06-12", "quality": "unverified", "coord_quality": "exact"}}, {"type": "Feature", "geometry": {"type": "Point", "coordinates": [13.25866, 52.57376]}, "properties": {"id": "osm-node-2115693312", "kind": "hafen", "name": "Segel-Klub Nixe - SK Nixe", "area": "", "region": null, "land": "BE", "desc": null, "tags": [], "tel": "+49 30 4323438", "web": "https://segel-klub-nixe.de/", "source": "OpenStreetMap", "source_detail": "Overpass 2026-06-12", "quality": "unverified", "coord_quality": "exact"}}, {"type": "Feature", "geometry": {"type": "Point", "coordinates": [13.25846, 52.57346]}, "properties": {"id": "osm-node-2115693318", "kind": "hafen", "name": "Segelclub Odin", "area": "", "region": null, "land": "BE", "desc": null, "tags": [], "tel": "+49 30 7911915", "web": "https://www.scodin.de/", "source": "OpenStreetMap", "source_detail": "Overpass 2026-06-12", "quality": "unverified", "coord_quality": "exact"}}, {"type": "Feature", "geometry": {"type": "Point", "coordinates": [13.21124, 52.59973]}, "properties": {"id": "osm-node-2115693327", "kind": "hafen", "name": "Verein Schmöckwitzer Segler", "area": "", "region": null, "land": "BE", "desc": null, "tags": [], "tel": "+49 30 4318322", "web": "http://www.vss1888.de", "source": "OpenStreetMap", "source_detail": "Overpass 2026-06-12", "quality": "unverified", "coord_quality": "exact"}}, {"type": "Feature", "geometry": {"type": "Point", "coordinates": [13.24313, 52.5622]}, "properties": {"id": "osm-node-2115693328", "kind": "hafen", "name": "Wasser-Sport-Club Siemensstadt e.V.", "area": "", "region": null, "land": "BE", "desc": null, "tags": [], "tel": "+49 30 3343131", "web": "https://www.wscs.de/", "source": "OpenStreetMap", "source_detail": "Overpass 2026-06-12", "quality": "unverified", "coord_quality": "exact"}}, {"type": "Feature", "geometry": {"type": "Point", "coordinates": [13.21656, 52.5541]}, "properties": {"id": "osm-node-2115693333", "kind": "hafen", "name": "Wasserfreunde Spandau 04", "area": "", "region": null, "land": "BE", "desc": null, "tags": [], "tel": "+49 30 3332480", "web": "https://www.spandau04.de/", "source": "OpenStreetMap", "source_detail": "Overpass 2026-06-12", "quality": "unverified", "coord_quality": "exact"}}, {"type": "Feature", "geometry": {"type": "Point", "coordinates": [13.21411, 52.51132]}, "properties": {"id": "osm-node-2115693338", "kind": "hafen", "name": "Yacht-Club Stößensee - YCST", "area": "", "region": null, "land": "BE", "desc": null, "tags": [], "tel": null, "web": null, "source": "OpenStreetMap", "source_detail": "Overpass 2026-06-12", "quality": "unverified", "coord_quality": "exact"}}, {"type": "Feature", "geometry": {"type": "Point", "coordinates": [13.26028, 52.57442]}, "properties": {"id": "osm-node-2115693344", "kind": "hafen", "name": "Yacht-Club Tegel - YCT", "area": "", "region": null, "land": "BE", "desc": null, "tags": [], "tel": "+49 33232 23266", "web": "https://www.yachtclub-tegel.de/", "source": "OpenStreetMap", "source_detail": "Overpass 2026-06-12", "quality": "unverified", "coord_quality": "exact"}}, {"type": "Feature", "geometry": {"type": "Point", "coordinates": [13.216, 52.61588]}, "properties": {"id": "osm-node-2115897943", "kind": "hafen", "name": "Fahrten-Segler Jörsfelde - FSJ", "area": "", "region": null, "land": "BE", "desc": null, "tags": [], "tel": "+49 30 43673123", "web": "https://www.fsj-berlin.de/", "source": "OpenStreetMap", "source_detail": "Overpass 2026-06-12", "quality": "unverified", "coord_quality": "exact"}}, {"type": "Feature", "geometry": {"type": "Point", "coordinates": [13.19471, 52.51135]}, "properties": {"id": "osm-node-2115897954", "kind": "slip", "name": "Slipanlage", "area": "", "region": null, "land": "BE", "desc": null, "tags": [], "tel": null, "web": null, "source": "OpenStreetMap", "source_detail": "Overpass 2026-06-12", "quality": "unverified", "coord_quality": "exact"}}, {"type": "Feature", "geometry": {"type": "Point", "coordinates": [13.1941, 52.51152]}, "properties": {"id": "osm-node-2115897955", "kind": "slip", "name": "Slipanlage", "area": "", "region": null, "land": "BE", "desc": null, "tags": [], "tel": null, "web": null, "source": "OpenStreetMap", "source_detail": "Overpass 2026-06-12", "quality": "unverified", "coord_quality": "exact"}}, {"type": "Feature", "geometry": {"type": "Point", "coordinates": [13.22204, 52.57085]}, "properties": {"id": "osm-node-2115897957", "kind": "slip", "name": "Slipanlage", "area": "", "region": null, "land": "BE", "desc": null, "tags": [], "tel": null, "web": null, "source": "OpenStreetMap", "source_detail": "Overpass 2026-06-12", "quality": "unverified", "coord_quality": "exact"}}, {"type": "Feature", "geometry": {"type": "Point", "coordinates": [13.21649, 52.61562]}, "properties": {"id": "osm-node-2115897977", "kind": "slip", "name": "Slipanlage", "area": "", "region": null, "land": "BE", "desc": null, "tags": [], "tel": null, "web": null, "source": "OpenStreetMap", "source_detail": "Overpass 2026-06-12", "quality": "unverified", "coord_quality": "exact"}}, {"type": "Feature", "geometry": {"type": "Point", "coordinates": [13.21659, 52.61577]}, "properties": {"id": "osm-node-2115897983", "kind": "slip", "name": "Slipanlage", "area": "", "region": null, "land": "BE", "desc": null, "tags": [], "tel": null, "web": null, "source": "OpenStreetMap", "source_detail": "Overpass 2026-06-12", "quality": "unverified", "coord_quality": "exact"}}, {"type": "Feature", "geometry": {"type": "Point", "coordinates": [13.57234, 52.43315]}, "properties": {"id": "osm-node-2123930394", "kind": "hafen", "name": "Köpenicker Sportclub", "area": "", "region": null, "land": "BE", "desc": null, "tags": [], "tel": "+49 30 6596897", "web": "https://www.koepenickersc.de/kanu/", "source": "OpenStreetMap", "source_detail": "Overpass 2026-06-12", "quality": "unverified", "coord_quality": "exact"}}, {"type": "Feature", "geometry": {"type": "Point", "coordinates": [13.58683, 52.41879]}, "properties": {"id": "osm-node-2125086193", "kind": "hafen", "name": "Yachthafen Wendenschloß - Historisches Fährhaus", "area": "", "region": null, "land": "BE", "desc": null, "tags": [], "tel": "+49 30 65474425", "web": "https://www.yachthafen-pension-berlin.de/bootsliegeplaetze.php", "source": "OpenStreetMap", "source_detail": "Overpass 2026-06-12", "quality": "unverified", "coord_quality": "exact"}}, {"type": "Feature", "geometry": {"type": "Point", "coordinates": [13.25555, 52.54834]}, "properties": {"id": "osm-node-2132080338", "kind": "hafen", "name": "Bootshaus Niebus", "area": "Berlin", "region": null, "land": "BE", "desc": null, "tags": ["230V", "Entsorgung"], "tel": "+49303343806", "web": "https://www.wassersport-verband.de/wvw-der-verband/mitgliedsbetriebe/bootshaus-niebus/", "source": "OpenStreetMap", "source_detail": "Overpass 2026-06-12", "quality": "unverified", "coord_quality": "exact"}}, {"type": "Feature", "geometry": {"type": "Point", "coordinates": [13.24544, 52.56246]}, "properties": {"id": "osm-node-2132453384", "kind": "hafen", "name": "Bootsstände Blumeshof am Tegeler See", "area": "", "region": null, "land": "BE", "desc": null, "tags": [], "tel": "+49 30 3348919", "web": "http://www.bootsstaende.com/", "source": "OpenStreetMap", "source_detail": "Overpass 2026-06-12", "quality": "unverified", "coord_quality": "exact"}}, {"type": "Feature", "geometry": {"type": "Point", "coordinates": [13.50199, 52.43077]}, "properties": {"id": "osm-node-2224623258", "kind": "slip", "name": "Bootswerft Rudow", "area": "", "region": null, "land": "BE", "desc": null, "tags": [], "tel": null, "web": null, "source": "OpenStreetMap", "source_detail": "Overpass 2026-06-12", "quality": "unverified", "coord_quality": "exact"}}, {"type": "Feature", "geometry": {"type": "Point", "coordinates": [13.64678, 52.37555]}, "properties": {"id": "osm-node-2350247299", "kind": "slip", "name": "Slipanlage", "area": "", "region": null, "land": "BE", "desc": null, "tags": [], "tel": null, "web": null, "source": "OpenStreetMap", "source_detail": "Overpass 2026-06-12", "quality": "unverified", "coord_quality": "exact"}}, {"type": "Feature", "geometry": {"type": "Point", "coordinates": [13.58823, 52.4149]}, "properties": {"id": "osm-node-2356967577", "kind": "slip", "name": "Slipanlage", "area": "", "region": null, "land": "BE", "desc": null, "tags": [], "tel": null, "web": null, "source": "OpenStreetMap", "source_detail": "Overpass 2026-06-12", "quality": "unverified", "coord_quality": "exact"}}, {"type": "Feature", "geometry": {"type": "Point", "coordinates": [13.2105, 52.54292]}, "properties": {"id": "osm-node-2396244738", "kind": "hafen", "name": "Wasserfreunde Spandau 04 e.V.", "area": "", "region": null, "land": "BE", "desc": null, "tags": [], "tel": null, "web": null, "source": "OpenStreetMap", "source_detail": "Overpass 2026-06-12", "quality": "unverified", "coord_quality": "exact"}}, {"type": "Feature", "geometry": {"type": "Point", "coordinates": [13.72461, 52.41721]}, "properties": {"id": "osm-node-2456199996", "kind": "charter", "name": "Boots- Werft- Verleih Sturzbecher", "area": "", "region": null, "land": "BE", "desc": null, "tags": [], "tel": null, "web": null, "source": "OpenStreetMap", "source_detail": "Overpass 2026-06-12", "quality": "unverified", "coord_quality": "exact"}}, {"type": "Feature", "geometry": {"type": "Point", "coordinates": [13.19003, 52.50973]}, "properties": {"id": "osm-node-2480149929", "kind": "hafen", "name": "Spandauer Yacht-Club e. V.", "area": "", "region": null, "land": "BE", "desc": null, "tags": [], "tel": null, "web": null, "source": "OpenStreetMap", "source_detail": "Overpass 2026-06-12", "quality": "unverified", "coord_quality": "exact"}}, {"type": "Feature", "geometry": {"type": "Point", "coordinates": [13.22685, 52.57252]}, "properties": {"id": "osm-node-2612715482", "kind": "slip", "name": "Slipanlage", "area": "", "region": null, "land": "BE", "desc": null, "tags": [], "tel": null, "web": null, "source": "OpenStreetMap", "source_detail": "Overpass 2026-06-12", "quality": "unverified", "coord_quality": "exact"}}, {"type": "Feature", "geometry": {"type": "Point", "coordinates": [13.21188, 52.59928]}, "properties": {"id": "osm-node-2612715489", "kind": "hafen", "name": "WSG - Altes Gaswerk", "area": "", "region": null, "land": "BE", "desc": null, "tags": [], "tel": null, "web": null, "source": "OpenStreetMap", "source_detail": "Overpass 2026-06-12", "quality": "unverified", "coord_quality": "exact"}}, {"type": "Feature", "geometry": {"type": "Point", "coordinates": [13.24319, 52.5621]}, "properties": {"id": "osm-node-2612735247", "kind": "slip", "name": "Slipanlage", "area": "", "region": null, "land": "BE", "desc": null, "tags": [], "tel": null, "web": null, "source": "OpenStreetMap", "source_detail": "Overpass 2026-06-12", "quality": "unverified", "coord_quality": "exact"}}, {"type": "Feature", "geometry": {"type": "Point", "coordinates": [13.21129, 52.59955]}, "properties": {"id": "osm-node-2612736554", "kind": "hafen", "name": "Yachtwerft Krüger", "area": "", "region": null, "land": "BE", "desc": null, "tags": [], "tel": null, "web": null, "source": "OpenStreetMap", "source_detail": "Overpass 2026-06-12", "quality": "unverified", "coord_quality": "exact"}}, {"type": "Feature", "geometry": {"type": "Point", "coordinates": [13.64136, 52.34577]}, "properties": {"id": "osm-node-2675680249", "kind": "slip", "name": "Slipanlage", "area": "", "region": null, "land": "BE", "desc": null, "tags": [], "tel": null, "web": null, "source": "OpenStreetMap", "source_detail": "Overpass 2026-06-12", "quality": "unverified", "coord_quality": "exact"}}, {"type": "Feature", "geometry": {"type": "Point", "coordinates": [13.64183, 52.34605]}, "properties": {"id": "osm-node-2675680315", "kind": "slip", "name": "Slipanlage", "area": "", "region": null, "land": "BE", "desc": null, "tags": [], "tel": null, "web": null, "source": "OpenStreetMap", "source_detail": "Overpass 2026-06-12", "quality": "unverified", "coord_quality": "exact"}}, {"type": "Feature", "geometry": {"type": "Point", "coordinates": [13.50046, 52.4795]}, "properties": {"id": "osm-node-2820079133", "kind": "hafen", "name": "kolula SUP", "area": "Berlin", "region": null, "land": "BE", "desc": null, "tags": [], "tel": null, "web": null, "source": "OpenStreetMap", "source_detail": "Overpass 2026-06-12", "quality": "unverified", "coord_quality": "exact"}}, {"type": "Feature", "geometry": {"type": "Point", "coordinates": [13.64295, 52.34692]}, "properties": {"id": "osm-node-2828616752", "kind": "charter", "name": "Bootsverleih Kanu - Kajak Fährallee 19", "area": "Berlin", "region": null, "land": "BE", "desc": null, "tags": [], "tel": null, "web": null, "source": "OpenStreetMap", "source_detail": "Overpass 2026-06-12", "quality": "unverified", "coord_quality": "exact"}}, {"type": "Feature", "geometry": {"type": "Point", "coordinates": [13.48107, 52.48671]}, "properties": {"id": "osm-node-2841339862", "kind": "charter", "name": "Kanuliebe", "area": "", "region": null, "land": "BE", "desc": null, "tags": [], "tel": null, "web": null, "source": "OpenStreetMap", "source_detail": "Overpass 2026-06-12", "quality": "unverified", "coord_quality": "exact"}}, {"type": "Feature", "geometry": {"type": "Point", "coordinates": [13.17619, 52.44558]}, "properties": {"id": "osm-node-2868247184", "kind": "slip", "name": "Slipanlage", "area": "", "region": null, "land": "BE", "desc": null, "tags": [], "tel": null, "web": null, "source": "OpenStreetMap", "source_detail": "Overpass 2026-06-12", "quality": "unverified", "coord_quality": "exact"}}, {"type": "Feature", "geometry": {"type": "Point", "coordinates": [13.13347, 52.44565]}, "properties": {"id": "osm-node-2868247185", "kind": "slip", "name": "Slipanlage", "area": "", "region": null, "land": "BE", "desc": null, "tags": [], "tel": null, "web": null, "source": "OpenStreetMap", "source_detail": "Overpass 2026-06-12", "quality": "unverified", "coord_quality": "exact"}}, {"type": "Feature", "geometry": {"type": "Point", "coordinates": [13.59311, 52.41179]}, "properties": {"id": "osm-node-2898339172", "kind": "hafen", "name": "SV Wasserfreunde Grünau e.V", "area": "", "region": null, "land": "BE", "desc": null, "tags": [], "tel": null, "web": "https://www.wasserfreunde-gruenau.de/", "source": "OpenStreetMap", "source_detail": "Overpass 2026-06-12", "quality": "unverified", "coord_quality": "exact"}}, {"type": "Feature", "geometry": {"type": "Point", "coordinates": [13.2033, 52.5096]}, "properties": {"id": "osm-node-2917958246", "kind": "hafen", "name": "Marina Toni`s Werft", "area": "", "region": null, "land": "BE", "desc": null, "tags": [], "tel": null, "web": null, "source": "OpenStreetMap", "source_detail": "Overpass 2026-06-12", "quality": "unverified", "coord_quality": "exact"}}, {"type": "Feature", "geometry": {"type": "Point", "coordinates": [13.20252, 52.50816]}, "properties": {"id": "osm-node-2917958252", "kind": "hafen", "name": "Sunset Marina", "area": "", "region": null, "land": "BE", "desc": null, "tags": ["230V", "Trinkwasser"], "tel": null, "web": null, "source": "OpenStreetMap", "source_detail": "Overpass 2026-06-12", "quality": "unverified", "coord_quality": "exact"}}, {"type": "Feature", "geometry": {"type": "Point", "coordinates": [13.1841, 52.47494]}, "properties": {"id": "osm-node-2918572955", "kind": "hafen", "name": "Restaurant Havelwelle", "area": "", "region": null, "land": "BE", "desc": null, "tags": [], "tel": "+49 30 80203411", "web": "http://www.restaurant-havelwelle.de", "source": "OpenStreetMap", "source_detail": "Overpass 2026-06-12", "quality": "unverified", "coord_quality": "exact"}}, {"type": "Feature", "geometry": {"type": "Point", "coordinates": [13.53727, 52.45528]}, "properties": {"id": "osm-node-2937899989", "kind": "slip", "name": "Slipanlage", "area": "", "region": null, "land": "BE", "desc": null, "tags": [], "tel": null, "web": null, "source": "OpenStreetMap", "source_detail": "Overpass 2026-06-12", "quality": "unverified", "coord_quality": "exact"}}, {"type": "Feature", "geometry": {"type": "Point", "coordinates": [13.53695, 52.4552]}, "properties": {"id": "osm-node-2937911929", "kind": "hafen", "name": "Motorwassersportclub 1190", "area": "", "region": null, "land": "BE", "desc": null, "tags": ["230V", "Trinkwasser"], "tel": null, "web": "https://www.mwsc1190.de/", "source": "OpenStreetMap", "source_detail": "Overpass 2026-06-12", "quality": "unverified", "coord_quality": "exact"}}, {"type": "Feature", "geometry": {"type": "Point", "coordinates": [13.2141, 52.51031]}, "properties": {"id": "osm-node-2951391588", "kind": "hafen", "name": "Wander-Segler-Verein 1922 e.V.", "area": "", "region": null, "land": "BE", "desc": null, "tags": [], "tel": null, "web": null, "source": "OpenStreetMap", "source_detail": "Overpass 2026-06-12", "quality": "unverified", "coord_quality": "exact"}}, {"type": "Feature", "geometry": {"type": "Point", "coordinates": [13.19383, 52.46672]}, "properties": {"id": "osm-node-2970163152", "kind": "hafen", "name": "Yacht-Club Müggelsee", "area": "", "region": null, "land": "BE", "desc": null, "tags": [], "tel": "+49 30 8036480", "web": "https://www.ycm-berlin.de/ycm_index.htm", "source": "OpenStreetMap", "source_detail": "Overpass 2026-06-12", "quality": "unverified", "coord_quality": "exact"}}, {"type": "Feature", "geometry": {"type": "Point", "coordinates": [13.7211, 52.41904]}, "properties": {"id": "osm-node-3103443356", "kind": "charter", "name": "Bootsverleih Hessenwinkel", "area": "", "region": null, "land": "BE", "desc": null, "tags": [], "tel": null, "web": "https://www.bootsverleih-hessenwinkel.de/", "source": "OpenStreetMap", "source_detail": "Overpass 2026-06-12", "quality": "unverified", "coord_quality": "exact"}}, {"type": "Feature", "geometry": {"type": "Point", "coordinates": [13.70811, 52.39527]}, "properties": {"id": "osm-node-3105084834", "kind": "charter", "name": "Bootsverleih Gosen", "area": "", "region": null, "land": "BE", "desc": null, "tags": [], "tel": "+49 3362 82 09 86", "web": "http://www.bootsverleih-gosen.de", "source": "OpenStreetMap", "source_detail": "Overpass 2026-06-12", "quality": "unverified", "coord_quality": "exact"}}, {"type": "Feature", "geometry": {"type": "Point", "coordinates": [13.14191, 52.40045]}, "properties": {"id": "osm-node-3218184888", "kind": "hafen", "name": "Söhnel Werft", "area": "", "region": null, "land": "BE", "desc": null, "tags": [], "tel": "+49 30 80907887", "web": "http://söhnelwerft.de", "source": "OpenStreetMap", "source_detail": "Overpass 2026-06-12", "quality": "unverified", "coord_quality": "exact"}}, {"type": "Feature", "geometry": {"type": "Point", "coordinates": [13.59319, 52.41155]}, "properties": {"id": "osm-node-3246766708", "kind": "slip", "name": "Slipanlage", "area": "", "region": null, "land": "BE", "desc": null, "tags": [], "tel": null, "web": null, "source": "OpenStreetMap", "source_detail": "Overpass 2026-06-12", "quality": "unverified", "coord_quality": "exact"}}, {"type": "Feature", "geometry": {"type": "Point", "coordinates": [13.42171, 52.5136]}, "properties": {"id": "osm-node-3523381293", "kind": "tank", "name": "Aral", "area": "Berlin", "region": null, "land": "BE", "desc": null, "tags": [], "tel": null, "web": null, "source": "OpenStreetMap", "source_detail": "Overpass 2026-06-12", "quality": "unverified", "coord_quality": "exact"}}, {"type": "Feature", "geometry": {"type": "Point", "coordinates": [13.5555, 52.45439]}, "properties": {"id": "osm-node-3523388893", "kind": "tank", "name": "Aral", "area": "", "region": null, "land": "BE", "desc": null, "tags": [], "tel": null, "web": null, "source": "OpenStreetMap", "source_detail": "Overpass 2026-06-12", "quality": "unverified", "coord_quality": "exact"}}, {"type": "Feature", "geometry": {"type": "Point", "coordinates": [13.17733, 52.44662]}, "properties": {"id": "osm-node-3545285777", "kind": "hafen", "name": "Windsurfing-Verein Berlin", "area": "Berlin", "region": null, "land": "BE", "desc": null, "tags": [], "tel": null, "web": null, "source": "OpenStreetMap", "source_detail": "Overpass 2026-06-12", "quality": "unverified", "coord_quality": "exact"}}, {"type": "Feature", "geometry": {"type": "Point", "coordinates": [13.14843, 52.45142]}, "properties": {"id": "osm-node-3645388149", "kind": "hafen", "name": "Kladower Promenadenhafen", "area": "", "region": null, "land": "BE", "desc": null, "tags": ["230V"], "tel": null, "web": null, "source": "OpenStreetMap", "source_detail": "Overpass 2026-06-12", "quality": "unverified", "coord_quality": "exact"}}, {"type": "Feature", "geometry": {"type": "Point", "coordinates": [13.63041, 52.44573]}, "properties": {"id": "osm-node-3713580141", "kind": "charter", "name": "Floß&Los", "area": "Berlin", "region": null, "land": "BE", "desc": null, "tags": [], "tel": null, "web": "https://flossundlos.de/", "source": "OpenStreetMap", "source_detail": "Overpass 2026-06-12", "quality": "unverified", "coord_quality": "exact"}}, {"type": "Feature", "geometry": {"type": "Point", "coordinates": [13.62952, 52.4271]}, "properties": {"id": "osm-node-4058962998", "kind": "charter", "name": "Bootsverleih Spreepoint", "area": "Berlin", "region": null, "land": "BE", "desc": null, "tags": [], "tel": "+49 171 714 08 16", "web": "https://www.spreepoint.de/", "source": "OpenStreetMap", "source_detail": "Overpass 2026-06-12", "quality": "unverified", "coord_quality": "exact"}}, {"type": "Feature", "geometry": {"type": "Point", "coordinates": [13.58071, 52.42793]}, "properties": {"id": "osm-node-4156353511", "kind": "slip", "name": "Slipanlage", "area": "", "region": null, "land": "BE", "desc": null, "tags": [], "tel": null, "web": null, "source": "OpenStreetMap", "source_detail": "Overpass 2026-06-12", "quality": "unverified", "coord_quality": "exact"}}, {"type": "Feature", "geometry": {"type": "Point", "coordinates": [13.64843, 52.38023]}, "properties": {"id": "osm-node-4210152516", "kind": "slip", "name": "Slipanlage", "area": "", "region": null, "land": "BE", "desc": null, "tags": [], "tel": null, "web": null, "source": "OpenStreetMap", "source_detail": "Overpass 2026-06-12", "quality": "unverified", "coord_quality": "exact"}}, {"type": "Feature", "geometry": {"type": "Point", "coordinates": [13.64567, 52.37688]}, "properties": {"id": "osm-node-4210156294", "kind": "slip", "name": "Slipanlage", "area": "", "region": null, "land": "BE", "desc": null, "tags": [], "tel": null, "web": null, "source": "OpenStreetMap", "source_detail": "Overpass 2026-06-12", "quality": "unverified", "coord_quality": "exact"}}, {"type": "Feature", "geometry": {"type": "Point", "coordinates": [13.2151, 52.51415]}, "properties": {"id": "osm-node-4279971850", "kind": "charter", "name": "Der Bootsladen", "area": "Berlin", "region": null, "land": "BE", "desc": null, "tags": [], "tel": null, "web": null, "source": "OpenStreetMap", "source_detail": "Overpass 2026-06-12", "quality": "unverified", "coord_quality": "exact"}}, {"type": "Feature", "geometry": {"type": "Point", "coordinates": [13.27224, 52.58928]}, "properties": {"id": "osm-node-4281540894", "kind": "charter", "name": "Minigolf und Bootsvermietung Mühl - Ruder- & Tretboote", "area": "Berlin", "region": null, "land": "BE", "desc": null, "tags": [], "tel": "+49 30 4337690", "web": "http://www.bootsvermietung-tegel.de", "source": "OpenStreetMap", "source_detail": "Overpass 2026-06-12", "quality": "unverified", "coord_quality": "exact"}}, {"type": "Feature", "geometry": {"type": "Point", "coordinates": [13.5754, 52.44379]}, "properties": {"id": "osm-node-4396179327", "kind": "hafen", "name": "Mutter Lustig", "area": "", "region": null, "land": "BE", "desc": null, "tags": ["230V", "Trinkwasser"], "tel": "+49 30 64094884", "web": "https://www.mutter-lustig.berlin/de/bootsverleih/anlegestelle/", "source": "OpenStreetMap", "source_detail": "Overpass 2026-06-12", "quality": "unverified", "coord_quality": "exact"}}, {"type": "Feature", "geometry": {"type": "Point", "coordinates": [13.68047, 52.42892]}, "properties": {"id": "osm-node-4413509210", "kind": "charter", "name": "Bootsverleih Kleiner Müggelsee", "area": "Berlin", "region": null, "land": "BE", "desc": null, "tags": [], "tel": null, "web": null, "source": "OpenStreetMap", "source_detail": "Overpass 2026-06-12", "quality": "unverified", "coord_quality": "exact"}}, {"type": "Feature", "geometry": {"type": "Point", "coordinates": [13.48653, 52.49243]}, "properties": {"id": "osm-node-4911303499", "kind": "charter", "name": "Sunny Boats", "area": "", "region": null, "land": "BE", "desc": null, "tags": [], "tel": null, "web": null, "source": "OpenStreetMap", "source_detail": "Overpass 2026-06-12", "quality": "unverified", "coord_quality": "exact"}}, {"type": "Feature", "geometry": {"type": "Point", "coordinates": [13.16511, 52.43405]}, "properties": {"id": "osm-node-5062804071", "kind": "charter", "name": "Kanuverleih Wannsee", "area": "Berlin", "region": null, "land": "BE", "desc": null, "tags": [], "tel": null, "web": "https://kanuverleih-wannsee.de/", "source": "OpenStreetMap", "source_detail": "Overpass 2026-06-12", "quality": "unverified", "coord_quality": "exact"}}, {"type": "Feature", "geometry": {"type": "Point", "coordinates": [13.16521, 52.43451]}, "properties": {"id": "osm-node-5062804072", "kind": "charter", "name": "WannseePerle Bootsverleih", "area": "Berlin", "region": null, "land": "BE", "desc": null, "tags": [], "tel": null, "web": "https://www.wannseeperle.de/", "source": "OpenStreetMap", "source_detail": "Overpass 2026-06-12", "quality": "unverified", "coord_quality": "exact"}}, {"type": "Feature", "geometry": {"type": "Point", "coordinates": [13.65053, 52.3733]}, "properties": {"id": "osm-node-5101633936", "kind": "slip", "name": "Slipanlage", "area": "", "region": null, "land": "BE", "desc": null, "tags": [], "tel": null, "web": null, "source": "OpenStreetMap", "source_detail": "Overpass 2026-06-12", "quality": "unverified", "coord_quality": "exact"}}, {"type": "Feature", "geometry": {"type": "Point", "coordinates": [13.64892, 52.37361]}, "properties": {"id": "osm-node-5101633937", "kind": "slip", "name": "Slipanlage", "area": "", "region": null, "land": "BE", "desc": null, "tags": [], "tel": null, "web": null, "source": "OpenStreetMap", "source_detail": "Overpass 2026-06-12", "quality": "unverified", "coord_quality": "exact"}}, {"type": "Feature", "geometry": {"type": "Point", "coordinates": [13.20894, 52.5084]}, "properties": {"id": "osm-node-5808501343", "kind": "hafen", "name": "Segelclub Pichelswerder e.V.", "area": "", "region": null, "land": "BE", "desc": null, "tags": [], "tel": null, "web": null, "source": "OpenStreetMap", "source_detail": "Overpass 2026-06-12", "quality": "unverified", "coord_quality": "exact"}}, {"type": "Feature", "geometry": {"type": "Point", "coordinates": [13.34377, 52.51045]}, "properties": {"id": "osm-node-5911952789", "kind": "charter", "name": "Bootsverleih Neuer See", "area": "", "region": null, "land": "BE", "desc": null, "tags": [], "tel": null, "web": null, "source": "OpenStreetMap", "source_detail": "Overpass 2026-06-12", "quality": "unverified", "coord_quality": "exact"}}, {"type": "Feature", "geometry": {"type": "Point", "coordinates": [13.18896, 52.50757]}, "properties": {"id": "osm-node-5933964385", "kind": "slip", "name": "Slipanlage", "area": "", "region": null, "land": "BE", "desc": null, "tags": [], "tel": null, "web": null, "source": "OpenStreetMap", "source_detail": "Overpass 2026-06-12", "quality": "unverified", "coord_quality": "exact"}}, {"type": "Feature", "geometry": {"type": "Point", "coordinates": [13.13316, 52.44536]}, "properties": {"id": "osm-node-5964631784", "kind": "slip", "name": "Slipanlage", "area": "", "region": null, "land": "BE", "desc": null, "tags": [], "tel": null, "web": null, "source": "OpenStreetMap", "source_detail": "Overpass 2026-06-12", "quality": "unverified", "coord_quality": "exact"}}, {"type": "Feature", "geometry": {"type": "Point", "coordinates": [13.50926, 52.46205]}, "properties": {"id": "osm-node-6472497785", "kind": "charter", "name": "Boot To Go", "area": "Berlin", "region": null, "land": "BE", "desc": null, "tags": [], "tel": null, "web": null, "source": "OpenStreetMap", "source_detail": "Overpass 2026-06-12", "quality": "unverified", "coord_quality": "exact"}}, {"type": "Feature", "geometry": {"type": "Point", "coordinates": [13.27123, 52.58899]}, "properties": {"id": "osm-node-7658224627", "kind": "hafen", "name": "24h Sportbootanleger", "area": "", "region": null, "land": "BE", "desc": null, "tags": ["230V"], "tel": null, "web": null, "source": "OpenStreetMap", "source_detail": "Overpass 2026-06-12", "quality": "unverified", "coord_quality": "exact"}}, {"type": "Feature", "geometry": {"type": "Point", "coordinates": [13.22232, 52.57146]}, "properties": {"id": "osm-node-7660227427", "kind": "hafen", "name": "Wannseeaten 1911", "area": "", "region": null, "land": "BE", "desc": null, "tags": ["230V", "Trinkwasser"], "tel": null, "web": null, "source": "OpenStreetMap", "source_detail": "Overpass 2026-06-12", "quality": "unverified", "coord_quality": "exact"}}, {"type": "Feature", "geometry": {"type": "Point", "coordinates": [13.19969, 52.50793]}, "properties": {"id": "osm-node-8626455520", "kind": "hafen", "name": "Yachthafen am Pichelssee", "area": "", "region": null, "land": "BE", "desc": null, "tags": [], "tel": "+49 163 1914000", "web": "https://www.yap-berlin.de/", "source": "OpenStreetMap", "source_detail": "Overpass 2026-06-12", "quality": "unverified", "coord_quality": "exact"}}, {"type": "Feature", "geometry": {"type": "Point", "coordinates": [13.45232, 52.49788]}, "properties": {"id": "osm-node-8896153017", "kind": "charter", "name": "Bootsverleih Kreuzberg", "area": "", "region": null, "land": "BE", "desc": null, "tags": [], "tel": null, "web": "https://www.bootsverleih-kreuzberg.com/", "source": "OpenStreetMap", "source_detail": "Overpass 2026-06-12", "quality": "unverified", "coord_quality": "exact"}}, {"type": "Feature", "geometry": {"type": "Point", "coordinates": [13.57406, 52.44972]}, "properties": {"id": "osm-node-9220974534", "kind": "charter", "name": "Oase", "area": "", "region": null, "land": "BE", "desc": null, "tags": [], "tel": null, "web": null, "source": "OpenStreetMap", "source_detail": "Overpass 2026-06-12", "quality": "unverified", "coord_quality": "exact"}}, {"type": "Feature", "geometry": {"type": "Point", "coordinates": [13.16193, 52.42416]}, "properties": {"id": "osm-node-9394319660", "kind": "charter", "name": "Bootshaus Waller", "area": "", "region": null, "land": "BE", "desc": null, "tags": [], "tel": null, "web": null, "source": "OpenStreetMap", "source_detail": "Overpass 2026-06-12", "quality": "unverified", "coord_quality": "exact"}}, {"type": "Feature", "geometry": {"type": "Point", "coordinates": [13.29385, 52.51328]}, "properties": {"id": "osm-node-9404352538", "kind": "charter", "name": "Berlin Bootsverleih", "area": "Berlin", "region": null, "land": "BE", "desc": null, "tags": [], "tel": null, "web": null, "source": "OpenStreetMap", "source_detail": "Overpass 2026-06-12", "quality": "unverified", "coord_quality": "exact"}}, {"type": "Feature", "geometry": {"type": "Point", "coordinates": [13.20942, 52.50969]}, "properties": {"id": "osm-node-9921487395", "kind": "slip", "name": "Slipanlage", "area": "", "region": null, "land": "BE", "desc": null, "tags": [], "tel": null, "web": null, "source": "OpenStreetMap", "source_detail": "Overpass 2026-06-12", "quality": "unverified", "coord_quality": "exact"}}, {"type": "Feature", "geometry": {"type": "Point", "coordinates": [13.28919, 52.5949]}, "properties": {"id": "osm-node-10042774693", "kind": "entsorgung", "name": "Entsorgungsstation", "area": "", "region": null, "land": "BE", "desc": null, "tags": ["kostenlos"], "tel": null, "web": null, "source": "OpenStreetMap", "source_detail": "Overpass 2026-06-12", "quality": "unverified", "coord_quality": "exact"}}, {"type": "Feature", "geometry": {"type": "Point", "coordinates": [13.28943, 52.59496]}, "properties": {"id": "osm-node-10042774694", "kind": "entsorgung", "name": "Entsorgungsstation", "area": "", "region": null, "land": "BE", "desc": null, "tags": ["kostenlos"], "tel": null, "web": null, "source": "OpenStreetMap", "source_detail": "Overpass 2026-06-12", "quality": "unverified", "coord_quality": "exact"}}, {"type": "Feature", "geometry": {"type": "Point", "coordinates": [13.64828, 52.33985]}, "properties": {"id": "osm-node-10139547240", "kind": "hafen", "name": "Segelgemeinschaft Rauchfangswerder e.V.", "area": "", "region": null, "land": "BE", "desc": null, "tags": [], "tel": null, "web": "https://www.sgr-bln.de", "source": "OpenStreetMap", "source_detail": "Overpass 2026-06-12", "quality": "unverified", "coord_quality": "exact"}}, {"type": "Feature", "geometry": {"type": "Point", "coordinates": [13.2205, 52.62182]}, "properties": {"id": "osm-node-10708294513", "kind": "slip", "name": "Slipanlage", "area": "", "region": null, "land": "BE", "desc": null, "tags": [], "tel": null, "web": null, "source": "OpenStreetMap", "source_detail": "Overpass 2026-06-12", "quality": "unverified", "coord_quality": "exact"}}, {"type": "Feature", "geometry": {"type": "Point", "coordinates": [13.20858, 52.50608]}, "properties": {"id": "osm-node-10871843029", "kind": "hafen", "name": "PSB24 Stössensee", "area": "", "region": null, "land": "BE", "desc": null, "tags": [], "tel": null, "web": "https://psb24-stoessensee.de/home/gastliegeplaetze/#more-389", "source": "OpenStreetMap", "source_detail": "Overpass 2026-06-12", "quality": "unverified", "coord_quality": "exact"}}, {"type": "Feature", "geometry": {"type": "Point", "coordinates": [13.49809, 52.47748]}, "properties": {"id": "osm-node-10982625082", "kind": "charter", "name": "StandUpClub Berlin – Funkhaus: SUP Schule und Vermietung", "area": "", "region": null, "land": "BE", "desc": null, "tags": [], "tel": null, "web": "https://standupclub.de", "source": "OpenStreetMap", "source_detail": "Overpass 2026-06-12", "quality": "unverified", "coord_quality": "exact"}}, {"type": "Feature", "geometry": {"type": "Point", "coordinates": [13.49813, 52.47763]}, "properties": {"id": "osm-node-10982625083", "kind": "charter", "name": "Backstagetourism - Kanutouren, Kanuverleih", "area": "Berlin", "region": null, "land": "BE", "desc": null, "tags": [], "tel": "+49 30 53215742", "web": "https://backstagetourism.com/", "source": "OpenStreetMap", "source_detail": "Overpass 2026-06-12", "quality": "unverified", "coord_quality": "exact"}}, {"type": "Feature", "geometry": {"type": "Point", "coordinates": [13.26928, 52.58936]}, "properties": {"id": "osm-node-11134873371", "kind": "hafen", "name": "Ruder-Club Tegel 1886 e.V.", "area": "", "region": null, "land": "BE", "desc": null, "tags": [], "tel": null, "web": "https://www.rctegel.de", "source": "OpenStreetMap", "source_detail": "Overpass 2026-06-12", "quality": "unverified", "coord_quality": "exact"}}, {"type": "Feature", "geometry": {"type": "Point", "coordinates": [13.22003, 52.58097]}, "properties": {"id": "osm-node-11134873372", "kind": "hafen", "name": "Ruder-Club Tegelort e.V.", "area": "", "region": null, "land": "BE", "desc": null, "tags": [], "tel": null, "web": "https://www.rctegelort-berlin.de", "source": "OpenStreetMap", "source_detail": "Overpass 2026-06-12", "quality": "unverified", "coord_quality": "exact"}}, {"type": "Feature", "geometry": {"type": "Point", "coordinates": [13.48651, 52.49242]}, "properties": {"id": "osm-node-11335327008", "kind": "charter", "name": "Floß & los!", "area": "", "region": null, "land": "BE", "desc": null, "tags": [], "tel": null, "web": "https://www.flossundlos.de/", "source": "OpenStreetMap", "source_detail": "Overpass 2026-06-12", "quality": "unverified", "coord_quality": "exact"}}, {"type": "Feature", "geometry": {"type": "Point", "coordinates": [13.45786, 52.47727]}, "properties": {"id": "osm-node-11907609694", "kind": "charter", "name": "Canoa Berlin", "area": "Berlin", "region": null, "land": "BE", "desc": null, "tags": [], "tel": "+49 163 7605422", "web": "https://canoa-berlin.de", "source": "OpenStreetMap", "source_detail": "Overpass 2026-06-12", "quality": "unverified", "coord_quality": "exact"}}, {"type": "Feature", "geometry": {"type": "Point", "coordinates": [13.22375, 52.57001]}, "properties": {"id": "osm-node-12131152649", "kind": "hafen", "name": "SAV Aalemann 1928 e. V", "area": "", "region": null, "land": "BE", "desc": null, "tags": [], "tel": null, "web": null, "source": "OpenStreetMap", "source_detail": "Overpass 2026-06-12", "quality": "unverified", "coord_quality": "exact"}}, {"type": "Feature", "geometry": {"type": "Point", "coordinates": [13.58425, 52.42654]}, "properties": {"id": "osm-node-12147479287", "kind": "charter", "name": "Floßverleih Huckleberrys Tour", "area": "", "region": null, "land": "BE", "desc": null, "tags": [], "tel": "+49 30 20674902", "web": "https://www.huckleberrys-tour.de/flossstationen/berlin-spree-mueggelsee/", "source": "OpenStreetMap", "source_detail": "Overpass 2026-06-12", "quality": "unverified", "coord_quality": "exact"}}, {"type": "Feature", "geometry": {"type": "Point", "coordinates": [13.22356, 52.57024]}, "properties": {"id": "osm-node-12498473907", "kind": "hafen", "name": "Anglerverein Plötze 1894 e.V.", "area": "", "region": null, "land": "BE", "desc": null, "tags": [], "tel": null, "web": null, "source": "OpenStreetMap", "source_detail": "Overpass 2026-06-12", "quality": "unverified", "coord_quality": "exact"}}, {"type": "Feature", "geometry": {"type": "Point", "coordinates": [13.23532, 52.56466]}, "properties": {"id": "osm-node-13099993595", "kind": "hafen", "name": "Segel-Club Frithjof-Haveleck e.V.", "area": "", "region": null, "land": "BE", "desc": null, "tags": [], "tel": null, "web": "https://scf-h.de/", "source": "OpenStreetMap", "source_detail": "Overpass 2026-06-12", "quality": "unverified", "coord_quality": "exact"}}, {"type": "Feature", "geometry": {"type": "Point", "coordinates": [13.46522, 52.55555]}, "properties": {"id": "osm-node-13626575148", "kind": "slip", "name": "Slipanlage", "area": "", "region": null, "land": "BE", "desc": null, "tags": [], "tel": null, "web": null, "source": "OpenStreetMap", "source_detail": "Overpass 2026-06-12", "quality": "unverified", "coord_quality": "exact"}}, {"type": "Feature", "geometry": {"type": "Point", "coordinates": [13.23622, 52.55093]}, "properties": {"id": "osm-node-13652288005", "kind": "hafen", "name": "Bootshaus Haselhorst", "area": "Berlin", "region": null, "land": "BE", "desc": null, "tags": ["230V"], "tel": null, "web": null, "source": "OpenStreetMap", "source_detail": "Overpass 2026-06-12", "quality": "unverified", "coord_quality": "exact"}}, {"type": "Feature", "geometry": {"type": "Point", "coordinates": [13.18692, 52.50054]}, "properties": {"id": "osm-node-13727757531", "kind": "hafen", "name": "Segler-Vereinigung Unter-Havel e.V.", "area": "", "region": null, "land": "BE", "desc": null, "tags": [], "tel": null, "web": "https://svuh.de", "source": "OpenStreetMap", "source_detail": "Overpass 2026-06-12", "quality": "unverified", "coord_quality": "exact"}}, {"type": "Feature", "geometry": {"type": "Point", "coordinates": [13.2426, 52.56195]}, "properties": {"id": "osm-node-13821649528", "kind": "slip", "name": "Slipanlage", "area": "", "region": null, "land": "BE", "desc": null, "tags": [], "tel": null, "web": null, "source": "OpenStreetMap", "source_detail": "Overpass 2026-06-12", "quality": "unverified", "coord_quality": "exact"}}, {"type": "Feature", "geometry": {"type": "Point", "coordinates": [13.24119, 52.56154]}, "properties": {"id": "osm-node-13821649536", "kind": "slip", "name": "Slipanlage", "area": "", "region": null, "land": "BE", "desc": null, "tags": [], "tel": null, "web": null, "source": "OpenStreetMap", "source_detail": "Overpass 2026-06-12", "quality": "unverified", "coord_quality": "exact"}}, {"type": "Feature", "geometry": {"type": "Point", "coordinates": [13.24117, 52.56146]}, "properties": {"id": "osm-node-13821649537", "kind": "slip", "name": "Slipanlage", "area": "", "region": null, "land": "BE", "desc": null, "tags": [], "tel": null, "web": null, "source": "OpenStreetMap", "source_detail": "Overpass 2026-06-12", "quality": "unverified", "coord_quality": "exact"}}, {"type": "Feature", "geometry": {"type": "Point", "coordinates": [13.38632, 52.455]}, "properties": {"id": "osm-way-4663217", "kind": "hafen", "name": "Tempelhofer Hafen", "area": "", "region": null, "land": "BE", "desc": null, "tags": [], "tel": "+49172 9104201", "web": "https://www.tempelhofer-hafen.com", "source": "OpenStreetMap", "source_detail": "Overpass 2026-06-12", "quality": "unverified", "coord_quality": "exact"}}, {"type": "Feature", "geometry": {"type": "Point", "coordinates": [13.57483, 52.44381]}, "properties": {"id": "osm-way-30157796", "kind": "charter", "name": "Solarwaterworld", "area": "", "region": null, "land": "BE", "desc": null, "tags": [], "tel": null, "web": "https://solarwaterworld.de/", "source": "OpenStreetMap", "source_detail": "Overpass 2026-06-12", "quality": "unverified", "coord_quality": "exact"}}, {"type": "Feature", "geometry": {"type": "Point", "coordinates": [13.48153, 52.49202]}, "properties": {"id": "osm-way-32622717", "kind": "hafen", "name": "Yachthafen Stralau", "area": "", "region": null, "land": "BE", "desc": null, "tags": [], "tel": "+49 30 2919345", "web": "http://www.yachthafen-stralau.de/", "source": "OpenStreetMap", "source_detail": "Overpass 2026-06-12", "quality": "unverified", "coord_quality": "exact"}}, {"type": "Feature", "geometry": {"type": "Point", "coordinates": [13.16419, 52.45976]}, "properties": {"id": "osm-way-54512883", "kind": "hafen", "name": "Deutsch-Britischer Yacht Club", "area": "Berlin", "region": null, "land": "BE", "desc": null, "tags": [], "tel": null, "web": "https://www.dbyc.eu/", "source": "OpenStreetMap", "source_detail": "Overpass 2026-06-12", "quality": "unverified", "coord_quality": "exact"}}, {"type": "Feature", "geometry": {"type": "Point", "coordinates": [13.26732, 52.59096]}, "properties": {"id": "osm-way-103743930", "kind": "slip", "name": "Slipanlage", "area": "", "region": null, "land": "BE", "desc": null, "tags": [], "tel": null, "web": null, "source": "OpenStreetMap", "source_detail": "Overpass 2026-06-12", "quality": "unverified", "coord_quality": "exact"}}, {"type": "Feature", "geometry": {"type": "Point", "coordinates": [13.26471, 52.59293]}, "properties": {"id": "osm-way-105071262", "kind": "slip", "name": "Slipanlage", "area": "", "region": null, "land": "BE", "desc": null, "tags": [], "tel": null, "web": null, "source": "OpenStreetMap", "source_detail": "Overpass 2026-06-12", "quality": "unverified", "coord_quality": "exact"}}, {"type": "Feature", "geometry": {"type": "Point", "coordinates": [13.26512, 52.59315]}, "properties": {"id": "osm-way-105071263", "kind": "slip", "name": "Slipanlage", "area": "", "region": null, "land": "BE", "desc": null, "tags": [], "tel": null, "web": null, "source": "OpenStreetMap", "source_detail": "Overpass 2026-06-12", "quality": "unverified", "coord_quality": "exact"}}, {"type": "Feature", "geometry": {"type": "Point", "coordinates": [13.26702, 52.59159]}, "properties": {"id": "osm-way-105071493", "kind": "slip", "name": "Slipanlage", "area": "", "region": null, "land": "BE", "desc": null, "tags": [], "tel": null, "web": null, "source": "OpenStreetMap", "source_detail": "Overpass 2026-06-12", "quality": "unverified", "coord_quality": "exact"}}, {"type": "Feature", "geometry": {"type": "Point", "coordinates": [13.26668, 52.59154]}, "properties": {"id": "osm-way-105071494", "kind": "slip", "name": "Slipanlage", "area": "", "region": null, "land": "BE", "desc": null, "tags": [], "tel": null, "web": null, "source": "OpenStreetMap", "source_detail": "Overpass 2026-06-12", "quality": "unverified", "coord_quality": "exact"}}, {"type": "Feature", "geometry": {"type": "Point", "coordinates": [13.26744, 52.59075]}, "properties": {"id": "osm-way-105072022", "kind": "slip", "name": "Slipanlage", "area": "", "region": null, "land": "BE", "desc": null, "tags": [], "tel": null, "web": null, "source": "OpenStreetMap", "source_detail": "Overpass 2026-06-12", "quality": "unverified", "coord_quality": "exact"}}, {"type": "Feature", "geometry": {"type": "Point", "coordinates": [13.64719, 52.37932]}, "properties": {"id": "osm-way-147330481", "kind": "hafen", "name": "Yachthafen Schmöckwitz", "area": "", "region": null, "land": "BE", "desc": null, "tags": ["230V", "Trinkwasser", "Entsorgung"], "tel": "+49 1515 1139052", "web": "https://yachthafen-schmoeckwitz.de/", "source": "OpenStreetMap", "source_detail": "Overpass 2026-06-12", "quality": "unverified", "coord_quality": "exact"}}, {"type": "Feature", "geometry": {"type": "Point", "coordinates": [13.41024, 52.51468]}, "properties": {"id": "osm-way-147855069", "kind": "schleuse", "name": "Spree", "area": "", "region": null, "land": "BE", "desc": null, "tags": [], "tel": "+49 30 2424695", "web": null, "source": "OpenStreetMap", "source_detail": "Overpass 2026-06-12", "quality": "unverified", "coord_quality": "exact"}}, {"type": "Feature", "geometry": {"type": "Point", "coordinates": [13.28622, 52.53105]}, "properties": {"id": "osm-way-159187523", "kind": "schleuse", "name": "Schleuse", "area": "", "region": null, "land": "BE", "desc": null, "tags": [], "tel": "+49 30 34357120", "web": null, "source": "OpenStreetMap", "source_detail": "Overpass 2026-06-12", "quality": "unverified", "coord_quality": "exact"}}, {"type": "Feature", "geometry": {"type": "Point", "coordinates": [13.41029, 52.51487]}, "properties": {"id": "osm-way-159534656", "kind": "schleuse", "name": "Spree", "area": "", "region": null, "land": "BE", "desc": null, "tags": [], "tel": "+49 30 2424695", "web": null, "source": "OpenStreetMap", "source_detail": "Overpass 2026-06-12", "quality": "unverified", "coord_quality": "exact"}}, {"type": "Feature", "geometry": {"type": "Point", "coordinates": [13.28983, 52.53097]}, "properties": {"id": "osm-way-159559405", "kind": "schleuse", "name": "Schleuse", "area": "", "region": null, "land": "BE", "desc": null, "tags": [], "tel": null, "web": null, "source": "OpenStreetMap", "source_detail": "Overpass 2026-06-12", "quality": "unverified", "coord_quality": "exact"}}, {"type": "Feature", "geometry": {"type": "Point", "coordinates": [13.29008, 52.53087]}, "properties": {"id": "osm-way-159559413", "kind": "schleuse", "name": "Schleuse", "area": "", "region": null, "land": "BE", "desc": null, "tags": [], "tel": null, "web": null, "source": "OpenStreetMap", "source_detail": "Overpass 2026-06-12", "quality": "unverified", "coord_quality": "exact"}}, {"type": "Feature", "geometry": {"type": "Point", "coordinates": [13.33592, 52.51149]}, "properties": {"id": "osm-way-159589277", "kind": "schleuse", "name": "Landwehrkanal", "area": "", "region": null, "land": "BE", "desc": null, "tags": [], "tel": "+49 30 3125233", "web": null, "source": "OpenStreetMap", "source_detail": "Overpass 2026-06-12", "quality": "unverified", "coord_quality": "exact"}}, {"type": "Feature", "geometry": {"type": "Point", "coordinates": [13.44928, 52.49792]}, "properties": {"id": "osm-way-159589281", "kind": "schleuse", "name": "Landwehrkanal", "area": "", "region": null, "land": "BE", "desc": null, "tags": [], "tel": "+49 30 6123292", "web": null, "source": "OpenStreetMap", "source_detail": "Overpass 2026-06-12", "quality": "unverified", "coord_quality": "exact"}}, {"type": "Feature", "geometry": {"type": "Point", "coordinates": [13.32338, 52.54332]}, "properties": {"id": "osm-way-159974797", "kind": "schleuse", "name": "Berlin-Spandauer Schifffahrtskanal", "area": "", "region": null, "land": "BE", "desc": null, "tags": [], "tel": "+49 30 34560792", "web": null, "source": "OpenStreetMap", "source_detail": "Overpass 2026-06-12", "quality": "unverified", "coord_quality": "exact"}}, {"type": "Feature", "geometry": {"type": "Point", "coordinates": [13.32374, 52.54348]}, "properties": {"id": "osm-way-159974798", "kind": "schleuse", "name": "Berlin-Spandauer Schifffahrtskanal", "area": "", "region": null, "land": "BE", "desc": null, "tags": [], "tel": "+49 30 34560792", "web": null, "source": "OpenStreetMap", "source_detail": "Overpass 2026-06-12", "quality": "unverified", "coord_quality": "exact"}}, {"type": "Feature", "geometry": {"type": "Point", "coordinates": [13.14888, 52.41201]}, "properties": {"id": "osm-way-160025110", "kind": "hafen", "name": "Bootsstände Joachim Schröder", "area": "", "region": null, "land": "BE", "desc": null, "tags": [], "tel": "+49 30 8051127", "web": null, "source": "OpenStreetMap", "source_detail": "Overpass 2026-06-12", "quality": "unverified", "coord_quality": "exact"}}, {"type": "Feature", "geometry": {"type": "Point", "coordinates": [13.16607, 52.43436]}, "properties": {"id": "osm-way-160025111", "kind": "hafen", "name": "Bootshaus Seehaase", "area": "", "region": null, "land": "BE", "desc": null, "tags": [], "tel": null, "web": null, "source": "OpenStreetMap", "source_detail": "Overpass 2026-06-12", "quality": "unverified", "coord_quality": "exact"}}, {"type": "Feature", "geometry": {"type": "Point", "coordinates": [13.17026, 52.42207]}, "properties": {"id": "osm-way-160026367", "kind": "hafen", "name": "Potsdamer Yacht Club", "area": "", "region": null, "land": "BE", "desc": null, "tags": [], "tel": null, "web": null, "source": "OpenStreetMap", "source_detail": "Overpass 2026-06-12", "quality": "unverified", "coord_quality": "exact"}}, {"type": "Feature", "geometry": {"type": "Point", "coordinates": [13.16785, 52.43228]}, "properties": {"id": "osm-way-160026368", "kind": "hafen", "name": "Zeuthener Segler-Verein", "area": "", "region": null, "land": "BE", "desc": null, "tags": [], "tel": null, "web": "https://zsv.berlin/", "source": "OpenStreetMap", "source_detail": "Overpass 2026-06-12", "quality": "unverified", "coord_quality": "exact"}}, {"type": "Feature", "geometry": {"type": "Point", "coordinates": [13.16456, 52.42278]}, "properties": {"id": "osm-way-160026371", "kind": "hafen", "name": "Bootswerft Ruhs", "area": "", "region": null, "land": "BE", "desc": null, "tags": [], "tel": "+49 30 8052307", "web": "http://www.bootswerft-ruhs.de", "source": "OpenStreetMap", "source_detail": "Overpass 2026-06-12", "quality": "unverified", "coord_quality": "exact"}}, {"type": "Feature", "geometry": {"type": "Point", "coordinates": [13.17281, 52.42003]}, "properties": {"id": "osm-way-160026528", "kind": "hafen", "name": "Sport- und Anglerverein Frühauf Wannsee", "area": "", "region": null, "land": "BE", "desc": null, "tags": [], "tel": null, "web": null, "source": "OpenStreetMap", "source_detail": "Overpass 2026-06-12", "quality": "unverified", "coord_quality": "exact"}}, {"type": "Feature", "geometry": {"type": "Point", "coordinates": [13.20907, 52.54058]}, "properties": {"id": "osm-way-160117778", "kind": "schleuse", "name": "Havel", "area": "", "region": null, "land": "BE", "desc": null, "tags": [], "tel": "+49 30 33080520", "web": null, "source": "OpenStreetMap", "source_detail": "Overpass 2026-06-12", "quality": "unverified", "coord_quality": "exact"}}, {"type": "Feature", "geometry": {"type": "Point", "coordinates": [13.45398, 52.46645]}, "properties": {"id": "osm-way-160175122", "kind": "schleuse", "name": "Neuköllner Schifffahrtskanal", "area": "", "region": null, "land": "BE", "desc": null, "tags": [], "tel": "+49 30 90239-2067", "web": null, "source": "OpenStreetMap", "source_detail": "Overpass 2026-06-12", "quality": "unverified", "coord_quality": "exact"}}, {"type": "Feature", "geometry": {"type": "Point", "coordinates": [13.22798, 52.56907]}, "properties": {"id": "osm-way-164690573", "kind": "hafen", "name": "Segelschule Berlin", "area": "", "region": null, "land": "BE", "desc": null, "tags": [], "tel": "+49 30 4311171", "web": "https://www.segelschule-berlin.de/", "source": "OpenStreetMap", "source_detail": "Overpass 2026-06-12", "quality": "unverified", "coord_quality": "exact"}}, {"type": "Feature", "geometry": {"type": "Point", "coordinates": [13.6763, 52.44325]}, "properties": {"id": "osm-way-177914133", "kind": "slip", "name": "Slipanlage", "area": "", "region": null, "land": "BE", "desc": null, "tags": [], "tel": null, "web": null, "source": "OpenStreetMap", "source_detail": "Overpass 2026-06-12", "quality": "unverified", "coord_quality": "exact"}}, {"type": "Feature", "geometry": {"type": "Point", "coordinates": [13.6774, 52.44328]}, "properties": {"id": "osm-way-177915384", "kind": "hafen", "name": "Catamaran und Surfclub Müggelsee e.V.", "area": "", "region": null, "land": "BE", "desc": null, "tags": [], "tel": null, "web": null, "source": "OpenStreetMap", "source_detail": "Overpass 2026-06-12", "quality": "unverified", "coord_quality": "exact"}}, {"type": "Feature", "geometry": {"type": "Point", "coordinates": [13.2678, 52.58909]}, "properties": {"id": "osm-way-178850326", "kind": "hafen", "name": "Nereus Wassersport GmbH & Co", "area": "", "region": null, "land": "BE", "desc": null, "tags": [], "tel": null, "web": null, "source": "OpenStreetMap", "source_detail": "Overpass 2026-06-12", "quality": "unverified", "coord_quality": "exact"}}, {"type": "Feature", "geometry": {"type": "Point", "coordinates": [13.2666, 52.59032]}, "properties": {"id": "osm-way-178850327", "kind": "hafen", "name": "Bootshaus S. Schulz", "area": "", "region": null, "land": "BE", "desc": null, "tags": [], "tel": null, "web": null, "source": "OpenStreetMap", "source_detail": "Overpass 2026-06-12", "quality": "unverified", "coord_quality": "exact"}}, {"type": "Feature", "geometry": {"type": "Point", "coordinates": [13.26657, 52.59113]}, "properties": {"id": "osm-way-178850862", "kind": "hafen", "name": "Wassersportheim an der Malche", "area": "", "region": null, "land": "BE", "desc": null, "tags": [], "tel": null, "web": null, "source": "OpenStreetMap", "source_detail": "Overpass 2026-06-12", "quality": "unverified", "coord_quality": "exact"}}, {"type": "Feature", "geometry": {"type": "Point", "coordinates": [13.26825, 52.59145]}, "properties": {"id": "osm-way-178851598", "kind": "hafen", "name": "Wassersportheim an der Malche", "area": "", "region": null, "land": "BE", "desc": null, "tags": [], "tel": null, "web": null, "source": "OpenStreetMap", "source_detail": "Overpass 2026-06-12", "quality": "unverified", "coord_quality": "exact"}}, {"type": "Feature", "geometry": {"type": "Point", "coordinates": [13.26472, 52.5927]}, "properties": {"id": "osm-way-178852577", "kind": "hafen", "name": "Segler-Vereinigung Tegel e.V.", "area": "", "region": null, "land": "BE", "desc": null, "tags": [], "tel": null, "web": null, "source": "OpenStreetMap", "source_detail": "Overpass 2026-06-12", "quality": "unverified", "coord_quality": "exact"}}, {"type": "Feature", "geometry": {"type": "Point", "coordinates": [13.2656, 52.59328]}, "properties": {"id": "osm-way-178852578", "kind": "hafen", "name": "Segler-Vereinigung Tegel e.V.", "area": "", "region": null, "land": "BE", "desc": null, "tags": [], "tel": null, "web": null, "source": "OpenStreetMap", "source_detail": "Overpass 2026-06-12", "quality": "unverified", "coord_quality": "exact"}},