{"type": "FeatureCollection", "features": [{"type": "Feature", "geometry": {"type": "Point", "coordinates": [11.41577, 53.6519]}, "properties": {"id": "osm-node-21666214", "kind": "badestelle", "name": "Badestelle Park Sachsenbeerg", "area": "", "region": null, "land": "MV", "desc": null, "tags": [], "tel": null, "web": null, "source": "OpenStreetMap", "source_detail": "Overpass 2026-06-12", "quality": "unverified", "coord_quality": "exact"}}, {"type": "Feature", "geometry": {"type": "Point", "coordinates": [13.93385, 53.92461]}, "properties": {"id": "osm-node-24988645", "kind": "badestelle", "name": "Badestelle Krienke", "area": "", "region": null, "land": "MV", "desc": null, "tags": [], "tel": null, "web": null, "source": "OpenStreetMap", "source_detail": "Overpass 2026-06-12", "quality": "unverified", "coord_quality": "exact"}}, {"type": "Feature", "geometry": {"type": "Point", "coordinates": [12.10889, 54.10461]}, "properties": {"id": "osm-node-25004040", "kind": "slip", "name": "Slipanlage", "area": "", "region": null, "land": "MV", "desc": null, "tags": [], "tel": null, "web": null, "source": "OpenStreetMap", "source_detail": "Overpass 2026-06-12", "quality": "unverified", "coord_quality": "exact"}}, {"type": "Feature", "geometry": {"type": "Point", "coordinates": [13.3331, 54.1712]}, "properties": {"id": "osm-node-25010966", "kind": "slip", "name": "Slipanlage", "area": "", "region": null, "land": "MV", "desc": null, "tags": [], "tel": null, "web": null, "source": "OpenStreetMap", "source_detail": "Overpass 2026-06-12", "quality": "unverified", "coord_quality": "exact"}}, {"type": "Feature", "geometry": {"type": "Point", "coordinates": [12.60664, 54.37087]}, "properties": {"id": "osm-node-31406955", "kind": "slip", "name": "Slipanlage", "area": "", "region": null, "land": "MV", "desc": null, "tags": [], "tel": null, "web": null, "source": "OpenStreetMap", "source_detail": "Overpass 2026-06-12", "quality": "unverified", "coord_quality": "exact"}}, {"type": "Feature", "geometry": {"type": "Point", "coordinates": [11.35314, 53.62846]}, "properties": {"id": "osm-node-32026426", "kind": "badestelle", "name": "Badestelle Neumühler See SO", "area": "", "region": null, "land": "MV", "desc": null, "tags": [], "tel": null, "web": null, "source": "OpenStreetMap", "source_detail": "Overpass 2026-06-12", "quality": "unverified", "coord_quality": "exact"}}, {"type": "Feature", "geometry": {"type": "Point", "coordinates": [13.04258, 53.91057]}, "properties": {"id": "osm-node-54830542", "kind": "hafen", "name": "Freizeitzentrum Schult", "area": "", "region": null, "land": "MV", "desc": null, "tags": [], "tel": "+49 381 49455266", "web": null, "source": "OpenStreetMap", "source_detail": "Overpass 2026-06-12", "quality": "unverified", "coord_quality": "exact"}}, {"type": "Feature", "geometry": {"type": "Point", "coordinates": [13.17292, 53.95794]}, "properties": {"id": "osm-node-54840941", "kind": "hafen", "name": "Wasserwanderrastplatz Sophienhof", "area": "", "region": null, "land": "MV", "desc": null, "tags": [], "tel": null, "web": null, "source": "OpenStreetMap", "source_detail": "Overpass 2026-06-12", "quality": "unverified", "coord_quality": "exact"}}, {"type": "Feature", "geometry": {"type": "Point", "coordinates": [13.2259, 53.9615]}, "properties": {"id": "osm-node-54844300", "kind": "hafen", "name": "WWRP Alt Plestlin", "area": "", "region": null, "land": "MV", "desc": null, "tags": [], "tel": null, "web": null, "source": "OpenStreetMap", "source_detail": "Overpass 2026-06-12", "quality": "unverified", "coord_quality": "exact"}}, {"type": "Feature", "geometry": {"type": "Point", "coordinates": [13.55955, 53.87423]}, "properties": {"id": "osm-node-54849647", "kind": "hafen", "name": "Wasserwanderrastplatz Stolpe an der Peene", "area": "Stolpe an der Peene", "region": null, "land": "MV", "desc": null, "tags": ["230V", "Entsorgung"], "tel": "+49 17621058588", "web": "https://hafenstolpe.de/", "source": "OpenStreetMap", "source_detail": "Overpass 2026-06-12", "quality": "unverified", "coord_quality": "exact"}}, {"type": "Feature", "geometry": {"type": "Point", "coordinates": [12.97052, 53.22186]}, "properties": {"id": "osm-node-101515367", "kind": "slip", "name": "Slipanlage", "area": "", "region": null, "land": "MV", "desc": null, "tags": ["kostenlos"], "tel": null, "web": null, "source": "OpenStreetMap", "source_detail": "Overpass 2026-06-12", "quality": "unverified", "coord_quality": "exact"}}, {"type": "Feature", "geometry": {"type": "Point", "coordinates": [13.44194, 53.33688]}, "properties": {"id": "osm-node-112146701", "kind": "slip", "name": "Slipanlage", "area": "", "region": null, "land": "MV", "desc": null, "tags": ["kostenlos"], "tel": null, "web": null, "source": "OpenStreetMap", "source_detail": "Overpass 2026-06-12", "quality": "unverified", "coord_quality": "exact"}}, {"type": "Feature", "geometry": {"type": "Point", "coordinates": [14.06557, 53.74798]}, "properties": {"id": "osm-node-252276031", "kind": "hafen", "name": "Lagunenstadt Ueckermünde", "area": "", "region": null, "land": "MV", "desc": null, "tags": [], "tel": null, "web": "http://www.lagunenstadt-ueckermuende.de/", "source": "OpenStreetMap", "source_detail": "Overpass 2026-06-12", "quality": "unverified", "coord_quality": "exact"}}, {"type": "Feature", "geometry": {"type": "Point", "coordinates": [12.09838, 54.13164]}, "properties": {"id": "osm-node-260713617", "kind": "slip", "name": "Slipanlage", "area": "", "region": null, "land": "MV", "desc": null, "tags": [], "tel": null, "web": null, "source": "OpenStreetMap", "source_detail": "Overpass 2026-06-12", "quality": "unverified", "coord_quality": "exact"}}, {"type": "Feature", "geometry": {"type": "Point", "coordinates": [13.07714, 53.36539]}, "properties": {"id": "osm-node-269519698", "kind": "badestelle", "name": "Glambecker See", "area": "", "region": null, "land": "MV", "desc": null, "tags": [], "tel": null, "web": null, "source": "OpenStreetMap", "source_detail": "Overpass 2026-06-12", "quality": "unverified", "coord_quality": "exact"}}, {"type": "Feature", "geometry": {"type": "Point", "coordinates": [13.11034, 54.5718]}, "properties": {"id": "osm-node-269575030", "kind": "hafen", "name": "Yachthafen Vitte-Lange Ort", "area": "", "region": null, "land": "MV", "desc": null, "tags": ["230V", "Trinkwasser"], "tel": "+49 38300 6036868; +49 171 796 19 39", "web": "http://www.yachthafen-langeort.de", "source": "OpenStreetMap", "source_detail": "Overpass 2026-06-12", "quality": "unverified", "coord_quality": "exact"}}, {"type": "Feature", "geometry": {"type": "Point", "coordinates": [11.44264, 53.99533]}, "properties": {"id": "osm-node-274905288", "kind": "hafen", "name": "Segelclub Insel Poel SCIP", "area": "", "region": null, "land": "MV", "desc": null, "tags": [], "tel": "+49 172 3198999", "web": "https://www.ostsee-charter-yacht.de/yachthafen/insel-poel-segelclub-insel-poel.php", "source": "OpenStreetMap", "source_detail": "Overpass 2026-06-12", "quality": "unverified", "coord_quality": "exact"}}, {"type": "Feature", "geometry": {"type": "Point", "coordinates": [12.02594, 53.4603]}, "properties": {"id": "osm-node-282623553", "kind": "hafen", "name": "Stadtmarina", "area": "", "region": null, "land": "MV", "desc": null, "tags": [], "tel": null, "web": null, "source": "OpenStreetMap", "source_detail": "Overpass 2026-06-12", "quality": "unverified", "coord_quality": "exact"}}, {"type": "Feature", "geometry": {"type": "Point", "coordinates": [12.42843, 54.24672]}, "properties": {"id": "osm-node-282723467", "kind": "hafen", "name": "Stadthafen Ribnitz", "area": "", "region": null, "land": "MV", "desc": null, "tags": ["230V", "Trinkwasser", "Entsorgung"], "tel": null, "web": null, "source": "OpenStreetMap", "source_detail": "Overpass 2026-06-12", "quality": "unverified", "coord_quality": "exact"}}, {"type": "Feature", "geometry": {"type": "Point", "coordinates": [12.10001, 54.18203]}, "properties": {"id": "osm-node-285061557", "kind": "hafen", "name": "Yachthafen Hohe Düne", "area": "", "region": null, "land": "MV", "desc": null, "tags": [], "tel": "+49 381 50408000", "web": "https://www.yachthafen-hohe-duene.de/", "source": "OpenStreetMap", "source_detail": "Overpass 2026-06-12", "quality": "unverified", "coord_quality": "exact"}}, {"type": "Feature", "geometry": {"type": "Point", "coordinates": [13.45189, 54.47241]}, "properties": {"id": "osm-node-285328999", "kind": "hafen", "name": "Marina Ralswiek", "area": "", "region": null, "land": "MV", "desc": null, "tags": [], "tel": "+49 3838 313553", "web": null, "source": "OpenStreetMap", "source_detail": "Overpass 2026-06-12", "quality": "unverified", "coord_quality": "exact"}}, {"type": "Feature", "geometry": {"type": "Point", "coordinates": [12.71475, 53.32968]}, "properties": {"id": "osm-node-287298053", "kind": "hafen", "name": "Yachthafen Rechlin", "area": "", "region": null, "land": "MV", "desc": null, "tags": [], "tel": null, "web": null, "source": "OpenStreetMap", "source_detail": "Overpass 2026-06-12", "quality": "unverified", "coord_quality": "exact"}}, {"type": "Feature", "geometry": {"type": "Point", "coordinates": [12.71519, 53.33065]}, "properties": {"id": "osm-node-287298054", "kind": "hafen", "name": "Seglerverein Rechlin", "area": "", "region": null, "land": "MV", "desc": null, "tags": ["230V", "Trinkwasser"], "tel": "+49 175 1596197", "web": "http://www.msvr.de/", "source": "OpenStreetMap", "source_detail": "Overpass 2026-06-12", "quality": "unverified", "coord_quality": "exact"}}, {"type": "Feature", "geometry": {"type": "Point", "coordinates": [13.28978, 54.23372]}, "properties": {"id": "osm-node-288333022", "kind": "hafen", "name": "Yachthafen Stahlbrode", "area": "", "region": null, "land": "MV", "desc": null, "tags": [], "tel": "+49 38328 650005", "web": "https://www.amt-miltzow.de/verzeichnis/objekt.php?mandat=37235", "source": "OpenStreetMap", "source_detail": "Overpass 2026-06-12", "quality": "unverified", "coord_quality": "exact"}}, {"type": "Feature", "geometry": {"type": "Point", "coordinates": [13.28742, 54.23428]}, "properties": {"id": "osm-node-288333047", "kind": "slip", "name": "Slipanlage", "area": "", "region": null, "land": "MV", "desc": null, "tags": [], "tel": null, "web": null, "source": "OpenStreetMap", "source_detail": "Overpass 2026-06-12", "quality": "unverified", "coord_quality": "exact"}}, {"type": "Feature", "geometry": {"type": "Point", "coordinates": [13.27609, 54.54235]}, "properties": {"id": "osm-node-288805437", "kind": "hafen", "name": "Libnitz (Pachtgew.)", "area": "", "region": null, "land": "MV", "desc": null, "tags": [], "tel": null, "web": null, "source": "OpenStreetMap", "source_detail": "Overpass 2026-06-12", "quality": "unverified", "coord_quality": "exact"}}, {"type": "Feature", "geometry": {"type": "Point", "coordinates": [13.32644, 54.56843]}, "properties": {"id": "osm-node-289733967", "kind": "hafen", "name": "Vieregge", "area": "", "region": null, "land": "MV", "desc": null, "tags": [], "tel": null, "web": "http://www.yachthafen-vieregge.com", "source": "OpenStreetMap", "source_detail": "Overpass 2026-06-12", "quality": "unverified", "coord_quality": "exact"}}, {"type": "Feature", "geometry": {"type": "Point", "coordinates": [13.35597, 54.61237]}, "properties": {"id": "osm-node-289884907", "kind": "hafen", "name": "Hafen Breege", "area": "", "region": null, "land": "MV", "desc": null, "tags": [], "tel": "+49 38391 579", "web": null, "source": "OpenStreetMap", "source_detail": "Overpass 2026-06-12", "quality": "unverified", "coord_quality": "exact"}}, {"type": "Feature", "geometry": {"type": "Point", "coordinates": [12.10159, 54.17906]}, "properties": {"id": "osm-node-290794541", "kind": "tank", "name": "Bootstankstelle", "area": "", "region": null, "land": "MV", "desc": null, "tags": [], "tel": null, "web": null, "source": "OpenStreetMap", "source_detail": "Overpass 2026-06-12", "quality": "unverified", "coord_quality": "exact"}}, {"type": "Feature", "geometry": {"type": "Point", "coordinates": [12.10222, 54.17946]}, "properties": {"id": "osm-node-290795770", "kind": "slip", "name": "Slipanlage", "area": "", "region": null, "land": "MV", "desc": null, "tags": [], "tel": null, "web": null, "source": "OpenStreetMap", "source_detail": "Overpass 2026-06-12", "quality": "unverified", "coord_quality": "exact"}}, {"type": "Feature", "geometry": {"type": "Point", "coordinates": [12.12844, 54.09593]}, "properties": {"id": "osm-node-294571309", "kind": "slip", "name": "Slipanlage", "area": "", "region": null, "land": "MV", "desc": null, "tags": [], "tel": null, "web": null, "source": "OpenStreetMap", "source_detail": "Overpass 2026-06-12", "quality": "unverified", "coord_quality": "exact"}}, {"type": "Feature", "geometry": {"type": "Point", "coordinates": [11.24999, 53.97317]}, "properties": {"id": "osm-node-296879886", "kind": "hafen", "name": "Marina Boltenhagen", "area": "", "region": null, "land": "MV", "desc": null, "tags": [], "tel": "+49 38825 26390", "web": "https://yachtwelt.de/de", "source": "OpenStreetMap", "source_detail": "Overpass 2026-06-12", "quality": "unverified", "coord_quality": "exact"}}, {"type": "Feature", "geometry": {"type": "Point", "coordinates": [12.46992, 54.25059]}, "properties": {"id": "osm-node-298161536", "kind": "slip", "name": "Slipanlage", "area": "", "region": null, "land": "MV", "desc": null, "tags": [], "tel": null, "web": null, "source": "OpenStreetMap", "source_detail": "Overpass 2026-06-12", "quality": "unverified", "coord_quality": "exact"}}, {"type": "Feature", "geometry": {"type": "Point", "coordinates": [11.77269, 54.15146]}, "properties": {"id": "osm-node-299583461", "kind": "slip", "name": "Slipanlage", "area": "", "region": null, "land": "MV", "desc": null, "tags": [], "tel": null, "web": null, "source": "OpenStreetMap", "source_detail": "Overpass 2026-06-12", "quality": "unverified", "coord_quality": "exact"}}, {"type": "Feature", "geometry": {"type": "Point", "coordinates": [11.24671, 53.97356]}, "properties": {"id": "osm-node-302306092", "kind": "slip", "name": "Tarnewitz", "area": "", "region": null, "land": "MV", "desc": null, "tags": [], "tel": null, "web": null, "source": "OpenStreetMap", "source_detail": "Overpass 2026-06-12", "quality": "unverified", "coord_quality": "exact"}}, {"type": "Feature", "geometry": {"type": "Point", "coordinates": [13.48425, 54.55345]}, "properties": {"id": "osm-node-304484613", "kind": "hafen", "name": "Yachthafen Glowe", "area": "", "region": null, "land": "MV", "desc": null, "tags": [], "tel": null, "web": null, "source": "OpenStreetMap", "source_detail": "Overpass 2026-06-12", "quality": "unverified", "coord_quality": "exact"}}, {"type": "Feature", "geometry": {"type": "Point", "coordinates": [12.0886, 54.18148]}, "properties": {"id": "osm-node-305410608", "kind": "hafen", "name": "Yachthafen Mittelmole - Sportschule Warnemünde", "area": "", "region": null, "land": "MV", "desc": null, "tags": [], "tel": "+49 381 52346", "web": "https://www.lsb-mv.de/der-lsb/sportschulen/sportschule-yachthafen-warnemuende/", "source": "OpenStreetMap", "source_detail": "Overpass 2026-06-12", "quality": "unverified", "coord_quality": "exact"}}, {"type": "Feature", "geometry": {"type": "Point", "coordinates": [12.12558, 54.09265]}, "properties": {"id": "osm-node-314662122", "kind": "hafen", "name": "Museumshafen Hansestadt Rostock", "area": "", "region": null, "land": "MV", "desc": null, "tags": [], "tel": "+49 381 4902435", "web": "https://museumshafen-rostock.de/", "source": "OpenStreetMap", "source_detail": "Overpass 2026-06-12", "quality": "unverified", "coord_quality": "exact"}}, {"type": "Feature", "geometry": {"type": "Point", "coordinates": [11.37501, 53.99204]}, "properties": {"id": "osm-node-315061902", "kind": "hafen", "name": "Hafen Timmendorf", "area": "", "region": null, "land": "MV", "desc": null, "tags": [], "tel": "+49 38425 212333", "web": null, "source": "OpenStreetMap", "source_detail": "Overpass 2026-06-12", "quality": "unverified", "coord_quality": "exact"}}, {"type": "Feature", "geometry": {"type": "Point", "coordinates": [13.19332, 54.2581]}, "properties": {"id": "osm-node-316020965", "kind": "slip", "name": "Slipanlage", "area": "", "region": null, "land": "MV", "desc": null, "tags": [], "tel": null, "web": null, "source": "OpenStreetMap", "source_detail": "Overpass 2026-06-12", "quality": "unverified", "coord_quality": "exact"}}, {"type": "Feature", "geometry": {"type": "Point", "coordinates": [13.30572, 54.20521]}, "properties": {"id": "osm-node-316020966", "kind": "slip", "name": "Slipanlage", "area": "", "region": null, "land": "MV", "desc": null, "tags": [], "tel": null, "web": null, "source": "OpenStreetMap", "source_detail": "Overpass 2026-06-12", "quality": "unverified", "coord_quality": "exact"}}, {"type": "Feature", "geometry": {"type": "Point", "coordinates": [11.45364, 53.89609]}, "properties": {"id": "osm-node-318300818", "kind": "hafen", "name": "Westhafen Wismar", "area": "", "region": null, "land": "MV", "desc": null, "tags": [], "tel": "+49 3841 224491", "web": "http://www.westhafen.net/", "source": "OpenStreetMap", "source_detail": "Overpass 2026-06-12", "quality": "unverified", "coord_quality": "exact"}}, {"type": "Feature", "geometry": {"type": "Point", "coordinates": [11.4623, 53.89872]}, "properties": {"id": "osm-node-318300819", "kind": "hafen", "name": "Wasserwanderrastplatz Brunkowkai", "area": "", "region": null, "land": "MV", "desc": null, "tags": [], "tel": "+49 3841 2513260", "web": null, "source": "OpenStreetMap", "source_detail": "Overpass 2026-06-12", "quality": "unverified", "coord_quality": "exact"}}, {"type": "Feature", "geometry": {"type": "Point", "coordinates": [13.09071, 54.31916]}, "properties": {"id": "osm-node-318474749", "kind": "slip", "name": "Slipanlage", "area": "", "region": null, "land": "MV", "desc": null, "tags": [], "tel": null, "web": null, "source": "OpenStreetMap", "source_detail": "Overpass 2026-06-12", "quality": "unverified", "coord_quality": "exact"}}, {"type": "Feature", "geometry": {"type": "Point", "coordinates": [13.08708, 54.32188]}, "properties": {"id": "osm-node-319013558", "kind": "slip", "name": "Slipanlage", "area": "", "region": null, "land": "MV", "desc": null, "tags": [], "tel": null, "web": null, "source": "OpenStreetMap", "source_detail": "Overpass 2026-06-12", "quality": "unverified", "coord_quality": "exact"}}, {"type": "Feature", "geometry": {"type": "Point", "coordinates": [12.4193, 54.37216]}, "properties": {"id": "osm-node-331855509", "kind": "hafen", "name": "Yachthafen Althagen (Ahrenshoop)", "area": "", "region": null, "land": "MV", "desc": null, "tags": [], "tel": "+49 38220 6946", "web": null, "source": "OpenStreetMap", "source_detail": "Overpass 2026-06-12", "quality": "unverified", "coord_quality": "exact"}}, {"type": "Feature", "geometry": {"type": "Point", "coordinates": [13.33378, 54.27859]}, "properties": {"id": "osm-node-331861186", "kind": "hafen", "name": "Hafen Puddemin", "area": "", "region": null, "land": "MV", "desc": null, "tags": [], "tel": "+49 157 81700387", "web": "https://www.hafen-puddemin.de/", "source": "OpenStreetMap", "source_detail": "Overpass 2026-06-12", "quality": "unverified", "coord_quality": "exact"}}, {"type": "Feature", "geometry": {"type": "Point", "coordinates": [13.33432, 54.27916]}, "properties": {"id": "osm-node-331861195", "kind": "slip", "name": "Slipanlage", "area": "", "region": null, "land": "MV", "desc": null, "tags": [], "tel": null, "web": null, "source": "OpenStreetMap", "source_detail": "Overpass 2026-06-12", "quality": "unverified", "coord_quality": "exact"}}, {"type": "Feature", "geometry": {"type": "Point", "coordinates": [13.50633, 54.34109]}, "properties": {"id": "osm-node-331952746", "kind": "hafen", "name": "Marina Lauterbach", "area": "", "region": null, "land": "MV", "desc": null, "tags": ["230V", "Entsorgung"], "tel": "+49 38301 8090", "web": "https://www.im-jaich.de/hafen/heimathafen-lauterbach/", "source": "OpenStreetMap", "source_detail": "Overpass 2026-06-12", "quality": "unverified", "coord_quality": "exact"}}, {"type": "Feature", "geometry": {"type": "Point", "coordinates": [13.50102, 54.34269]}, "properties": {"id": "osm-node-331982372", "kind": "tank", "name": "Bootstankstelle", "area": "", "region": null, "land": "MV", "desc": null, "tags": [], "tel": null, "web": null, "source": "OpenStreetMap", "source_detail": "Overpass 2026-06-12", "quality": "unverified", "coord_quality": "exact"}}, {"type": "Feature", "geometry": {"type": "Point", "coordinates": [12.4197, 54.37222]}, "properties": {"id": "osm-node-331999487", "kind": "slip", "name": "Slipanlage", "area": "", "region": null, "land": "MV", "desc": null, "tags": [], "tel": null, "web": null, "source": "OpenStreetMap", "source_detail": "Overpass 2026-06-12", "quality": "unverified", "coord_quality": "exact"}}, {"type": "Feature", "geometry": {"type": "Point", "coordinates": [13.5046, 54.34092]}, "properties": {"id": "osm-node-332023362", "kind": "slip", "name": "Slipanlage", "area": "", "region": null, "land": "MV", "desc": null, "tags": [], "tel": null, "web": null, "source": "OpenStreetMap", "source_detail": "Overpass 2026-06-12", "quality": "unverified", "coord_quality": "exact"}}, {"type": "Feature", "geometry": {"type": "Point", "coordinates": [13.68133, 54.31059]}, "properties": {"id": "osm-node-332254814", "kind": "slip", "name": "Slipanlage", "area": "", "region": null, "land": "MV", "desc": null, "tags": [], "tel": null, "web": null, "source": "OpenStreetMap", "source_detail": "Overpass 2026-06-12", "quality": "unverified", "coord_quality": "exact"}}, {"type": "Feature", "geometry": {"type": "Point", "coordinates": [13.68291, 54.31109]}, "properties": {"id": "osm-node-332271534", "kind": "hafen", "name": "Marina Gager", "area": "", "region": null, "land": "MV", "desc": null, "tags": [], "tel": null, "web": "https://marina-gager.com/", "source": "OpenStreetMap", "source_detail": "Overpass 2026-06-12", "quality": "unverified", "coord_quality": "exact"}}, {"type": "Feature", "geometry": {"type": "Point", "coordinates": [11.4353, 53.90217]}, "properties": {"id": "osm-node-332455209", "kind": "hafen", "name": "Wismarer Segler-Verein 1911", "area": "", "region": null, "land": "MV", "desc": null, "tags": [], "tel": "+49 174 1974680", "web": "https://www.wsv1911.de/", "source": "OpenStreetMap", "source_detail": "Overpass 2026-06-12", "quality": "unverified", "coord_quality": "exact"}}, {"type": "Feature", "geometry": {"type": "Point", "coordinates": [13.09834, 54.31819]}, "properties": {"id": "osm-node-332728946", "kind": "hafen", "name": "Citymarina Stralsund", "area": "", "region": null, "land": "MV", "desc": null, "tags": [], "tel": null, "web": null, "source": "OpenStreetMap", "source_detail": "Overpass 2026-06-12", "quality": "unverified", "coord_quality": "exact"}}, {"type": "Feature", "geometry": {"type": "Point", "coordinates": [13.17996, 54.26466]}, "properties": {"id": "osm-node-333066674", "kind": "hafen", "name": "Marina Neuhof", "area": "", "region": null, "land": "MV", "desc": null, "tags": [], "tel": "+49 38328 85317", "web": "https://www.marinaneuhof.de/", "source": "OpenStreetMap", "source_detail": "Overpass 2026-06-12", "quality": "unverified", "coord_quality": "exact"}}, {"type": "Feature", "geometry": {"type": "Point", "coordinates": [13.84956, 53.84268]}, "properties": {"id": "osm-node-335722919", "kind": "slip", "name": "Slipanlage", "area": "", "region": null, "land": "MV", "desc": null, "tags": [], "tel": null, "web": null, "source": "OpenStreetMap", "source_detail": "Overpass 2026-06-12", "quality": "unverified", "coord_quality": "exact"}}, {"type": "Feature", "geometry": {"type": "Point", "coordinates": [13.85503, 53.95092]}, "properties": {"id": "osm-node-335891487", "kind": "slip", "name": "Slipanlage", "area": "", "region": null, "land": "MV", "desc": null, "tags": [], "tel": null, "web": null, "source": "OpenStreetMap", "source_detail": "Overpass 2026-06-12", "quality": "unverified", "coord_quality": "exact"}}, {"type": "Feature", "geometry": {"type": "Point", "coordinates": [13.8572, 53.84515]}, "properties": {"id": "osm-node-336022224", "kind": "hafen", "name": "Marina Karnin", "area": "", "region": null, "land": "MV", "desc": null, "tags": [], "tel": null, "web": null, "source": "OpenStreetMap", "source_detail": "Overpass 2026-06-12", "quality": "unverified", "coord_quality": "exact"}}, {"type": "Feature", "geometry": {"type": "Point", "coordinates": [13.85887, 53.84433]}, "properties": {"id": "osm-node-336022263", "kind": "entsorgung", "name": "Entsorgungsstation", "area": "", "region": null, "land": "MV", "desc": null, "tags": [], "tel": null, "web": null, "source": "OpenStreetMap", "source_detail": "Overpass 2026-06-12", "quality": "unverified", "coord_quality": "exact"}}, {"type": "Feature", "geometry": {"type": "Point", "coordinates": [13.9104, 54.02668]}, "properties": {"id": "osm-node-338718395", "kind": "slip", "name": "Slipanlage", "area": "", "region": null, "land": "MV", "desc": null, "tags": [], "tel": null, "web": null, "source": "OpenStreetMap", "source_detail": "Overpass 2026-06-12", "quality": "unverified", "coord_quality": "exact"}}, {"type": "Feature", "geometry": {"type": "Point", "coordinates": [13.12308, 54.32938]}, "properties": {"id": "osm-node-340288216", "kind": "slip", "name": "Slipanlage", "area": "", "region": null, "land": "MV", "desc": null, "tags": [], "tel": null, "web": null, "source": "OpenStreetMap", "source_detail": "Overpass 2026-06-12", "quality": "unverified", "coord_quality": "exact"}}, {"type": "Feature", "geometry": {"type": "Point", "coordinates": [13.73016, 54.13616]}, "properties": {"id": "osm-node-341735349", "kind": "slip", "name": "Slipanlage", "area": "", "region": null, "land": "MV", "desc": null, "tags": [], "tel": null, "web": null, "source": "OpenStreetMap", "source_detail": "Overpass 2026-06-12", "quality": "unverified", "coord_quality": "exact"}}, {"type": "Feature", "geometry": {"type": "Point", "coordinates": [13.45118, 54.09398]}, "properties": {"id": "osm-node-344531423", "kind": "slip", "name": "Slipanlage", "area": "", "region": null, "land": "MV", "desc": null, "tags": [], "tel": null, "web": null, "source": "OpenStreetMap", "source_detail": "Overpass 2026-06-12", "quality": "unverified", "coord_quality": "exact"}}, {"type": "Feature", "geometry": {"type": "Point", "coordinates": [13.45011, 54.09467]}, "properties": {"id": "osm-node-344531424", "kind": "slip", "name": "Slipgraben", "area": "", "region": null, "land": "MV", "desc": null, "tags": [], "tel": null, "web": null, "source": "OpenStreetMap", "source_detail": "Overpass 2026-06-12", "quality": "unverified", "coord_quality": "exact"}}, {"type": "Feature", "geometry": {"type": "Point", "coordinates": [13.1675, 54.51164]}, "properties": {"id": "osm-node-345583286", "kind": "hafen", "name": "Yachthafen Schaprode", "area": "", "region": null, "land": "MV", "desc": null, "tags": [], "tel": "+49 173 9701650", "web": "https://www.hafen-schaprode.de/", "source": "OpenStreetMap", "source_detail": "Overpass 2026-06-12", "quality": "unverified", "coord_quality": "exact"}}, {"type": "Feature", "geometry": {"type": "Point", "coordinates": [13.16754, 54.51194]}, "properties": {"id": "osm-node-345583287", "kind": "slip", "name": "Slipanlage", "area": "", "region": null, "land": "MV", "desc": null, "tags": [], "tel": null, "web": null, "source": "OpenStreetMap", "source_detail": "Overpass 2026-06-12", "quality": "unverified", "coord_quality": "exact"}}, {"type": "Feature", "geometry": {"type": "Point", "coordinates": [13.28426, 54.62119]}, "properties": {"id": "osm-node-346302820", "kind": "hafen", "name": "Marina Wiek", "area": "", "region": null, "land": "MV", "desc": null, "tags": [], "tel": "+49 38391 769722", "web": "http://www.marinawiek-ruegen.de", "source": "OpenStreetMap", "source_detail": "Overpass 2026-06-12", "quality": "unverified", "coord_quality": "exact"}}, {"type": "Feature", "geometry": {"type": "Point", "coordinates": [12.85286, 54.35327]}, "properties": {"id": "osm-node-351922816", "kind": "slip", "name": "Slipanlage", "area": "", "region": null, "land": "MV", "desc": null, "tags": [], "tel": null, "web": null, "source": "OpenStreetMap", "source_detail": "Overpass 2026-06-12", "quality": "unverified", "coord_quality": "exact"}}, {"type": "Feature", "geometry": {"type": "Point", "coordinates": [12.36467, 54.29437]}, "properties": {"id": "osm-node-358083776", "kind": "hafen", "name": "Wasserwanderrastplatz Dierhagen", "area": "", "region": null, "land": "MV", "desc": null, "tags": ["230V", "Trinkwasser", "Entsorgung"], "tel": "+49 38226 53787", "web": "https://www.ostseebad-dierhagen.de/dierhagen/die_haefen", "source": "OpenStreetMap", "source_detail": "Overpass 2026-06-12", "quality": "unverified", "coord_quality": "exact"}}, {"type": "Feature", "geometry": {"type": "Point", "coordinates": [12.1429, 54.17362]}, "properties": {"id": "osm-node-365099568", "kind": "hafen", "name": "Hafen Schnatermann", "area": "", "region": null, "land": "MV", "desc": null, "tags": [], "tel": "+49 381 699506", "web": "https://www.mein-ostseehafen.de/seegebiete/mecklenburg-vorpommern/mecklenburger-kueste/unterwarnow-bis-rostock/schnatermann.html", "source": "OpenStreetMap", "source_detail": "Overpass 2026-06-12", "quality": "unverified", "coord_quality": "exact"}}, {"type": "Feature", "geometry": {"type": "Point", "coordinates": [12.13757, 54.0935]}, "properties": {"id": "osm-node-365906729", "kind": "charter", "name": "Solarboot Verleih Conrad", "area": "", "region": null, "land": "MV", "desc": null, "tags": [], "tel": null, "web": "https://www.solarboot-mv.de/", "source": "OpenStreetMap", "source_detail": "Overpass 2026-06-12", "quality": "unverified", "coord_quality": "exact"}}, {"type": "Feature", "geometry": {"type": "Point", "coordinates": [11.43429, 53.90977]}, "properties": {"id": "osm-node-375830138", "kind": "slip", "name": "Slipanlage", "area": "", "region": null, "land": "MV", "desc": null, "tags": [], "tel": null, "web": null, "source": "OpenStreetMap", "source_detail": "Overpass 2026-06-12", "quality": "unverified", "coord_quality": "exact"}}, {"type": "Feature", "geometry": {"type": "Point", "coordinates": [13.45383, 53.30096]}, "properties": {"id": "osm-node-376036465", "kind": "badestelle", "name": "Badestelle", "area": "", "region": null, "land": "MV", "desc": null, "tags": [], "tel": null, "web": null, "source": "OpenStreetMap", "source_detail": "Overpass 2026-06-12", "quality": "unverified", "coord_quality": "exact"}}, {"type": "Feature", "geometry": {"type": "Point", "coordinates": [12.09768, 54.11708]}, "properties": {"id": "osm-node-385969783", "kind": "hafen", "name": "Dalben 28", "area": "", "region": null, "land": "MV", "desc": null, "tags": [], "tel": null, "web": null, "source": "OpenStreetMap", "source_detail": "Overpass 2026-06-12", "quality": "unverified", "coord_quality": "exact"}}, {"type": "Feature", "geometry": {"type": "Point", "coordinates": [12.99361, 54.2746]}, "properties": {"id": "osm-node-388203569", "kind": "schleuse", "name": "Schleuse", "area": "", "region": null, "land": "MV", "desc": null, "tags": [], "tel": null, "web": null, "source": "OpenStreetMap", "source_detail": "Overpass 2026-06-12", "quality": "unverified", "coord_quality": "exact"}}, {"type": "Feature", "geometry": {"type": "Point", "coordinates": [11.39267, 53.6111]}, "properties": {"id": "osm-node-391053517", "kind": "badestelle", "name": "Badestelle Kaspelwerder", "area": "", "region": null, "land": "MV", "desc": null, "tags": [], "tel": null, "web": null, "source": "OpenStreetMap", "source_detail": "Overpass 2026-06-12", "quality": "unverified", "coord_quality": "exact"}}, {"type": "Feature", "geometry": {"type": "Point", "coordinates": [12.92197, 53.18685]}, "properties": {"id": "osm-node-391525695", "kind": "hafen", "name": "Boot & Mehr", "area": "", "region": null, "land": "MV", "desc": null, "tags": ["230V"], "tel": null, "web": "http://www.bootundmehr.com", "source": "OpenStreetMap", "source_detail": "Overpass 2026-06-12", "quality": "unverified", "coord_quality": "exact"}}, {"type": "Feature", "geometry": {"type": "Point", "coordinates": [11.43618, 53.70516]}, "properties": {"id": "osm-node-392532511", "kind": "badestelle", "name": "Badestelle Hundorf", "area": "", "region": null, "land": "MV", "desc": null, "tags": [], "tel": null, "web": null, "source": "OpenStreetMap", "source_detail": "Overpass 2026-06-12", "quality": "unverified", "coord_quality": "exact"}}, {"type": "Feature", "geometry": {"type": "Point", "coordinates": [11.38148, 53.63344]}, "properties": {"id": "osm-node-400901562", "kind": "badestelle", "name": "Badestelle am Südufer", "area": "", "region": null, "land": "MV", "desc": null, "tags": [], "tel": null, "web": null, "source": "OpenStreetMap", "source_detail": "Overpass 2026-06-12", "quality": "unverified", "coord_quality": "exact"}}, {"type": "Feature", "geometry": {"type": "Point", "coordinates": [11.37173, 53.64363]}, "properties": {"id": "osm-node-400901955", "kind": "badestelle", "name": "Badestelle am Lankower See", "area": "", "region": null, "land": "MV", "desc": null, "tags": [], "tel": null, "web": null, "source": "OpenStreetMap", "source_detail": "Overpass 2026-06-12", "quality": "unverified", "coord_quality": "exact"}}, {"type": "Feature", "geometry": {"type": "Point", "coordinates": [12.39834, 54.3439]}, "properties": {"id": "osm-node-408467415", "kind": "hafen", "name": "Wasserwanderrastplatz Wustrow", "area": "", "region": null, "land": "MV", "desc": null, "tags": [], "tel": "+49 38220 82546", "web": null, "source": "OpenStreetMap", "source_detail": "Overpass 2026-06-12", "quality": "unverified", "coord_quality": "exact"}}, {"type": "Feature", "geometry": {"type": "Point", "coordinates": [13.97012, 53.77325]}, "properties": {"id": "osm-node-412357367", "kind": "hafen", "name": "Yachthafen Mönkebude", "area": "", "region": null, "land": "MV", "desc": null, "tags": [], "tel": "+49 3977429071", "web": "http://www.moenkebude.de/node/19", "source": "OpenStreetMap", "source_detail": "Overpass 2026-06-12", "quality": "unverified", "coord_quality": "exact"}}, {"type": "Feature", "geometry": {"type": "Point", "coordinates": [13.78345, 54.05802]}, "properties": {"id": "osm-node-417268143", "kind": "hafen", "name": "Marina Horn", "area": "", "region": null, "land": "MV", "desc": null, "tags": [], "tel": null, "web": null, "source": "OpenStreetMap", "source_detail": "Overpass 2026-06-12", "quality": "unverified", "coord_quality": "exact"}}, {"type": "Feature", "geometry": {"type": "Point", "coordinates": [12.90054, 53.84961]}, "properties": {"id": "osm-node-419356825", "kind": "charter", "name": "Boot- und Kanuverleih", "area": "", "region": null, "land": "MV", "desc": null, "tags": [], "tel": null, "web": null, "source": "OpenStreetMap", "source_detail": "Overpass 2026-06-12", "quality": "unverified", "coord_quality": "exact"}}, {"type": "Feature", "geometry": {"type": "Point", "coordinates": [12.88801, 53.84922]}, "properties": {"id": "osm-node-419356873", "kind": "hafen", "name": "Anglerverein", "area": "", "region": null, "land": "MV", "desc": null, "tags": [], "tel": null, "web": null, "source": "OpenStreetMap", "source_detail": "Overpass 2026-06-12", "quality": "unverified", "coord_quality": "exact"}}, {"type": "Feature", "geometry": {"type": "Point", "coordinates": [12.7278, 53.35583]}, "properties": {"id": "osm-node-420481337", "kind": "hafen", "name": "Marina Müritz", "area": "", "region": null, "land": "MV", "desc": null, "tags": ["230V", "Trinkwasser", "Entsorgung"], "tel": "+49 39823 2660", "web": "http://www.rundtoern-marinas.de/marina-mueritz/beschreibung-marina-mueritz.html", "source": "OpenStreetMap", "source_detail": "Overpass 2026-06-12", "quality": "unverified", "coord_quality": "exact"}}, {"type": "Feature", "geometry": {"type": "Point", "coordinates": [12.60986, 53.38354]}, "properties": {"id": "osm-node-420481357", "kind": "hafen", "name": "Röbel Stadthafen", "area": "", "region": null, "land": "MV", "desc": null, "tags": ["230V", "Trinkwasser"], "tel": "+49 39931 540474", "web": null, "source": "OpenStreetMap", "source_detail": "Overpass 2026-06-12", "quality": "unverified", "coord_quality": "exact"}}, {"type": "Feature", "geometry": {"type": "Point", "coordinates": [12.76004, 53.37191]}, "properties": {"id": "osm-node-420481480", "kind": "hafen", "name": "Bolter Kanal", "area": "", "region": null, "land": "MV", "desc": null, "tags": [], "tel": "+49 39823 2530", "web": "https://www.mueritz.com/campingplatz-bootshafen/preisliste-bootshafen/", "source": "OpenStreetMap", "source_detail": "Overpass 2026-06-12", "quality": "unverified", "coord_quality": "exact"}}, {"type": "Feature", "geometry": {"type": "Point", "coordinates": [13.03167, 54.43372]}, "properties": {"id": "osm-node-431042122", "kind": "hafen", "name": "Hafen Barhöft", "area": "", "region": null, "land": "MV", "desc": null, "tags": [], "tel": "+49 38323 531", "web": "https://www.sprenger-barhoeft-maritim.de/", "source": "OpenStreetMap", "source_detail": "Overpass 2026-06-12", "quality": "unverified", "coord_quality": "exact"}}, {"type": "Feature", "geometry": {"type": "Point", "coordinates": [13.46783, 54.57443]}, "properties": {"id": "osm-node-431042141", "kind": "hafen", "name": "Glowe Hafen", "area": "Glowe", "region": null, "land": "MV", "desc": null, "tags": [], "tel": "+49 38302 53445", "web": "http://www.hafen-glowe.de/", "source": "OpenStreetMap", "source_detail": "Overpass 2026-06-12", "quality": "unverified", "coord_quality": "exact"}}, {"type": "Feature", "geometry": {"type": "Point", "coordinates": [13.3837, 54.0993]}, "properties": {"id": "osm-node-431042142", "kind": "hafen", "name": "Greifswald", "area": "", "region": null, "land": "MV", "desc": null, "tags": [], "tel": null, "web": null, "source": "OpenStreetMap", "source_detail": "Overpass 2026-06-12", "quality": "unverified", "coord_quality": "exact"}}, {"type": "Feature", "geometry": {"type": "Point", "coordinates": [13.60793, 54.58466]}, "properties": {"id": "osm-node-431042146", "kind": "hafen", "name": "Yachthafen Lohme", "area": "", "region": null, "land": "MV", "desc": null, "tags": [], "tel": null, "web": "https://www.lohme.de/yachthafen/segeln-ostsee.html", "source": "OpenStreetMap", "source_detail": "Overpass 2026-06-12", "quality": "unverified", "coord_quality": "exact"}}, {"type": "Feature", "geometry": {"type": "Point", "coordinates": [13.85607, 53.95162]}, "properties": {"id": "osm-node-431045242", "kind": "hafen", "name": "Lassan", "area": "", "region": null, "land": "MV", "desc": null, "tags": [], "tel": null, "web": "https://lassan.eu/tourismus/hafen-lassan/", "source": "OpenStreetMap", "source_detail": "Overpass 2026-06-12", "quality": "unverified", "coord_quality": "exact"}}, {"type": "Feature", "geometry": {"type": "Point", "coordinates": [12.43558, 53.47422]}, "properties": {"id": "osm-node-431045351", "kind": "hafen", "name": "Wasserwander-Rastplatz Malchow", "area": "", "region": null, "land": "MV", "desc": null, "tags": ["230V", "Entsorgung"], "tel": "+49 39932 82477", "web": null, "source": "OpenStreetMap", "source_detail": "Overpass 2026-06-12", "quality": "unverified", "coord_quality": "exact"}}, {"type": "Feature", "geometry": {"type": "Point", "coordinates": [12.58625, 53.43266]}, "properties": {"id": "osm-node-431045356", "kind": "hafen", "name": "Sietow", "area": "", "region": null, "land": "MV", "desc": null, "tags": [], "tel": null, "web": null, "source": "OpenStreetMap", "source_detail": "Overpass 2026-06-12", "quality": "unverified", "coord_quality": "exact"}}, {"type": "Feature", "geometry": {"type": "Point", "coordinates": [12.58622, 54.44526]}, "properties": {"id": "osm-node-431045433", "kind": "hafen", "name": "Hafen Prerow", "area": "", "region": null, "land": "MV", "desc": null, "tags": [], "tel": "+49 38233 709958", "web": "https://www.fischland-darss-zingst.de/service/provider/details/stamm/show/hafen-und-wasserwanderrastplatz-prerow/", "source": "OpenStreetMap", "source_detail": "Overpass 2026-06-12", "quality": "unverified", "coord_quality": "exact"}}, {"type": "Feature", "geometry": {"type": "Point", "coordinates": [12.43534, 54.2456]}, "properties": {"id": "osm-node-431045438", "kind": "hafen", "name": "Ribnitz-Damgarten", "area": "", "region": null, "land": "MV", "desc": null, "tags": [], "tel": null, "web": null, "source": "OpenStreetMap", "source_detail": "Overpass 2026-06-12", "quality": "unverified", "coord_quality": "exact"}}, {"type": "Feature", "geometry": {"type": "Point", "coordinates": [11.42613, 53.62815]}, "properties": {"id": "osm-node-431045460", "kind": "hafen", "name": "Yachthafen Schwerin", "area": "", "region": null, "land": "MV", "desc": null, "tags": [], "tel": null, "web": null, "source": "OpenStreetMap", "source_detail": "Overpass 2026-06-12", "quality": "unverified", "coord_quality": "exact"}}, {"type": "Feature", "geometry": {"type": "Point", "coordinates": [11.77074, 54.15318]}, "properties": {"id": "osm-node-431046927", "kind": "hafen", "name": "Sportboothafen Kühlungsborn", "area": "", "region": null, "land": "MV", "desc": null, "tags": ["Entsorgung"], "tel": "+49 38293 41055", "web": "https://www.bootshafen-kuehlungsborn.de/", "source": "OpenStreetMap", "source_detail": "Overpass 2026-06-12", "quality": "unverified", "coord_quality": "exact"}}, {"type": "Feature", "geometry": {"type": "Point", "coordinates": [13.09307, 54.52396]}, "properties": {"id": "osm-node-431049789", "kind": "hafen", "name": "Hafen Neuendorf (Hiddensee)", "area": "", "region": null, "land": "MV", "desc": null, "tags": [], "tel": "+49 38300 50378", "web": null, "source": "OpenStreetMap", "source_detail": "Overpass 2026-06-12", "quality": "unverified", "coord_quality": "exact"}}, {"type": "Feature", "geometry": {"type": "Point", "coordinates": [13.10872, 54.56863]}, "properties": {"id": "osm-node-431049796", "kind": "hafen", "name": "Kommunalhafen Vitte", "area": "", "region": null, "land": "MV", "desc": null, "tags": ["230V", "Trinkwasser"], "tel": null, "web": null, "source": "OpenStreetMap", "source_detail": "Overpass 2026-06-12", "quality": "unverified", "coord_quality": "exact"}}, {"type": "Feature", "geometry": {"type": "Point", "coordinates": [13.10039, 54.31106]}, "properties": {"id": "osm-node-431049949", "kind": "hafen", "name": "Anglerverein Flotthafen Stralsund e. V.", "area": "Stralsund", "region": null, "land": "MV", "desc": null, "tags": [], "tel": null, "web": null, "source": "OpenStreetMap", "source_detail": "Overpass 2026-06-12", "quality": "unverified", "coord_quality": "exact"}}, {"type": "Feature", "geometry": {"type": "Point", "coordinates": [13.85829, 53.84434]}, "properties": {"id": "osm-node-431050028", "kind": "hafen", "name": "Karnin", "area": "", "region": null, "land": "MV", "desc": null, "tags": [], "tel": null, "web": "https://www.mv-ostsee.de/insel-usedom/karnin/hafen.html", "source": "OpenStreetMap", "source_detail": "Overpass 2026-06-12", "quality": "unverified", "coord_quality": "exact"}}, {"type": "Feature", "geometry": {"type": "Point", "coordinates": [14.04838, 53.7423]}, "properties": {"id": "osm-node-431050057", "kind": "hafen", "name": "Ueckermünde", "area": "", "region": null, "land": "MV", "desc": null, "tags": [], "tel": null, "web": "https://www.yachtclub-ueckermuende.de/", "source": "OpenStreetMap", "source_detail": "Overpass 2026-06-12", "quality": "unverified", "coord_quality": "exact"}}, {"type": "Feature", "geometry": {"type": "Point", "coordinates": [10.715, 53.37551]}, "properties": {"id": "osm-node-431056245", "kind": "hafen", "name": "Boizenburg", "area": "", "region": null, "land": "MV", "desc": null, "tags": [], "tel": null, "web": null, "source": "OpenStreetMap", "source_detail": "Overpass 2026-06-12", "quality": "unverified", "coord_quality": "exact"}}, {"type": "Feature", "geometry": {"type": "Point", "coordinates": [11.25911, 53.13826]}, "properties": {"id": "osm-node-431057011", "kind": "hafen", "name": "Hafen Dömitz", "area": "", "region": null, "land": "MV", "desc": null, "tags": [], "tel": "+49 172 1015005", "web": null, "source": "OpenStreetMap", "source_detail": "Overpass 2026-06-12", "quality": "unverified", "coord_quality": "exact"}}, {"type": "Feature", "geometry": {"type": "Point", "coordinates": [12.72887, 54.37181]}, "properties": {"id": "osm-node-431059918", "kind": "hafen", "name": "Barth", "area": "", "region": null, "land": "MV", "desc": null, "tags": [], "tel": null, "web": null, "source": "OpenStreetMap", "source_detail": "Overpass 2026-06-12", "quality": "unverified", "coord_quality": "exact"}}, {"type": "Feature", "geometry": {"type": "Point", "coordinates": [12.6875, 54.42987]}, "properties": {"id": "osm-node-431060833", "kind": "hafen", "name": "Kloss Hafen", "area": "", "region": null, "land": "MV", "desc": null, "tags": [], "tel": null, "web": null, "source": "OpenStreetMap", "source_detail": "Overpass 2026-06-12", "quality": "unverified", "coord_quality": "exact"}}, {"type": "Feature", "geometry": {"type": "Point", "coordinates": [13.45363, 54.0958]}, "properties": {"id": "osm-node-431060837", "kind": "hafen", "name": "Hafen Wieck (bei Greifswald)", "area": "", "region": null, "land": "MV", "desc": null, "tags": [], "tel": null, "web": null, "source": "OpenStreetMap", "source_detail": "Overpass 2026-06-12", "quality": "unverified", "coord_quality": "exact"}}, {"type": "Feature", "geometry": {"type": "Point", "coordinates": [13.09932, 54.31469]}, "properties": {"id": "osm-node-431061192", "kind": "tank", "name": "Sundtank", "area": "", "region": null, "land": "MV", "desc": null, "tags": [], "tel": null, "web": null, "source": "OpenStreetMap", "source_detail": "Overpass 2026-06-12", "quality": "unverified", "coord_quality": "exact"}}, {"type": "Feature", "geometry": {"type": "Point", "coordinates": [13.4385, 54.09512]}, "properties": {"id": "osm-node-431061456", "kind": "tank", "name": "Bootstankstelle", "area": "", "region": null, "land": "MV", "desc": null, "tags": [], "tel": null, "web": null, "source": "OpenStreetMap", "source_detail": "Overpass 2026-06-12", "quality": "unverified", "coord_quality": "exact"}}, {"type": "Feature", "geometry": {"type": "Point", "coordinates": [13.16613, 54.51237]}, "properties": {"id": "osm-node-431065018", "kind": "tank", "name": "Bunkerstation Schaprode", "area": "", "region": null, "land": "MV", "desc": null, "tags": [], "tel": "+49 38309 1209", "web": null, "source": "OpenStreetMap", "source_detail": "Overpass 2026-06-12", "quality": "unverified", "coord_quality": "exact"}}, {"type": "Feature", "geometry": {"type": "Point", "coordinates": [12.68986, 53.51048]}, "properties": {"id": "osm-node-431066285", "kind": "tank", "name": "Bootstankstelle Waren", "area": "", "region": null, "land": "MV", "desc": null, "tags": [], "tel": "+49 172 6426918", "web": null, "source": "OpenStreetMap", "source_detail": "Overpass 2026-06-12", "quality": "unverified", "coord_quality": "exact"}}, {"type": "Feature", "geometry": {"type": "Point", "coordinates": [11.42299, 53.62907]}, "properties": {"id": "osm-node-431072667", "kind": "hafen", "name": "SV Theater", "area": "", "region": null, "land": "MV", "desc": null, "tags": [], "tel": null, "web": null, "source": "OpenStreetMap", "source_detail": "Overpass 2026-06-12", "quality": "unverified", "coord_quality": "exact"}}, {"type": "Feature", "geometry": {"type": "Point", "coordinates": [11.47476, 53.60091]}, "properties": {"id": "osm-node-431072678", "kind": "hafen", "name": "Mueßer Bucht", "area": "", "region": null, "land": "MV", "desc": null, "tags": [], "tel": null, "web": null, "source": "OpenStreetMap", "source_detail": "Overpass 2026-06-12", "quality": "unverified", "coord_quality": "exact"}}, {"type": "Feature", "geometry": {"type": "Point", "coordinates": [11.45114, 53.67755]}, "properties": {"id": "osm-node-431072685", "kind": "hafen", "name": "Yachthafen Paulsdamm", "area": "", "region": null, "land": "MV", "desc": null, "tags": [], "tel": "+49 172 3240652", "web": "http://www.yachthafen-paulsdamm.de", "source": "OpenStreetMap", "source_detail": "Overpass 2026-06-12", "quality": "unverified", "coord_quality": "exact"}}, {"type": "Feature", "geometry": {"type": "Point", "coordinates": [11.46663, 53.61594]}, "properties": {"id": "osm-node-431072690", "kind": "hafen", "name": "Sportboothafen Kaninchenwerder", "area": "", "region": null, "land": "MV", "desc": null, "tags": [], "tel": null, "web": null, "source": "OpenStreetMap", "source_detail": "Overpass 2026-06-12", "quality": "unverified", "coord_quality": "exact"}}, {"type": "Feature", "geometry": {"type": "Point", "coordinates": [11.46657, 53.62132]}, "properties": {"id": "osm-node-431072694", "kind": "badestelle", "name": "Badestelle Kaninchenwerder", "area": "", "region": null, "land": "MV", "desc": null, "tags": [], "tel": null, "web": null, "source": "OpenStreetMap", "source_detail": "Overpass 2026-06-12", "quality": "unverified", "coord_quality": "exact"}}, {"type": "Feature", "geometry": {"type": "Point", "coordinates": [11.49936, 53.60425]}, "properties": {"id": "osm-node-431072699", "kind": "hafen", "name": "Sportboothafen Süduferperle", "area": "", "region": null, "land": "MV", "desc": null, "tags": [], "tel": null, "web": null, "source": "OpenStreetMap", "source_detail": "Overpass 2026-06-12", "quality": "unverified", "coord_quality": "exact"}}, {"type": "Feature", "geometry": {"type": "Point", "coordinates": [12.79606, 53.28874]}, "properties": {"id": "osm-node-431078132", "kind": "charter", "name": "Kanustation Mirow", "area": "Mirow", "region": null, "land": "MV", "desc": null, "tags": [], "tel": null, "web": null, "source": "OpenStreetMap", "source_detail": "Overpass 2026-06-12", "quality": "unverified", "coord_quality": "exact"}}, {"type": "Feature", "geometry": {"type": "Point", "coordinates": [13.05479, 53.36459]}, "properties": {"id": "osm-node-431078140", "kind": "hafen", "name": "Stadthafen Neustrelitz", "area": "", "region": null, "land": "MV", "desc": null, "tags": [], "tel": "+49 3981 262996", "web": "https://www.neustrelitz.de/stadthafen-1252-6-243-419-429.html", "source": "OpenStreetMap", "source_detail": "Overpass 2026-06-12", "quality": "unverified", "coord_quality": "exact"}}, {"type": "Feature", "geometry": {"type": "Point", "coordinates": [12.98495, 53.28]}, "properties": {"id": "osm-node-431078160", "kind": "charter", "name": "Kanumühle Wesenberg", "area": "", "region": null, "land": "MV", "desc": null, "tags": [], "tel": "+49 39832 203 50", "web": "https://www.kanu-muehle.de/", "source": "OpenStreetMap", "source_detail": "Overpass 2026-06-12", "quality": "unverified", "coord_quality": "exact"}}, {"type": "Feature", "geometry": {"type": "Point", "coordinates": [12.35156, 53.46716]}, "properties": {"id": "osm-node-431078254", "kind": "tank", "name": "Susanne Malow", "area": "Fünfseen", "region": null, "land": "MV", "desc": null, "tags": [], "tel": "+49 171 4018739", "web": "https://malow.de/lenzer-hafen/", "source": "OpenStreetMap", "source_detail": "Overpass 2026-06-12", "quality": "unverified", "coord_quality": "exact"}}, {"type": "Feature", "geometry": {"type": "Point", "coordinates": [12.64905, 53.27487]}, "properties": {"id": "osm-node-431078413", "kind": "hafen", "name": "Marina Buchholz", "area": "", "region": null, "land": "MV", "desc": null, "tags": [], "tel": "+49 3991 181670", "web": "https://www.marina-buchholz.de/", "source": "OpenStreetMap", "source_detail": "Overpass 2026-06-12", "quality": "unverified", "coord_quality": "exact"}}, {"type": "Feature", "geometry": {"type": "Point", "coordinates": [13.03176, 53.21545]}, "properties": {"id": "osm-node-431080258", "kind": "hafen", "name": "Yachthafen Priepert", "area": "", "region": null, "land": "MV", "desc": null, "tags": ["230V", "Entsorgung"], "tel": "+49 173 3194225; +49 39828 20430", "web": "https://www.yachthafenpriepert.de", "source": "OpenStreetMap", "source_detail": "Overpass 2026-06-12", "quality": "unverified", "coord_quality": "exact"}}, {"type": "Feature", "geometry": {"type": "Point", "coordinates": [12.63344, 53.50803]}, "properties": {"id": "osm-node-431083916", "kind": "hafen", "name": "Marina Eldenburg", "area": "", "region": null, "land": "MV", "desc": null, "tags": [], "tel": "+49 3991 1234000", "web": "https://www.marina-eldenburg.de/", "source": "OpenStreetMap", "source_detail": "Overpass 2026-06-12", "quality": "unverified", "coord_quality": "exact"}}, {"type": "Feature", "geometry": {"type": "Point", "coordinates": [12.98628, 53.27657]}, "properties": {"id": "osm-node-431087109", "kind": "hafen", "name": "Marina Wesenberg", "area": "", "region": null, "land": "MV", "desc": null, "tags": ["230V", "Entsorgung"], "tel": "+49 39832 260 23", "web": "https://www.marina-wesenberg.de/", "source": "OpenStreetMap", "source_detail": "Overpass 2026-06-12", "quality": "unverified", "coord_quality": "exact"}}, {"type": "Feature", "geometry": {"type": "Point", "coordinates": [12.97509, 53.2805]}, "properties": {"id": "osm-node-431087562", "kind": "hafen", "name": "Wasserwanderrastplatz Wesenberg", "area": "", "region": null, "land": "MV", "desc": null, "tags": ["230V", "Trinkwasser", "Entsorgung"], "tel": "+49 174 1787459", "web": "https://www.klein-seenplatte.de/poi/poi/wasserwanderrastplatz-wesenberg-sportboothafen.html", "source": "OpenStreetMap", "source_detail": "Overpass 2026-06-12", "quality": "unverified", "coord_quality": "exact"}}, {"type": "Feature", "geometry": {"type": "Point", "coordinates": [13.35506, 54.61225]}, "properties": {"id": "osm-node-431326250", "kind": "tank", "name": "Sundtank GmbH", "area": "", "region": null, "land": "MV", "desc": null, "tags": [], "tel": "+49 381 280380", "web": null, "source": "OpenStreetMap", "source_detail": "Overpass 2026-06-12", "quality": "unverified", "coord_quality": "exact"}}, {"type": "Feature", "geometry": {"type": "Point", "coordinates": [12.96641, 53.32242]}, "properties": {"id": "osm-node-440604248", "kind": "badestelle", "name": "Badestelle", "area": "", "region": null, "land": "MV", "desc": null, "tags": [], "tel": null, "web": null, "source": "OpenStreetMap", "source_detail": "Overpass 2026-06-12", "quality": "unverified", "coord_quality": "exact"}}, {"type": "Feature", "geometry": {"type": "Point", "coordinates": [11.37451, 53.19235]}, "properties": {"id": "osm-node-442666038", "kind": "hafen", "name": "Hafen Neu Göhren", "area": "", "region": null, "land": "MV", "desc": null, "tags": [], "tel": null, "web": null, "source": "OpenStreetMap", "source_detail": "Overpass 2026-06-12", "quality": "unverified", "coord_quality": "exact"}}, {"type": "Feature", "geometry": {"type": "Point", "coordinates": [13.00884, 53.20778]}, "properties": {"id": "osm-node-442668958", "kind": "hafen", "name": "Ferienpark am Ellbogensee (Privater Anleger)", "area": "", "region": null, "land": "MV", "desc": null, "tags": [], "tel": "+49 39828 259150", "web": "https://www.ferienpark-am-see.de/", "source": "OpenStreetMap", "source_detail": "Overpass 2026-06-12", "quality": "unverified", "coord_quality": "exact"}}, {"type": "Feature", "geometry": {"type": "Point", "coordinates": [13.00973, 53.20684]}, "properties": {"id": "osm-node-442668962", "kind": "hafen", "name": "Naturferiendorf Strasen", "area": "", "region": null, "land": "MV", "desc": null, "tags": [], "tel": "+49 3843 215505", "web": "http://www.marina-strasen.de", "source": "OpenStreetMap", "source_detail": "Overpass 2026-06-12", "quality": "unverified", "coord_quality": "exact"}}, {"type": "Feature", "geometry": {"type": "Point", "coordinates": [10.71531, 53.37553]}, "properties": {"id": "osm-node-445310688", "kind": "hafen", "name": "Boizenburg Hafen", "area": "", "region": null, "land": "MV", "desc": null, "tags": [], "tel": "+49 38847 50461", "web": null, "source": "OpenStreetMap", "source_detail": "Overpass 2026-06-12", "quality": "unverified", "coord_quality": "exact"}}, {"type": "Feature", "geometry": {"type": "Point", "coordinates": [12.98891, 53.28192]}, "properties": {"id": "osm-node-455232089", "kind": "slip", "name": "Wesenberg, Badestelle am Woblitzsee", "area": "", "region": null, "land": "MV", "desc": null, "tags": ["kostenlos"], "tel": null, "web": null, "source": "OpenStreetMap", "source_detail": "Overpass 2026-06-12", "quality": "unverified", "coord_quality": "exact"}}, {"type": "Feature", "geometry": {"type": "Point", "coordinates": [12.97931, 53.28239]}, "properties": {"id": "osm-node-455232489", "kind": "slip", "name": "Slipanlage", "area": "", "region": null, "land": "MV", "desc": null, "tags": [], "tel": null, "web": null, "source": "OpenStreetMap", "source_detail": "Overpass 2026-06-12", "quality": "unverified", "coord_quality": "exact"}}, {"type": "Feature", "geometry": {"type": "Point", "coordinates": [14.03711, 53.94059]}, "properties": {"id": "osm-node-460374404", "kind": "slip", "name": "Slipanlage", "area": "", "region": null, "land": "MV", "desc": null, "tags": [], "tel": null, "web": null, "source": "OpenStreetMap", "source_detail": "Overpass 2026-06-12", "quality": "unverified", "coord_quality": "exact"}}, {"type": "Feature", "geometry": {"type": "Point", "coordinates": [12.42932, 54.24599]}, "properties": {"id": "osm-node-471100597", "kind": "slip", "name": "Slipanlage", "area": "", "region": null, "land": "MV", "desc": null, "tags": ["kostenlos"], "tel": null, "web": null, "source": "OpenStreetMap", "source_detail": "Overpass 2026-06-12", "quality": "unverified", "coord_quality": "exact"}}, {"type": "Feature", "geometry": {"type": "Point", "coordinates": [12.88862, 53.84829]}, "properties": {"id": "osm-node-474495847", "kind": "slip", "name": "Slipanlage", "area": "", "region": null, "land": "MV", "desc": null, "tags": [], "tel": null, "web": null, "source": "OpenStreetMap", "source_detail": "Overpass 2026-06-12", "quality": "unverified", "coord_quality": "exact"}}, {"type": "Feature", "geometry": {"type": "Point", "coordinates": [12.99435, 53.9277]}, "properties": {"id": "osm-node-476283179", "kind": "slip", "name": "Slipanlage", "area": "", "region": null, "land": "MV", "desc": null, "tags": [], "tel": null, "web": null, "source": "OpenStreetMap", "source_detail": "Overpass 2026-06-12", "quality": "unverified", "coord_quality": "exact"}}, {"type": "Feature", "geometry": {"type": "Point", "coordinates": [13.02828, 53.90381]}, "properties": {"id": "osm-node-476292557", "kind": "slip", "name": "Slipanlage", "area": "", "region": null, "land": "MV", "desc": null, "tags": [], "tel": null, "web": null, "source": "OpenStreetMap", "source_detail": "Overpass 2026-06-12", "quality": "unverified", "coord_quality": "exact"}}, {"type": "Feature", "geometry": {"type": "Point", "coordinates": [13.44818, 54.47448]}, "properties": {"id": "osm-node-480288401", "kind": "slip", "name": "Slipanlage", "area": "", "region": null, "land": "MV", "desc": null, "tags": [], "tel": null, "web": null, "source": "OpenStreetMap", "source_detail": "Overpass 2026-06-12", "quality": "unverified", "coord_quality": "exact"}}, {"type": "Feature", "geometry": {"type": "Point", "coordinates": [12.72534, 54.37213]}, "properties": {"id": "osm-node-480405854", "kind": "slip", "name": "Slipanlage", "area": "", "region": null, "land": "MV", "desc": null, "tags": [], "tel": null, "web": null, "source": "OpenStreetMap", "source_detail": "Overpass 2026-06-12", "quality": "unverified", "coord_quality": "exact"}}, {"type": "Feature", "geometry": {"type": "Point", "coordinates": [12.72093, 54.37075]}, "properties": {"id": "osm-node-480405855", "kind": "slip", "name": "Slipanlage", "area": "", "region": null, "land": "MV", "desc": null, "tags": [], "tel": null, "web": null, "source": "OpenStreetMap", "source_detail": "Overpass 2026-06-12", "quality": "unverified", "coord_quality": "exact"}}, {"type": "Feature", "geometry": {"type": "Point", "coordinates": [13.78257, 54.05676]}, "properties": {"id": "osm-node-480438621", "kind": "slip", "name": "Slipanlage", "area": "", "region": null, "land": "MV", "desc": null, "tags": [], "tel": null, "web": null, "source": "OpenStreetMap", "source_detail": "Overpass 2026-06-12", "quality": "unverified", "coord_quality": "exact"}}, {"type": "Feature", "geometry": {"type": "Point", "coordinates": [13.85594, 53.95089]}, "properties": {"id": "osm-node-480464732", "kind": "slip", "name": "Slipanlage", "area": "", "region": null, "land": "MV", "desc": null, "tags": [], "tel": null, "web": null, "source": "OpenStreetMap", "source_detail": "Overpass 2026-06-12", "quality": "unverified", "coord_quality": "exact"}}, {"type": "Feature", "geometry": {"type": "Point", "coordinates": [13.12187, 54.30501]}, "properties": {"id": "osm-node-482745853", "kind": "hafen", "name": "Dänholm", "area": "", "region": null, "land": "MV", "desc": null, "tags": [], "tel": null, "web": null, "source": "OpenStreetMap", "source_detail": "Overpass 2026-06-12", "quality": "unverified", "coord_quality": "exact"}}, {"type": "Feature", "geometry": {"type": "Point", "coordinates": [13.11965, 54.30556]}, "properties": {"id": "osm-node-482745857", "kind": "slip", "name": "Slip Yachtclub Strelasund", "area": "", "region": null, "land": "MV", "desc": null, "tags": [], "tel": null, "web": null, "source": "OpenStreetMap", "source_detail": "Overpass 2026-06-12", "quality": "unverified", "coord_quality": "exact"}}, {"type": "Feature", "geometry": {"type": "Point", "coordinates": [13.12438, 54.30477]}, "properties": {"id": "osm-node-482745867", "kind": "slip", "name": "Slip Segelschule Dänholm", "area": "", "region": null, "land": "MV", "desc": null, "tags": [], "tel": null, "web": null, "source": "OpenStreetMap", "source_detail": "Overpass 2026-06-12", "quality": "unverified", "coord_quality": "exact"}}, {"type": "Feature", "geometry": {"type": "Point", "coordinates": [12.09319, 54.10852]}, "properties": {"id": "osm-node-489958643", "kind": "hafen", "name": "Marina Bramow", "area": "", "region": null, "land": "MV", "desc": null, "tags": [], "tel": "+49 151 15282473", "web": "https://www.sab-marina-bramow.de/index.htm", "source": "OpenStreetMap", "source_detail": "Overpass 2026-06-12", "quality": "unverified", "coord_quality": "exact"}}, {"type": "Feature", "geometry": {"type": "Point", "coordinates": [12.10091, 54.11115]}, "properties": {"id": "osm-node-489958661", "kind": "hafen", "name": "Schwimmsteg Gehlsdorf", "area": "", "region": null, "land": "MV", "desc": null, "tags": [], "tel": null, "web": null, "source": "OpenStreetMap", "source_detail": "Overpass 2026-06-12", "quality": "unverified", "coord_quality": "exact"}}, {"type": "Feature", "geometry": {"type": "Point", "coordinates": [12.11915, 54.09421]}, "properties": {"id": "osm-node-490056515", "kind": "hafen", "name": "Schwimmsteg Stadthafen", "area": "", "region": null, "land": "MV", "desc": null, "tags": [], "tel": "+49 381 45670", "web": "https://www.wiro.de/mieten/bootsliegeplaetze.html", "source": "OpenStreetMap", "source_detail": "Overpass 2026-06-12", "quality": "unverified", "coord_quality": "exact"}}, {"type": "Feature", "geometry": {"type": "Point", "coordinates": [12.1372, 54.09336]}, "properties": {"id": "osm-node-490142438", "kind": "hafen", "name": "Stadthafen Rostock", "area": "", "region": null, "land": "MV", "desc": null, "tags": [], "tel": "+49 172 5456301", "web": "https://www.mein-ostseehafen.de/seegebiete/mecklenburg-vorpommern/mecklenburger-kueste/unterwarnow-bis-rostock/stadthafen-ost.html", "source": "OpenStreetMap", "source_detail": "Overpass 2026-06-12", "quality": "unverified", "coord_quality": "exact"}}, {"type": "Feature", "geometry": {"type": "Point", "coordinates": [11.44275, 53.99561]}, "properties": {"id": "osm-node-491476392", "kind": "slip", "name": "Slipanlage", "area": "", "region": null, "land": "MV", "desc": null, "tags": [], "tel": null, "web": null, "source": "OpenStreetMap", "source_detail": "Overpass 2026-06-12", "quality": "unverified", "coord_quality": "exact"}}, {"type": "Feature", "geometry": {"type": "Point", "coordinates": [11.28361, 53.12355]}, "properties": {"id": "osm-node-493292294", "kind": "badestelle", "name": "Badestelle Baggerkuhle", "area": "", "region": null, "land": "MV", "desc": null, "tags": [], "tel": null, "web": null, "source": "OpenStreetMap", "source_detail": "Overpass 2026-06-12", "quality": "unverified", "coord_quality": "exact"}}, {"type": "Feature", "geometry": {"type": "Point", "coordinates": [12.63425, 53.48659]}, "properties": {"id": "osm-node-493911820", "kind": "hafen", "name": "Hafen der Müritz Hotel GmbH", "area": "", "region": null, "land": "MV", "desc": null, "tags": ["230V", "Trinkwasser"], "tel": null, "web": "https://waren-hotels.de/", "source": "OpenStreetMap", "source_detail": "Overpass 2026-06-12", "quality": "unverified", "coord_quality": "exact"}}, {"type": "Feature", "geometry": {"type": "Point", "coordinates": [11.30455, 53.18049]}, "properties": {"id": "osm-node-496101821", "kind": "badestelle", "name": "Badestelle Neu Kaliß, Elde-Seitenkanal", "area": "", "region": null, "land": "MV", "desc": null, "tags": [], "tel": null, "web": null, "source": "OpenStreetMap", "source_detail": "Overpass 2026-06-12", "quality": "unverified", "coord_quality": "exact"}}, {"type": "Feature", "geometry": {"type": "Point", "coordinates": [10.92477, 53.5468]}, "properties": {"id": "osm-node-496105474", "kind": "badestelle", "name": "Badestelle am Schaalsee", "area": "", "region": null, "land": "MV", "desc": null, "tags": [], "tel": null, "web": "https://www.zarrentin.de/schwimmen.html", "source": "OpenStreetMap", "source_detail": "Overpass 2026-06-12", "quality": "unverified", "coord_quality": "exact"}}, {"type": "Feature", "geometry": {"type": "Point", "coordinates": [11.29831, 53.48277]}, "properties": {"id": "osm-node-496109584", "kind": "badestelle", "name": "Badestelle Wasserskianlage Zachun", "area": "", "region": null, "land": "MV", "desc": null, "tags": [], "tel": null, "web": null, "source": "OpenStreetMap", "source_detail": "Overpass 2026-06-12", "quality": "unverified", "coord_quality": "exact"}}, {"type": "Feature", "geometry": {"type": "Point", "coordinates": [11.43561, 53.90847]}, "properties": {"id": "osm-node-506455913", "kind": "slip", "name": "Slipanlage", "area": "", "region": null, "land": "MV", "desc": null, "tags": [], "tel": null, "web": null, "source": "OpenStreetMap", "source_detail": "Overpass 2026-06-12", "quality": "unverified", "coord_quality": "exact"}}, {"type": "Feature", "geometry": {"type": "Point", "coordinates": [11.43509, 53.9092]}, "properties": {"id": "osm-node-506457689", "kind": "slip", "name": "Slipanlage", "area": "", "region": null, "land": "MV", "desc": null, "tags": [], "tel": null, "web": null, "source": "OpenStreetMap", "source_detail": "Overpass 2026-06-12", "quality": "unverified", "coord_quality": "exact"}}, {"type": "Feature", "geometry": {"type": "Point", "coordinates": [11.47902, 53.76802]}, "properties": {"id": "osm-node-510597935", "kind": "hafen", "name": "Marina Bad Kleinen", "area": "", "region": null, "land": "MV", "desc": null, "tags": [], "tel": null, "web": "https://www.heimathafen-bad-kleinen.de/", "source": "OpenStreetMap", "source_detail": "Overpass 2026-06-12", "quality": "unverified", "coord_quality": "exact"}}, {"type": "Feature", "geometry": {"type": "Point", "coordinates": [11.31821, 53.12545]}, "properties": {"id": "osm-node-521475312", "kind": "badestelle", "name": "Badestelle Schmölner Brack", "area": "", "region": null, "land": "MV", "desc": null, "tags": [], "tel": null, "web": null, "source": "OpenStreetMap", "source_detail": "Overpass 2026-06-12", "quality": "unverified", "coord_quality": "exact"}}, {"type": "Feature", "geometry": {"type": "Point", "coordinates": [10.98238, 53.59191]}, "properties": {"id": "osm-node-521543127", "kind": "badestelle", "name": "Badestelle Neuenkirchener See", "area": "", "region": null, "land": "MV", "desc": null, "tags": [], "tel": null, "web": null, "source": "OpenStreetMap", "source_detail": "Overpass 2026-06-12", "quality": "unverified", "coord_quality": "exact"}}, {"type": "Feature", "geometry": {"type": "Point", "coordinates": [13.03734, 53.2192]}, "properties": {"id": "osm-node-534164398", "kind": "charter", "name": "Kanustation Priepert", "area": "", "region": null, "land": "MV", "desc": null, "tags": [], "tel": null, "web": "https://www.priepertsee.de/index.php/infos-zur-station", "source": "OpenStreetMap", "source_detail": "Overpass 2026-06-12", "quality": "unverified", "coord_quality": "exact"}}, {"type": "Feature", "geometry": {"type": "Point", "coordinates": [11.38418, 53.64233]}, "properties": {"id": "osm-node-564613007", "kind": "badestelle", "name": "Badestelle Lankower See", "area": "", "region": null, "land": "MV", "desc": null, "tags": [], "tel": null, "web": null, "source": "OpenStreetMap", "source_detail": "Overpass 2026-06-12", "quality": "unverified", "coord_quality": "exact"}}, {"type": "Feature", "geometry": {"type": "Point", "coordinates": [11.34669, 53.63994]}, "properties": {"id": "osm-node-568990865", "kind": "badestelle", "name": "Badestelle", "area": "", "region": null, "land": "MV", "desc": null, "tags": [], "tel": null, "web": null, "source": "OpenStreetMap", "source_detail": "Overpass 2026-06-12", "quality": "unverified", "coord_quality": "exact"}}, {"type": "Feature", "geometry": {"type": "Point", "coordinates": [12.06134, 53.69194]}, "properties": {"id": "osm-node-597669070", "kind": "slip", "name": "Slipanlage", "area": "", "region": null, "land": "MV", "desc": null, "tags": [], "tel": null, "web": null, "source": "OpenStreetMap", "source_detail": "Overpass 2026-06-12", "quality": "unverified", "coord_quality": "exact"}}, {"type": "Feature", "geometry": {"type": "Point", "coordinates": [11.35489, 53.62704]}, "properties": {"id": "osm-node-605290484", "kind": "badestelle", "name": "Badestelle", "area": "", "region": null, "land": "MV", "desc": null, "tags": [], "tel": null, "web": null, "source": "OpenStreetMap", "source_detail": "Overpass 2026-06-12", "quality": "unverified", "coord_quality": "exact"}}, {"type": "Feature", "geometry": {"type": "Point", "coordinates": [12.10075, 54.18082]}, "properties": {"id": "osm-node-609126626", "kind": "charter", "name": "MOLA Yachting", "area": "", "region": null, "land": "MV", "desc": null, "tags": [], "tel": "+49 38391 4320", "web": "https://www.mola-yachtcharter-ostsee.de/", "source": "OpenStreetMap", "source_detail": "Overpass 2026-06-12", "quality": "unverified", "coord_quality": "exact"}}, {"type": "Feature", "geometry": {"type": "Point", "coordinates": [11.42496, 53.72181]}, "properties": {"id": "osm-node-611353922", "kind": "slip", "name": "Slipanlage", "area": "", "region": null, "land": "MV", "desc": null, "tags": [], "tel": null, "web": null, "source": "OpenStreetMap", "source_detail": "Overpass 2026-06-12", "quality": "unverified", "coord_quality": "exact"}}, {"type": "Feature", "geometry": {"type": "Point", "coordinates": [12.80617, 53.30067]}, "properties": {"id": "osm-node-633332294", "kind": "slip", "name": "Slipanlage", "area": "", "region": null, "land": "MV", "desc": null, "tags": [], "tel": null, "web": null, "source": "OpenStreetMap", "source_detail": "Overpass 2026-06-12", "quality": "unverified", "coord_quality": "exact"}}, {"type": "Feature", "geometry": {"type": "Point", "coordinates": [11.70098, 53.86427]}, "properties": {"id": "osm-node-672791452", "kind": "charter", "name": "Ankerplatz am Neuklostersee", "area": "", "region": null, "land": "MV", "desc": null, "tags": [], "tel": null, "web": null, "source": "OpenStreetMap", "source_detail": "Overpass 2026-06-12", "quality": "unverified", "coord_quality": "exact"}}, {"type": "Feature", "geometry": {"type": "Point", "coordinates": [11.26068, 53.14223]}, "properties": {"id": "osm-node-674133513", "kind": "hafen", "name": "Wasserwanderzentrum Dömitz", "area": "", "region": null, "land": "MV", "desc": null, "tags": [], "tel": "+49 151 52019020; +49 38758 22744", "web": "https://www.wwz-doemitz.de/", "source": "OpenStreetMap", "source_detail": "Overpass 2026-06-12", "quality": "unverified", "coord_quality": "exact"}}, {"type": "Feature", "geometry": {"type": "Point", "coordinates": [12.54089, 54.34361]}, "properties": {"id": "osm-node-691750039", "kind": "slip", "name": "Slipanlage", "area": "", "region": null, "land": "MV", "desc": null, "tags": [], "tel": null, "web": null, "source": "OpenStreetMap", "source_detail": "Overpass 2026-06-12", "quality": "unverified", "coord_quality": "exact"}}, {"type": "Feature", "geometry": {"type": "Point", "coordinates": [11.40303, 53.61034]}, "properties": {"id": "osm-node-695680801", "kind": "badestelle", "name": "Badestelle Stadion Krösnitz", "area": "", "region": null, "land": "MV", "desc": null, "tags": [], "tel": null, "web": null, "source": "OpenStreetMap", "source_detail": "Overpass 2026-06-12", "quality": "unverified", "coord_quality": "exact"}}, {"type": "Feature", "geometry": {"type": "Point", "coordinates": [13.43514, 53.3363]}, "properties": {"id": "osm-node-697370937", "kind": "charter", "name": "Boots-Berg", "area": "Feldberger Seenlandschaft", "region": null, "land": "MV", "desc": null, "tags": [], "tel": null, "web": "https://www.boots-berg.de/", "source": "OpenStreetMap", "source_detail": "Overpass 2026-06-12", "quality": "unverified", "coord_quality": "exact"}}, {"type": "Feature", "geometry": {"type": "Point", "coordinates": [12.59282, 54.07061]}, "properties": {"id": "osm-node-701331731", "kind": "slip", "name": "Slipanlage", "area": "", "region": null, "land": "MV", "desc": null, "tags": [], "tel": null, "web": null, "source": "OpenStreetMap", "source_detail": "Overpass 2026-06-12", "quality": "unverified", "coord_quality": "exact"}}, {"type": "Feature", "geometry": {"type": "Point", "coordinates": [12.6101, 53.38279]}, "properties": {"id": "osm-node-712876487", "kind": "charter", "name": "Bootsverleih Manfred Stolschewski", "area": "", "region": null, "land": "MV", "desc": null, "tags": [], "tel": null, "web": null, "source": "OpenStreetMap", "source_detail": "Overpass 2026-06-12", "quality": "unverified", "coord_quality": "exact"}}, {"type": "Feature", "geometry": {"type": "Point", "coordinates": [11.43839, 53.70193]}, "properties": {"id": "osm-node-756651110", "kind": "slip", "name": "Slipanlage", "area": "", "region": null, "land": "MV", "desc": null, "tags": [], "tel": null, "web": null, "source": "OpenStreetMap", "source_detail": "Overpass 2026-06-12", "quality": "unverified", "coord_quality": "exact"}}, {"type": "Feature", "geometry": {"type": "Point", "coordinates": [12.69418, 54.4322]}, "properties": {"id": "osm-node-765307586", "kind": "hafen", "name": "Wasserwanderrastplatz", "area": "", "region": null, "land": "MV", "desc": null, "tags": [], "tel": null, "web": null, "source": "OpenStreetMap", "source_detail": "Overpass 2026-06-12", "quality": "unverified", "coord_quality": "exact"}}, {"type": "Feature", "geometry": {"type": "Point", "coordinates": [13.19159, 54.2964]}, "properties": {"id": "osm-node-766843777", "kind": "hafen", "name": "im jaich Naturhafen Gustow", "area": "", "region": null, "land": "MV", "desc": null, "tags": [], "tel": "+49 38307 419966", "web": "https://www.im-jaich.de/hafen/heimathafen-gustow", "source": "OpenStreetMap", "source_detail": "Overpass 2026-06-12", "quality": "unverified", "coord_quality": "exact"}}, {"type": "Feature", "geometry": {"type": "Point", "coordinates": [14.04871, 53.74042]}, "properties": {"id": "osm-node-817362795", "kind": "hafen", "name": "Seesportclub Vorpommern e.V.", "area": "Liepgarten", "region": null, "land": "MV", "desc": null, "tags": ["230V"], "tel": null, "web": "https://www.ssc-vorpommern.de/", "source": "OpenStreetMap", "source_detail": "Overpass 2026-06-12", "quality": "unverified", "coord_quality": "exact"}}, {"type": "Feature", "geometry": {"type": "Point", "coordinates": [14.06676, 53.74675]}, "properties": {"id": "osm-node-818792799", "kind": "tank", "name": "Bootstankstelle", "area": "", "region": null, "land": "MV", "desc": null, "tags": [], "tel": null, "web": null, "source": "OpenStreetMap", "source_detail": "Overpass 2026-06-12", "quality": "unverified", "coord_quality": "exact"}}, {"type": "Feature", "geometry": {"type": "Point", "coordinates": [13.96915, 53.77293]}, "properties": {"id": "osm-node-818792961", "kind": "slip", "name": "Kran Bootswerft Hinze", "area": "", "region": null, "land": "MV", "desc": null, "tags": [], "tel": null, "web": null, "source": "OpenStreetMap", "source_detail": "Overpass 2026-06-12", "quality": "unverified", "coord_quality": "exact"}}, {"type": "Feature", "geometry": {"type": "Point", "coordinates": [13.92832, 53.87092]}, "properties": {"id": "osm-node-818793462", "kind": "hafen", "name": "Usedom Vereinshafen", "area": "", "region": null, "land": "MV", "desc": null, "tags": [], "tel": "+49 38372 7500", "web": "https://www.stadtinfo-usedom.de/fr_abc.html", "source": "OpenStreetMap", "source_detail": "Overpass 2026-06-12", "quality": "unverified", "coord_quality": "exact"}}, {"type": "Feature", "geometry": {"type": "Point", "coordinates": [13.71867, 53.8592]}, "properties": {"id": "osm-node-819023564", "kind": "hafen", "name": "Seesportclub Anklam", "area": "", "region": null, "land": "MV", "desc": null, "tags": [], "tel": "+49 3971 210577", "web": "https://www.ssc-anklam.de/", "source": "OpenStreetMap", "source_detail": "Overpass 2026-06-12", "quality": "unverified", "coord_quality": "exact"}}, {"type": "Feature", "geometry": {"type": "Point", "coordinates": [13.69629, 53.86188]}, "properties": {"id": "osm-node-819023784", "kind": "hafen", "name": "Motorbootclub Anklam", "area": "", "region": null, "land": "MV", "desc": null, "tags": [], "tel": "+49 157 72927132", "web": "http://www.motorboot-club-anklam.de/", "source": "OpenStreetMap", "source_detail": "Overpass 2026-06-12", "quality": "unverified", "coord_quality": "exact"}}, {"type": "Feature", "geometry": {"type": "Point", "coordinates": [12.88915, 53.85336]}, "properties": {"id": "osm-node-820948026", "kind": "hafen", "name": "Sportboothafen Aalbude", "area": "", "region": null, "land": "MV", "desc": null, "tags": [], "tel": "+49 172 3145860", "web": null, "source": "OpenStreetMap", "source_detail": "Overpass 2026-06-12", "quality": "unverified", "coord_quality": "exact"}}, {"type": "Feature", "geometry": {"type": "Point", "coordinates": [12.79966, 53.7732]}, "properties": {"id": "osm-node-821626030", "kind": "hafen", "name": "Malchiner Segler-Verein", "area": "", "region": null, "land": "MV", "desc": null, "tags": [], "tel": null, "web": null, "source": "OpenStreetMap", "source_detail": "Overpass 2026-06-12", "quality": "unverified", "coord_quality": "exact"}}, {"type": "Feature", "geometry": {"type": "Point", "coordinates": [14.0701, 53.68257]}, "properties": {"id": "osm-node-821956541", "kind": "hafen", "name": "Hafen Eggesin", "area": "", "region": null, "land": "MV", "desc": null, "tags": [], "tel": null, "web": null, "source": "OpenStreetMap", "source_detail": "Overpass 2026-06-12", "quality": "unverified", "coord_quality": "exact"}}, {"type": "Feature", "geometry": {"type": "Point", "coordinates": [12.76708, 53.74399]}, "properties": {"id": "osm-node-823047412", "kind": "hafen", "name": "Wasserwanderrastplatz Kösters Eck", "area": "", "region": null, "land": "MV", "desc": null, "tags": [], "tel": "+49 3994 223665", "web": null, "source": "OpenStreetMap", "source_detail": "Overpass 2026-06-12", "quality": "unverified", "coord_quality": "exact"}}, {"type": "Feature", "geometry": {"type": "Point", "coordinates": [10.98066, 53.56696]}, "properties": {"id": "osm-node-824672383", "kind": "badestelle", "name": "Badestelle", "area": "", "region": null, "land": "MV", "desc": null, "tags": [], "tel": null, "web": null, "source": "OpenStreetMap", "source_detail": "Overpass 2026-06-12", "quality": "unverified", "coord_quality": "exact"}}, {"type": "Feature", "geometry": {"type": "Point", "coordinates": [14.25746, 53.69623]}, "properties": {"id": "osm-node-826107420", "kind": "hafen", "name": "Hafen", "area": "", "region": null, "land": "MV", "desc": null, "tags": [], "tel": null, "web": null, "source": "OpenStreetMap", "source_detail": "Overpass 2026-06-12", "quality": "unverified", "coord_quality": "exact"}}, {"type": "Feature", "geometry": {"type": "Point", "coordinates": [11.46626, 53.6163]}, "properties": {"id": "osm-node-827263087", "kind": "badestelle", "name": "Badestelle Kaninchenwerder", "area": "", "region": null, "land": "MV", "desc": null, "tags": [], "tel": null, "web": null, "source": "OpenStreetMap", "source_detail": "Overpass 2026-06-12", "quality": "unverified", "coord_quality": "exact"}}, {"type": "Feature", "geometry": {"type": "Point", "coordinates": [13.6207, 53.86912]}, "properties": {"id": "osm-node-827507548", "kind": "hafen", "name": "Wasserwanderrastplatz Menzlin \"Naturhafen\"", "area": "", "region": null, "land": "MV", "desc": null, "tags": [], "tel": "+49 177 6877359", "web": null, "source": "OpenStreetMap", "source_detail": "Overpass 2026-06-12", "quality": "unverified", "coord_quality": "exact"}}, {"type": "Feature", "geometry": {"type": "Point", "coordinates": [13.7541, 54.1215]}, "properties": {"id": "osm-node-827507626", "kind": "tank", "name": "Bootstankstelle", "area": "", "region": null, "land": "MV", "desc": null, "tags": [], "tel": null, "web": null, "source": "OpenStreetMap", "source_detail": "Overpass 2026-06-12", "quality": "unverified", "coord_quality": "exact"}}, {"type": "Feature", "geometry": {"type": "Point", "coordinates": [13.43377, 53.33677]}, "properties": {"id": "osm-node-827536835", "kind": "charter", "name": "Feldberger Fahrgastschifffahrt", "area": "Feldberger Seenlandschaft", "region": null, "land": "MV", "desc": null, "tags": [], "tel": "+49 39831 20940", "web": "https://www.feldberger-fahrgastschifffahrt.de/", "source": "OpenStreetMap", "source_detail": "Overpass 2026-06-12", "quality": "unverified", "coord_quality": "exact"}}, {"type": "Feature", "geometry": {"type": "Point", "coordinates": [12.37657, 54.27207]}, "properties": {"id": "osm-node-827624186", "kind": "hafen", "name": "Yachtclub \"Fischland\"", "area": "", "region": null, "land": "MV", "desc": null, "tags": [], "tel": null, "web": null, "source": "OpenStreetMap", "source_detail": "Overpass 2026-06-12", "quality": "unverified", "coord_quality": "exact"}}, {"type": "Feature", "geometry": {"type": "Point", "coordinates": [11.85236, 53.399]}, "properties": {"id": "osm-node-831797164", "kind": "hafen", "name": "Hafen Slate", "area": "", "region": null, "land": "MV", "desc": null, "tags": [], "tel": null, "web": null, "source": "OpenStreetMap", "source_detail": "Overpass 2026-06-12", "quality": "unverified", "coord_quality": "exact"}}, {"type": "Feature", "geometry": {"type": "Point", "coordinates": [14.04818, 53.733]}, "properties": {"id": "osm-node-832810677", "kind": "charter", "name": "Uwe's Bootsverleih", "area": "", "region": null, "land": "MV", "desc": null, "tags": [], "tel": null, "web": "https://bootsverleih-flossfahrten.de/floss/", "source": "OpenStreetMap", "source_detail": "Overpass 2026-06-12", "quality": "unverified", "coord_quality": "exact"}}, {"type": "Feature", "geometry": {"type": "Point", "coordinates": [11.41043, 53.60189]}, "properties": {"id": "osm-node-842103302", "kind": "badestelle", "name": "Badestelle Ostorfer See \"Am Winkel\"", "area": "", "region": null, "land": "MV", "desc": null, "tags": [], "tel": null, "web": null, "source": "OpenStreetMap", "source_detail": "Overpass 2026-06-12", "quality": "unverified", "coord_quality": "exact"}}, {"type": "Feature", "geometry": {"type": "Point", "coordinates": [11.39797, 53.60596]}, "properties": {"id": "osm-node-842103322", "kind": "badestelle", "name": "Badestelle Ostorfer See \"Friseurensiedlung\"", "area": "", "region": null, "land": "MV", "desc": null, "tags": [], "tel": null, "web": null, "source": "OpenStreetMap", "source_detail": "Overpass 2026-06-12", "quality": "unverified", "coord_quality": "exact"}}, {"type": "Feature", "geometry": {"type": "Point", "coordinates": [11.37872, 53.63924]}, "properties": {"id": "osm-node-843992810", "kind": "badestelle", "name": "Badestelle Lankower See Westufer", "area": "", "region": null, "land": "MV", "desc": null, "tags": [], "tel": null, "web": null, "source": "OpenStreetMap", "source_detail": "Overpass 2026-06-12", "quality": "unverified", "coord_quality": "exact"}}, {"type": "Feature", "geometry": {"type": "Point", "coordinates": [13.44082, 53.32591]}, "properties": {"id": "osm-node-844609393", "kind": "charter", "name": "Bootsverleih Luzinhalle", "area": "", "region": null, "land": "MV", "desc": null, "tags": [], "tel": null, "web": null, "source": "OpenStreetMap", "source_detail": "Overpass 2026-06-12", "quality": "unverified", "coord_quality": "exact"}}, {"type": "Feature", "geometry": {"type": "Point", "coordinates": [12.9203, 54.41058]}, "properties": {"id": "osm-node-844757157", "kind": "hafen", "name": "Kinnbackenhagen - Kinnbackenhagener Anglerverein", "area": "", "region": null, "land": "MV", "desc": null, "tags": [], "tel": "+49 38223 80615", "web": null, "source": "OpenStreetMap", "source_detail": "Overpass 2026-06-12", "quality": "unverified", "coord_quality": "exact"}}, {"type": "Feature", "geometry": {"type": "Point", "coordinates": [12.77907, 53.56044]}, "properties": {"id": "osm-node-854422586", "kind": "badestelle", "name": "Badestelle", "area": "", "region": null, "land": "MV", "desc": null, "tags": [], "tel": null, "web": null, "source": "OpenStreetMap", "source_detail": "Overpass 2026-06-12", "quality": "unverified", "coord_quality": "exact"}}, {"type": "Feature", "geometry": {"type": "Point", "coordinates": [14.06732, 53.74625]}, "properties": {"id": "osm-node-892781148", "kind": "slip", "name": "Slipanlage", "area": "", "region": null, "land": "MV", "desc": null, "tags": [], "tel": null, "web": null, "source": "OpenStreetMap", "source_detail": "Overpass 2026-06-12", "quality": "unverified", "coord_quality": "exact"}}, {"type": "Feature", "geometry": {"type": "Point", "coordinates": [12.71386, 54.40513]}, "properties": {"id": "osm-node-896344988", "kind": "slip", "name": "Slipanlage", "area": "", "region": null, "land": "MV", "desc": null, "tags": [], "tel": null, "web": null, "source": "OpenStreetMap", "source_detail": "Overpass 2026-06-12", "quality": "unverified", "coord_quality": "exact"}}, {"type": "Feature", "geometry": {"type": "Point", "coordinates": [12.30893, 53.436]}, "properties": {"id": "osm-node-900156656", "kind": "hafen", "name": "Marina Zislow", "area": "", "region": null, "land": "MV", "desc": null, "tags": [], "tel": null, "web": null, "source": "OpenStreetMap", "source_detail": "Overpass 2026-06-12", "quality": "unverified", "coord_quality": "exact"}}, {"type": "Feature", "geometry": {"type": "Point", "coordinates": [12.30974, 53.43555]}, "properties": {"id": "osm-node-900156659", "kind": "slip", "name": "Marina Zislow", "area": "", "region": null, "land": "MV", "desc": null, "tags": [], "tel": null, "web": null, "source": "OpenStreetMap", "source_detail": "Overpass 2026-06-12", "quality": "unverified", "coord_quality": "exact"}}, {"type": "Feature", "geometry": {"type": "Point", "coordinates": [12.76681, 53.74432]}, "properties": {"id": "osm-node-921572218", "kind": "charter", "name": "Wasserfreizeit Bremer", "area": "Malchin", "region": null, "land": "MV", "desc": null, "tags": [], "tel": null, "web": "http://www.wasserfreizeit.com", "source": "OpenStreetMap", "source_detail": "Overpass 2026-06-12", "quality": "unverified", "coord_quality": "exact"}}, {"type": "Feature", "geometry": {"type": "Point", "coordinates": [13.46953, 53.35026]}, "properties": {"id": "osm-node-926696480", "kind": "badestelle", "name": "Badestelle", "area": "", "region": null, "land": "MV", "desc": null, "tags": [], "tel": null, "web": null, "source": "OpenStreetMap", "source_detail": "Overpass 2026-06-12", "quality": "unverified", "coord_quality": "exact"}}, {"type": "Feature", "geometry": {"type": "Point", "coordinates": [13.23603, 54.62944]}, "properties": {"id": "osm-node-968178372", "kind": "hafen", "name": "Dranske", "area": "", "region": null, "land": "MV", "desc": null, "tags": [], "tel": null, "web": null, "source": "OpenStreetMap", "source_detail": "Overpass 2026-06-12", "quality": "unverified", "coord_quality": "exact"}}, {"type": "Feature", "geometry": {"type": "Point", "coordinates": [13.28164, 54.64663]}, "properties": {"id": "osm-node-968184752", "kind": "hafen", "name": "Starrvitz", "area": "", "region": null, "land": "MV", "desc": null, "tags": [], "tel": null, "web": null, "source": "OpenStreetMap", "source_detail": "Overpass 2026-06-12", "quality": "unverified", "coord_quality": "exact"}}, {"type": "Feature", "geometry": {"type": "Point", "coordinates": [13.51124, 54.52525]}, "properties": {"id": "osm-node-988216479", "kind": "hafen", "name": "Martinshafen Sagard", "area": "", "region": null, "land": "MV", "desc": null, "tags": [], "tel": null, "web": null, "source": "OpenStreetMap", "source_detail": "Overpass 2026-06-12", "quality": "unverified", "coord_quality": "exact"}}, {"type": "Feature", "geometry": {"type": "Point", "coordinates": [12.81092, 53.28849]}, "properties": {"id": "osm-node-1091424504", "kind": "slip", "name": "Slipanlage", "area": "", "region": null, "land": "MV", "desc": null, "tags": [], "tel": null, "web": null, "source": "OpenStreetMap", "source_detail": "Overpass 2026-06-12", "quality": "unverified", "coord_quality": "exact"}}, {"type": "Feature", "geometry": {"type": "Point", "coordinates": [12.42351, 53.46508]}, "properties": {"id": "osm-node-1099352788", "kind": "slip", "name": "Slipanlage", "area": "", "region": null, "land": "MV", "desc": null, "tags": [], "tel": null, "web": null, "source": "OpenStreetMap", "source_detail": "Overpass 2026-06-12", "quality": "unverified", "coord_quality": "exact"}}, {"type": "Feature", "geometry": {"type": "Point", "coordinates": [11.31994, 53.12527]}, "properties": {"id": "osm-node-1102768703", "kind": "badestelle", "name": "Badestelle Schmölner Brack", "area": "", "region": null, "land": "MV", "desc": null, "tags": [], "tel": null, "web": null, "source": "OpenStreetMap", "source_detail": "Overpass 2026-06-12", "quality": "unverified", "coord_quality": "exact"}}, {"type": "Feature", "geometry": {"type": "Point", "coordinates": [11.37209, 53.6414]}, "properties": {"id": "osm-node-1104440540", "kind": "badestelle", "name": "Badestelle Lankower See Westufer", "area": "", "region": null, "land": "MV", "desc": null, "tags": [], "tel": null, "web": null, "source": "OpenStreetMap", "source_detail": "Overpass 2026-06-12", "quality": "unverified", "coord_quality": "exact"}}, {"type": "Feature", "geometry": {"type": "Point", "coordinates": [13.33192, 53.93378]}, "properties": {"id": "osm-node-1106215463", "kind": "hafen", "name": "WSV Peenemoor", "area": "", "region": null, "land": "MV", "desc": null, "tags": [], "tel": "+49 174 8056267", "web": null, "source": "OpenStreetMap", "source_detail": "Overpass 2026-06-12", "quality": "unverified", "coord_quality": "exact"}}, {"type": "Feature", "geometry": {"type": "Point", "coordinates": [13.02815, 53.91709]}, "properties": {"id": "osm-node-1109700450", "kind": "charter", "name": "Kanuhaus", "area": "Demmin", "region": null, "land": "MV", "desc": null, "tags": [], "tel": null, "web": "https://www.kanuhaus.de/", "source": "OpenStreetMap", "source_detail": "Overpass 2026-06-12", "quality": "unverified", "coord_quality": "exact"}}, {"type": "Feature", "geometry": {"type": "Point", "coordinates": [13.13578, 53.97052]}, "properties": {"id": "osm-node-1116531074", "kind": "slip", "name": "Slipanlage", "area": "", "region": null, "land": "MV", "desc": null, "tags": [], "tel": null, "web": null, "source": "OpenStreetMap", "source_detail": "Overpass 2026-06-12", "quality": "unverified", "coord_quality": "exact"}}, {"type": "Feature", "geometry": {"type": "Point", "coordinates": [13.22583, 53.96132]}, "properties": {"id": "osm-node-1116680199", "kind": "slip", "name": "Slipanlage", "area": "", "region": null, "land": "MV", "desc": null, "tags": [], "tel": null, "web": null, "source": "OpenStreetMap", "source_detail": "Overpass 2026-06-12", "quality": "unverified", "coord_quality": "exact"}}, {"type": "Feature", "geometry": {"type": "Point", "coordinates": [14.04881, 53.74019]}, "properties": {"id": "osm-node-1128695757", "kind": "slip", "name": "Slipanlage", "area": "", "region": null, "land": "MV", "desc": null, "tags": [], "tel": null, "web": null, "source": "OpenStreetMap", "source_detail": "Overpass 2026-06-12", "quality": "unverified", "coord_quality": "exact"}}, {"type": "Feature", "geometry": {"type": "Point", "coordinates": [13.77829, 54.06168]}, "properties": {"id": "osm-node-1213679157", "kind": "slip", "name": "Slipanlage", "area": "", "region": null, "land": "MV", "desc": null, "tags": [], "tel": null, "web": null, "source": "OpenStreetMap", "source_detail": "Overpass 2026-06-12", "quality": "unverified", "coord_quality": "exact"}}, {"type": "Feature", "geometry": {"type": "Point", "coordinates": [13.55951, 53.87401]}, "properties": {"id": "osm-node-1264768726", "kind": "slip", "name": "Slipanlage", "area": "", "region": null, "land": "MV", "desc": null, "tags": [], "tel": null, "web": null, "source": "OpenStreetMap", "source_detail": "Overpass 2026-06-12", "quality": "unverified", "coord_quality": "exact"}}, {"type": "Feature", "geometry": {"type": "Point", "coordinates": [11.43048, 53.6342]}, "properties": {"id": "osm-node-1271061143", "kind": "slip", "name": "Bootskran Bootsservice Fierke", "area": "", "region": null, "land": "MV", "desc": null, "tags": [], "tel": null, "web": null, "source": "OpenStreetMap", "source_detail": "Overpass 2026-06-12", "quality": "unverified", "coord_quality": "exact"}}, {"type": "Feature", "geometry": {"type": "Point", "coordinates": [12.54061, 53.53072]}, "properties": {"id": "osm-node-1274362048", "kind": "slip", "name": "Slipanlage Maribell", "area": "", "region": null, "land": "MV", "desc": null, "tags": [], "tel": null, "web": null, "source": "OpenStreetMap", "source_detail": "Overpass 2026-06-12", "quality": "unverified", "coord_quality": "exact"}}, {"type": "Feature", "geometry": {"type": "Point", "coordinates": [12.54101, 53.5306]}, "properties": {"id": "osm-node-1274381986", "kind": "hafen", "name": "Maribell Yachthafen", "area": "", "region": null, "land": "MV", "desc": null, "tags": ["230V", "Trinkwasser", "Entsorgung"], "tel": "+49 39929 70500", "web": "https://www.maribell.de/", "source": "OpenStreetMap", "source_detail": "Overpass 2026-06-12", "quality": "unverified", "coord_quality": "exact"}}, {"type": "Feature", "geometry": {"type": "Point", "coordinates": [11.42469, 53.23149]}, "properties": {"id": "osm-node-1279865052", "kind": "slip", "name": "Slipanlage", "area": "", "region": null, "land": "MV", "desc": null, "tags": [], "tel": null, "web": null, "source": "OpenStreetMap", "source_detail": "Overpass 2026-06-12", "quality": "unverified", "coord_quality": "exact"}}, {"type": "Feature", "geometry": {"type": "Point", "coordinates": [12.65335, 53.2762]}, "properties": {"id": "osm-node-1314890055", "kind": "slip", "name": "Slipanlage", "area": "", "region": null, "land": "MV", "desc": null, "tags": [], "tel": null, "web": null, "source": "OpenStreetMap", "source_detail": "Overpass 2026-06-12", "quality": "unverified", "coord_quality": "exact"}}, {"type": "Feature", "geometry": {"type": "Point", "coordinates": [13.10387, 54.28372]}, "properties": {"id": "osm-node-1314963277", "kind": "hafen", "name": "Sportboot- und Anglervereinigung Andershof e. V.", "area": "Stralsund", "region": null, "land": "MV", "desc": null, "tags": [], "tel": null, "web": null, "source": "OpenStreetMap", "source_detail": "Overpass 2026-06-12", "quality": "unverified", "coord_quality": "exact"}}, {"type": "Feature", "geometry": {"type": "Point", "coordinates": [11.29444, 53.1777]}, "properties": {"id": "osm-node-1324740009", "kind": "charter", "name": "Bootsvermietung Westerholz", "area": "", "region": null, "land": "MV", "desc": null, "tags": [], "tel": null, "web": null, "source": "OpenStreetMap", "source_detail": "Overpass 2026-06-12", "quality": "unverified", "coord_quality": "exact"}}, {"type": "Feature", "geometry": {"type": "Point", "coordinates": [11.1778, 53.15362]}, "properties": {"id": "osm-node-1324797007", "kind": "hafen", "name": "Bootshafen Rüterberg", "area": "", "region": null, "land": "MV", "desc": null, "tags": [], "tel": null, "web": null, "source": "OpenStreetMap", "source_detail": "Overpass 2026-06-12", "quality": "unverified", "coord_quality": "exact"}}, {"type": "Feature", "geometry": {"type": "Point", "coordinates": [11.86458, 53.73255]}, "properties": {"id": "osm-node-1326659130", "kind": "slip", "name": "Slipanlage", "area": "", "region": null, "land": "MV", "desc": null, "tags": [], "tel": null, "web": null, "source": "OpenStreetMap", "source_detail": "Overpass 2026-06-12", "quality": "unverified", "coord_quality": "exact"}}, {"type": "Feature", "geometry": {"type": "Point", "coordinates": [12.89593, 53.20188]}, "properties": {"id": "osm-node-1346046327", "kind": "hafen", "name": "Marina Campingplatz Labussee", "area": "", "region": null, "land": "MV", "desc": null, "tags": [], "tel": "+49 39828 20272", "web": "http://www.camp-am-labussee.de/", "source": "OpenStreetMap", "source_detail": "Overpass 2026-06-12", "quality": "unverified", "coord_quality": "exact"}}, {"type": "Feature", "geometry": {"type": "Point", "coordinates": [12.61927, 53.38804]}, "properties": {"id": "osm-node-1352361844", "kind": "hafen", "name": "Röbeler Seglerverein", "area": "", "region": null, "land": "MV", "desc": null, "tags": ["230V", "Trinkwasser"], "tel": "+49 39931 839900", "web": "https://www.marina-roebel-mueritz.de/", "source": "OpenStreetMap", "source_detail": "Overpass 2026-06-12", "quality": "unverified", "coord_quality": "exact"}}, {"type": "Feature", "geometry": {"type": "Point", "coordinates": [12.98591, 53.27672]}, "properties": {"id": "osm-node-1353947263", "kind": "tank", "name": "Bootstankstelle", "area": "", "region": null, "land": "MV", "desc": null, "tags": [], "tel": null, "web": null, "source": "OpenStreetMap", "source_detail": "Overpass 2026-06-12", "quality": "unverified", "coord_quality": "exact"}}, {"type": "Feature", "geometry": {"type": "Point", "coordinates": [14.10632, 53.87049]}, "properties": {"id": "osm-node-1358298734", "kind": "badestelle", "name": "Badestelle", "area": "", "region": null, "land": "MV", "desc": null, "tags": [], "tel": null, "web": null, "source": "OpenStreetMap", "source_detail": "Overpass 2026-06-12", "quality": "unverified", "coord_quality": "exact"}}, {"type": "Feature", "geometry": {"type": "Point", "coordinates": [14.17393, 53.73551]}, "properties": {"id": "osm-node-1372782639", "kind": "badestelle", "name": "Badestelle", "area": "", "region": null, "land": "MV", "desc": null, "tags": [], "tel": null, "web": null, "source": "OpenStreetMap", "source_detail": "Overpass 2026-06-12", "quality": "unverified", "coord_quality": "exact"}}, {"type": "Feature", "geometry": {"type": "Point", "coordinates": [14.21997, 53.75402]}, "properties": {"id": "osm-node-1372782671", "kind": "badestelle", "name": "Badestelle FKK", "area": "", "region": null, "land": "MV", "desc": null, "tags": [], "tel": null, "web": null, "source": "OpenStreetMap", "source_detail": "Overpass 2026-06-12", "quality": "unverified", "coord_quality": "exact"}}, {"type": "Feature", "geometry": {"type": "Point", "coordinates": [14.22418, 53.75712]},