{"type": "FeatureCollection", "features": [{"type": "Feature", "geometry": {"type": "Point", "coordinates": [6.26568, 51.8232]}, "properties": {"id": "osm-node-22123707", "kind": "slip", "name": "Slipanlage", "area": "", "region": null, "land": "NW", "desc": null, "tags": [], "tel": null, "web": null, "source": "OpenStreetMap", "source_detail": "Overpass 2026-06-12", "quality": "unverified", "coord_quality": "exact"}}, {"type": "Feature", "geometry": {"type": "Point", "coordinates": [6.51854, 51.66027]}, "properties": {"id": "osm-node-24833385", "kind": "slip", "name": "Slipanlage", "area": "", "region": null, "land": "NW", "desc": null, "tags": [], "tel": null, "web": null, "source": "OpenStreetMap", "source_detail": "Overpass 2026-06-12", "quality": "unverified", "coord_quality": "exact"}}, {"type": "Feature", "geometry": {"type": "Point", "coordinates": [6.67957, 51.40517]}, "properties": {"id": "osm-node-30582383", "kind": "charter", "name": "Bootsverleih", "area": "", "region": null, "land": "NW", "desc": null, "tags": [], "tel": null, "web": null, "source": "OpenStreetMap", "source_detail": "Overpass 2026-06-12", "quality": "unverified", "coord_quality": "exact"}}, {"type": "Feature", "geometry": {"type": "Point", "coordinates": [7.07619, 50.77142]}, "properties": {"id": "osm-node-36675574", "kind": "hafen", "name": "Yachthafen Mondorf", "area": "", "region": null, "land": "NW", "desc": null, "tags": [], "tel": null, "web": null, "source": "OpenStreetMap", "source_detail": "Overpass 2026-06-12", "quality": "unverified", "coord_quality": "exact"}}, {"type": "Feature", "geometry": {"type": "Point", "coordinates": [6.48319, 51.66742]}, "properties": {"id": "osm-node-66717228", "kind": "slip", "name": "Personen-Fähre Keer Tröch II", "area": "", "region": null, "land": "NW", "desc": null, "tags": [], "tel": "+49 151 22988089", "web": "https://www.bislich.de/content/personenfaehre-keer-troech-ii", "source": "OpenStreetMap", "source_detail": "Overpass 2026-06-12", "quality": "unverified", "coord_quality": "exact"}}, {"type": "Feature", "geometry": {"type": "Point", "coordinates": [6.14077, 51.82954]}, "properties": {"id": "osm-node-78094220", "kind": "hafen", "name": "Klever Segelgemeinschaft e.V. (KSG)", "area": "", "region": null, "land": "NW", "desc": null, "tags": [], "tel": null, "web": null, "source": "OpenStreetMap", "source_detail": "Overpass 2026-06-12", "quality": "unverified", "coord_quality": "exact"}}, {"type": "Feature", "geometry": {"type": "Point", "coordinates": [6.71611, 51.17247]}, "properties": {"id": "osm-node-107839383", "kind": "slip", "name": "Slipanlage", "area": "", "region": null, "land": "NW", "desc": null, "tags": [], "tel": null, "web": "http://www.kanustrecke.de/", "source": "OpenStreetMap", "source_detail": "Overpass 2026-06-12", "quality": "unverified", "coord_quality": "exact"}}, {"type": "Feature", "geometry": {"type": "Point", "coordinates": [8.52214, 52.17876]}, "properties": {"id": "osm-node-132729652", "kind": "charter", "name": "Bootsverleih Moor-Ranch", "area": "", "region": null, "land": "NW", "desc": null, "tags": [], "tel": null, "web": null, "source": "OpenStreetMap", "source_detail": "Overpass 2026-06-12", "quality": "unverified", "coord_quality": "exact"}}, {"type": "Feature", "geometry": {"type": "Point", "coordinates": [7.47946, 51.41789]}, "properties": {"id": "osm-node-153184426", "kind": "slip", "name": "Slipanlage", "area": "", "region": null, "land": "NW", "desc": null, "tags": [], "tel": null, "web": null, "source": "OpenStreetMap", "source_detail": "Overpass 2026-06-12", "quality": "unverified", "coord_quality": "exact"}}, {"type": "Feature", "geometry": {"type": "Point", "coordinates": [7.85269, 51.06485]}, "properties": {"id": "osm-node-221586383", "kind": "slip", "name": "Slipstelle Kessenhammer", "area": "", "region": null, "land": "NW", "desc": null, "tags": ["kostenlos"], "tel": null, "web": null, "source": "OpenStreetMap", "source_detail": "Overpass 2026-06-12", "quality": "unverified", "coord_quality": "exact"}}, {"type": "Feature", "geometry": {"type": "Point", "coordinates": [8.58079, 52.19961]}, "properties": {"id": "osm-node-243237772", "kind": "slip", "name": "Slipanlage", "area": "", "region": null, "land": "NW", "desc": null, "tags": [], "tel": null, "web": null, "source": "OpenStreetMap", "source_detail": "Overpass 2026-06-12", "quality": "unverified", "coord_quality": "exact"}}, {"type": "Feature", "geometry": {"type": "Point", "coordinates": [6.79989, 51.16641]}, "properties": {"id": "osm-node-259204362", "kind": "slip", "name": "Slipanlage", "area": "", "region": null, "land": "NW", "desc": null, "tags": [], "tel": null, "web": null, "source": "OpenStreetMap", "source_detail": "Overpass 2026-06-12", "quality": "unverified", "coord_quality": "exact"}}, {"type": "Feature", "geometry": {"type": "Point", "coordinates": [6.7958, 51.16683]}, "properties": {"id": "osm-node-259204363", "kind": "slip", "name": "Slipanlage", "area": "", "region": null, "land": "NW", "desc": null, "tags": [], "tel": null, "web": null, "source": "OpenStreetMap", "source_detail": "Overpass 2026-06-12", "quality": "unverified", "coord_quality": "exact"}}, {"type": "Feature", "geometry": {"type": "Point", "coordinates": [8.40643, 51.75307]}, "properties": {"id": "osm-node-259233968", "kind": "slip", "name": "Slipanlage", "area": "", "region": null, "land": "NW", "desc": null, "tags": [], "tel": null, "web": null, "source": "OpenStreetMap", "source_detail": "Overpass 2026-06-12", "quality": "unverified", "coord_quality": "exact"}}, {"type": "Feature", "geometry": {"type": "Point", "coordinates": [6.92425, 51.02151]}, "properties": {"id": "osm-node-265645249", "kind": "slip", "name": "Slipanlage", "area": "", "region": null, "land": "NW", "desc": null, "tags": [], "tel": null, "web": null, "source": "OpenStreetMap", "source_detail": "Overpass 2026-06-12", "quality": "unverified", "coord_quality": "exact"}}, {"type": "Feature", "geometry": {"type": "Point", "coordinates": [6.92481, 51.0224]}, "properties": {"id": "osm-node-265645315", "kind": "slip", "name": "Slipanlage", "area": "", "region": null, "land": "NW", "desc": null, "tags": [], "tel": null, "web": null, "source": "OpenStreetMap", "source_detail": "Overpass 2026-06-12", "quality": "unverified", "coord_quality": "exact"}}, {"type": "Feature", "geometry": {"type": "Point", "coordinates": [7.89781, 51.10733]}, "properties": {"id": "osm-node-268608508", "kind": "hafen", "name": "Yacht- und Ruder-Club Attendorn", "area": "", "region": null, "land": "NW", "desc": null, "tags": [], "tel": "+49 2722 53478", "web": "https://www.yrca.de/", "source": "OpenStreetMap", "source_detail": "Overpass 2026-06-12", "quality": "unverified", "coord_quality": "exact"}}, {"type": "Feature", "geometry": {"type": "Point", "coordinates": [7.64054, 51.64131]}, "properties": {"id": "osm-node-269193799", "kind": "slip", "name": "Marina Rünthe", "area": "", "region": null, "land": "NW", "desc": null, "tags": [], "tel": null, "web": null, "source": "OpenStreetMap", "source_detail": "Overpass 2026-06-12", "quality": "unverified", "coord_quality": "exact"}}, {"type": "Feature", "geometry": {"type": "Point", "coordinates": [7.2138, 50.6329]}, "properties": {"id": "osm-node-271811503", "kind": "slip", "name": "Slipanlage", "area": "", "region": null, "land": "NW", "desc": null, "tags": [], "tel": null, "web": null, "source": "OpenStreetMap", "source_detail": "Overpass 2026-06-12", "quality": "unverified", "coord_quality": "exact"}}, {"type": "Feature", "geometry": {"type": "Point", "coordinates": [6.14111, 51.82952]}, "properties": {"id": "osm-node-274598962", "kind": "hafen", "name": "Wassersportclub Kleve e.V. (WSCKL)", "area": "", "region": null, "land": "NW", "desc": null, "tags": [], "tel": null, "web": null, "source": "OpenStreetMap", "source_detail": "Overpass 2026-06-12", "quality": "unverified", "coord_quality": "exact"}}, {"type": "Feature", "geometry": {"type": "Point", "coordinates": [8.05649, 52.00319]}, "properties": {"id": "osm-node-278025863", "kind": "slip", "name": "Slipanlage", "area": "", "region": null, "land": "NW", "desc": null, "tags": [], "tel": null, "web": null, "source": "OpenStreetMap", "source_detail": "Overpass 2026-06-12", "quality": "unverified", "coord_quality": "exact"}}, {"type": "Feature", "geometry": {"type": "Point", "coordinates": [7.27687, 51.43588]}, "properties": {"id": "osm-node-281457344", "kind": "hafen", "name": "Hafen Heveney - Freizeitzentrum Kemnade", "area": "", "region": null, "land": "NW", "desc": null, "tags": [], "tel": "+49 234 91795272", "web": "https://www.kemnadersee.de/", "source": "OpenStreetMap", "source_detail": "Overpass 2026-06-12", "quality": "unverified", "coord_quality": "exact"}}, {"type": "Feature", "geometry": {"type": "Point", "coordinates": [7.06011, 51.39484]}, "properties": {"id": "osm-node-290109755", "kind": "slip", "name": "Slipanlage", "area": "", "region": null, "land": "NW", "desc": null, "tags": [], "tel": null, "web": null, "source": "OpenStreetMap", "source_detail": "Overpass 2026-06-12", "quality": "unverified", "coord_quality": "exact"}}, {"type": "Feature", "geometry": {"type": "Point", "coordinates": [8.73463, 51.73979]}, "properties": {"id": "osm-node-302401581", "kind": "charter", "name": "Kletterwald Paderborn", "area": "", "region": null, "land": "NW", "desc": null, "tags": [], "tel": null, "web": "https://kletterwald-paderborn.de/", "source": "OpenStreetMap", "source_detail": "Overpass 2026-06-12", "quality": "unverified", "coord_quality": "exact"}}, {"type": "Feature", "geometry": {"type": "Point", "coordinates": [8.4906, 52.34291]}, "properties": {"id": "osm-node-303102172", "kind": "slip", "name": "Slip Getmold", "area": "", "region": null, "land": "NW", "desc": null, "tags": [], "tel": null, "web": null, "source": "OpenStreetMap", "source_detail": "Overpass 2026-06-12", "quality": "unverified", "coord_quality": "exact"}}, {"type": "Feature", "geometry": {"type": "Point", "coordinates": [7.48247, 51.41495]}, "properties": {"id": "osm-node-305942471", "kind": "hafen", "name": "SV Hengsteysee", "area": "", "region": null, "land": "NW", "desc": null, "tags": [], "tel": null, "web": null, "source": "OpenStreetMap", "source_detail": "Overpass 2026-06-12", "quality": "unverified", "coord_quality": "exact"}}, {"type": "Feature", "geometry": {"type": "Point", "coordinates": [7.04535, 51.40064]}, "properties": {"id": "osm-node-309175458", "kind": "hafen", "name": "Hafen Scheppen", "area": "", "region": null, "land": "NW", "desc": null, "tags": [], "tel": null, "web": null, "source": "OpenStreetMap", "source_detail": "Overpass 2026-06-12", "quality": "unverified", "coord_quality": "exact"}}, {"type": "Feature", "geometry": {"type": "Point", "coordinates": [7.06207, 51.39247]}, "properties": {"id": "osm-node-311553500", "kind": "slip", "name": "Slipanlage", "area": "", "region": null, "land": "NW", "desc": null, "tags": [], "tel": null, "web": null, "source": "OpenStreetMap", "source_detail": "Overpass 2026-06-12", "quality": "unverified", "coord_quality": "exact"}}, {"type": "Feature", "geometry": {"type": "Point", "coordinates": [6.77685, 51.09798]}, "properties": {"id": "osm-node-316247288", "kind": "hafen", "name": "YCBL Yachtclub Bayer Leverkusen", "area": "", "region": null, "land": "NW", "desc": null, "tags": [], "tel": "+49 2133 238430", "web": "https://www.ycbl.de/", "source": "OpenStreetMap", "source_detail": "Overpass 2026-06-12", "quality": "unverified", "coord_quality": "exact"}}, {"type": "Feature", "geometry": {"type": "Point", "coordinates": [7.20267, 51.74338]}, "properties": {"id": "osm-node-318800670", "kind": "slip", "name": "Slipanlage", "area": "", "region": null, "land": "NW", "desc": null, "tags": [], "tel": null, "web": null, "source": "OpenStreetMap", "source_detail": "Overpass 2026-06-12", "quality": "unverified", "coord_quality": "exact"}}, {"type": "Feature", "geometry": {"type": "Point", "coordinates": [7.66079, 51.98606]}, "properties": {"id": "osm-node-339337232", "kind": "slip", "name": "Slipanlage", "area": "", "region": null, "land": "NW", "desc": null, "tags": [], "tel": null, "web": null, "source": "OpenStreetMap", "source_detail": "Overpass 2026-06-12", "quality": "unverified", "coord_quality": "exact"}}, {"type": "Feature", "geometry": {"type": "Point", "coordinates": [7.27859, 51.43646]}, "properties": {"id": "osm-node-340486311", "kind": "slip", "name": "Slipanlage", "area": "", "region": null, "land": "NW", "desc": null, "tags": [], "tel": null, "web": null, "source": "OpenStreetMap", "source_detail": "Overpass 2026-06-12", "quality": "unverified", "coord_quality": "exact"}}, {"type": "Feature", "geometry": {"type": "Point", "coordinates": [7.59307, 50.80443]}, "properties": {"id": "osm-node-352877610", "kind": "slip", "name": "Bootseinsatzstelle Windeck-Schladern", "area": "", "region": null, "land": "NW", "desc": null, "tags": [], "tel": null, "web": null, "source": "OpenStreetMap", "source_detail": "Overpass 2026-06-12", "quality": "unverified", "coord_quality": "exact"}}, {"type": "Feature", "geometry": {"type": "Point", "coordinates": [6.26794, 50.85251]}, "properties": {"id": "osm-node-415858883", "kind": "slip", "name": "Slipanlage", "area": "", "region": null, "land": "NW", "desc": null, "tags": [], "tel": null, "web": null, "source": "OpenStreetMap", "source_detail": "Overpass 2026-06-12", "quality": "unverified", "coord_quality": "exact"}}, {"type": "Feature", "geometry": {"type": "Point", "coordinates": [7.24256, 51.56426]}, "properties": {"id": "osm-node-431048217", "kind": "schleuse", "name": "Schleuse Herne-Ost", "area": "", "region": null, "land": "NW", "desc": null, "tags": [], "tel": "+49 2323 9850200", "web": null, "source": "OpenStreetMap", "source_detail": "Overpass 2026-06-12", "quality": "unverified", "coord_quality": "exact"}}, {"type": "Feature", "geometry": {"type": "Point", "coordinates": [6.77572, 51.45091]}, "properties": {"id": "osm-node-431048243", "kind": "schleuse", "name": "Schleuse Duisburg Meiderich", "area": "", "region": null, "land": "NW", "desc": null, "tags": [], "tel": "+49 203 4504210", "web": null, "source": "OpenStreetMap", "source_detail": "Overpass 2026-06-12", "quality": "unverified", "coord_quality": "exact"}}, {"type": "Feature", "geometry": {"type": "Point", "coordinates": [8.85476, 52.29861]}, "properties": {"id": "osm-node-431071817", "kind": "hafen", "name": "Mindener Yachtclub e.V.", "area": "", "region": null, "land": "NW", "desc": null, "tags": [], "tel": null, "web": null, "source": "OpenStreetMap", "source_detail": "Overpass 2026-06-12", "quality": "unverified", "coord_quality": "exact"}}, {"type": "Feature", "geometry": {"type": "Point", "coordinates": [8.62169, 52.33364]}, "properties": {"id": "osm-node-431071822", "kind": "hafen", "name": "Yachthafen Lübbecke", "area": "Lübbecke", "region": null, "land": "NW", "desc": null, "tags": ["230V", "Entsorgung"], "tel": "+49 5741 5366", "web": "https://www.myc-luebbecke.de/", "source": "OpenStreetMap", "source_detail": "Overpass 2026-06-12", "quality": "unverified", "coord_quality": "exact"}}, {"type": "Feature", "geometry": {"type": "Point", "coordinates": [8.48129, 52.3411]}, "properties": {"id": "osm-node-431071828", "kind": "hafen", "name": "MYC Oldendorf", "area": "", "region": null, "land": "NW", "desc": null, "tags": [], "tel": null, "web": null, "source": "OpenStreetMap", "source_detail": "Overpass 2026-06-12", "quality": "unverified", "coord_quality": "exact"}}, {"type": "Feature", "geometry": {"type": "Point", "coordinates": [6.76452, 51.43948]}, "properties": {"id": "osm-node-431072361", "kind": "hafen", "name": "Marina Duisburg", "area": "", "region": null, "land": "NW", "desc": null, "tags": [], "tel": "+49 203 2895697", "web": "https://www.duisburg.de/micro2/marina/", "source": "OpenStreetMap", "source_detail": "Overpass 2026-06-12", "quality": "unverified", "coord_quality": "exact"}}, {"type": "Feature", "geometry": {"type": "Point", "coordinates": [6.72922, 51.45753]}, "properties": {"id": "osm-node-431072366", "kind": "hafen", "name": "Ruhrorter Yachtclub e.V. - Süd", "area": "", "region": null, "land": "NW", "desc": null, "tags": [], "tel": "+49 203 82409", "web": "https://www.ruhrorter-yachtclub.de/", "source": "OpenStreetMap", "source_detail": "Overpass 2026-06-12", "quality": "unverified", "coord_quality": "exact"}}, {"type": "Feature", "geometry": {"type": "Point", "coordinates": [6.97421, 51.50507]}, "properties": {"id": "osm-node-431072369", "kind": "hafen", "name": "Marine-Kameradschaft Bottrop e.V.", "area": "", "region": null, "land": "NW", "desc": null, "tags": [], "tel": null, "web": "https://marinekameradschaft-bottrop.de/", "source": "OpenStreetMap", "source_detail": "Overpass 2026-06-12", "quality": "unverified", "coord_quality": "exact"}}, {"type": "Feature", "geometry": {"type": "Point", "coordinates": [7.24805, 51.56364]}, "properties": {"id": "osm-node-431077863", "kind": "hafen", "name": "WSV Herne", "area": "", "region": null, "land": "NW", "desc": null, "tags": [], "tel": "+49 2323 81397", "web": "https://www.wsv-herne.de/", "source": "OpenStreetMap", "source_detail": "Overpass 2026-06-12", "quality": "unverified", "coord_quality": "exact"}}, {"type": "Feature", "geometry": {"type": "Point", "coordinates": [7.24818, 51.56273]}, "properties": {"id": "osm-node-431077869", "kind": "hafen", "name": "KSC Herne", "area": "", "region": null, "land": "NW", "desc": null, "tags": [], "tel": "+49 2323 83656", "web": "https://ksc-herne.jimdoweb.com/", "source": "OpenStreetMap", "source_detail": "Overpass 2026-06-12", "quality": "unverified", "coord_quality": "exact"}}, {"type": "Feature", "geometry": {"type": "Point", "coordinates": [7.21022, 51.56009]}, "properties": {"id": "osm-node-431077896", "kind": "hafen", "name": "Stadthafen Recklinghausen", "area": "", "region": null, "land": "NW", "desc": null, "tags": [], "tel": null, "web": null, "source": "OpenStreetMap", "source_detail": "Overpass 2026-06-12", "quality": "unverified", "coord_quality": "exact"}}, {"type": "Feature", "geometry": {"type": "Point", "coordinates": [7.12068, 51.54482]}, "properties": {"id": "osm-node-431077909", "kind": "hafen", "name": "Hafen Grimberg", "area": "", "region": null, "land": "NW", "desc": null, "tags": [], "tel": null, "web": null, "source": "OpenStreetMap", "source_detail": "Overpass 2026-06-12", "quality": "unverified", "coord_quality": "exact"}}, {"type": "Feature", "geometry": {"type": "Point", "coordinates": [7.32155, 51.61659]}, "properties": {"id": "osm-node-431078775", "kind": "hafen", "name": "Yachtclub Hebewerk Henrichenburg", "area": "", "region": null, "land": "NW", "desc": null, "tags": [], "tel": "+49 174 6103307", "web": "https://www.ychh-henrichenburg.de/", "source": "OpenStreetMap", "source_detail": "Overpass 2026-06-12", "quality": "unverified", "coord_quality": "exact"}}, {"type": "Feature", "geometry": {"type": "Point", "coordinates": [7.32732, 51.61935]}, "properties": {"id": "osm-node-431078780", "kind": "hafen", "name": "MBC Lünen", "area": "", "region": null, "land": "NW", "desc": null, "tags": [], "tel": "+49 152 08821773", "web": "https://www.mbc-luenen.de/", "source": "OpenStreetMap", "source_detail": "Overpass 2026-06-12", "quality": "unverified", "coord_quality": "exact"}}, {"type": "Feature", "geometry": {"type": "Point", "coordinates": [7.32276, 51.61746]}, "properties": {"id": "osm-node-431078784", "kind": "hafen", "name": "Motorboot Club - Lüdenscheid", "area": "", "region": null, "land": "NW", "desc": null, "tags": [], "tel": "+49 174 1608039", "web": "https://www.mcl-luedenscheid.de/", "source": "OpenStreetMap", "source_detail": "Overpass 2026-06-12", "quality": "unverified", "coord_quality": "exact"}}, {"type": "Feature", "geometry": {"type": "Point", "coordinates": [6.61412, 51.6346]}, "properties": {"id": "osm-node-431079388", "kind": "hafen", "name": "Rhein-Lippe-Hafen", "area": "", "region": null, "land": "NW", "desc": null, "tags": [], "tel": null, "web": null, "source": "OpenStreetMap", "source_detail": "Overpass 2026-06-12", "quality": "unverified", "coord_quality": "exact"}}, {"type": "Feature", "geometry": {"type": "Point", "coordinates": [6.63167, 51.62623]}, "properties": {"id": "osm-node-431079396", "kind": "hafen", "name": "Marina Munderloh", "area": "", "region": null, "land": "NW", "desc": null, "tags": [], "tel": "+49 172 2021014", "web": null, "source": "OpenStreetMap", "source_detail": "Overpass 2026-06-12", "quality": "unverified", "coord_quality": "exact"}}, {"type": "Feature", "geometry": {"type": "Point", "coordinates": [6.95548, 51.66413]}, "properties": {"id": "osm-node-431079603", "kind": "hafen", "name": "Hanse-Marina-Dorsten", "area": "", "region": null, "land": "NW", "desc": null, "tags": [], "tel": "+49 2362 779189", "web": "http://www.hanse-marina-dorsten.de/", "source": "OpenStreetMap", "source_detail": "Overpass 2026-06-12", "quality": "unverified", "coord_quality": "exact"}}, {"type": "Feature", "geometry": {"type": "Point", "coordinates": [6.97728, 51.66424]}, "properties": {"id": "osm-node-431079611", "kind": "hafen", "name": "DMYC Dorstener Motor-Yacht-Club", "area": "", "region": null, "land": "NW", "desc": null, "tags": [], "tel": "+49 157 83000104", "web": "http://www.dmyc.de", "source": "OpenStreetMap", "source_detail": "Overpass 2026-06-12", "quality": "unverified", "coord_quality": "exact"}}, {"type": "Feature", "geometry": {"type": "Point", "coordinates": [7.24202, 51.71833]}, "properties": {"id": "osm-node-431079636", "kind": "schleuse", "name": "Schleuse Flaesheim", "area": "", "region": null, "land": "NW", "desc": null, "tags": [], "tel": "+49 2364 3542", "web": null, "source": "OpenStreetMap", "source_detail": "Overpass 2026-06-12", "quality": "unverified", "coord_quality": "exact"}}, {"type": "Feature", "geometry": {"type": "Point", "coordinates": [7.53534, 51.59681]}, "properties": {"id": "osm-node-431080458", "kind": "hafen", "name": "Wasserwanderrastplatz Preußenhafen in Lünen", "area": "", "region": null, "land": "NW", "desc": null, "tags": [], "tel": "+49 177 3319212", "web": "http://www.preussenhafen-luenen.de/", "source": "OpenStreetMap", "source_detail": "Overpass 2026-06-12", "quality": "unverified", "coord_quality": "exact"}}, {"type": "Feature", "geometry": {"type": "Point", "coordinates": [6.63186, 51.37647]}, "properties": {"id": "osm-node-440130240", "kind": "slip", "name": "Slipanlage", "area": "", "region": null, "land": "NW", "desc": null, "tags": [], "tel": null, "web": null, "source": "OpenStreetMap", "source_detail": "Overpass 2026-06-12", "quality": "unverified", "coord_quality": "exact"}}, {"type": "Feature", "geometry": {"type": "Point", "coordinates": [6.34757, 50.92286]}, "properties": {"id": "osm-node-450136503", "kind": "charter", "name": "Kanuverleih", "area": "", "region": null, "land": "NW", "desc": null, "tags": [], "tel": null, "web": null, "source": "OpenStreetMap", "source_detail": "Overpass 2026-06-12", "quality": "unverified", "coord_quality": "exact"}}, {"type": "Feature", "geometry": {"type": "Point", "coordinates": [6.39287, 50.61662]}, "properties": {"id": "osm-node-451820396", "kind": "slip", "name": "Slipanlage", "area": "", "region": null, "land": "NW", "desc": null, "tags": [], "tel": null, "web": null, "source": "OpenStreetMap", "source_detail": "Overpass 2026-06-12", "quality": "unverified", "coord_quality": "exact"}}, {"type": "Feature", "geometry": {"type": "Point", "coordinates": [8.53286, 51.7305]}, "properties": {"id": "osm-node-452094987", "kind": "slip", "name": "Slipanlage", "area": "", "region": null, "land": "NW", "desc": null, "tags": [], "tel": null, "web": null, "source": "OpenStreetMap", "source_detail": "Overpass 2026-06-12", "quality": "unverified", "coord_quality": "exact"}}, {"type": "Feature", "geometry": {"type": "Point", "coordinates": [7.35003, 51.41927]}, "properties": {"id": "osm-node-458244877", "kind": "charter", "name": "Steger", "area": "", "region": null, "land": "NW", "desc": null, "tags": [], "tel": null, "web": null, "source": "OpenStreetMap", "source_detail": "Overpass 2026-06-12", "quality": "unverified", "coord_quality": "exact"}}, {"type": "Feature", "geometry": {"type": "Point", "coordinates": [6.7149, 51.49851]}, "properties": {"id": "osm-node-475936602", "kind": "slip", "name": "Natorampe Woltershof", "area": "", "region": null, "land": "NW", "desc": null, "tags": [], "tel": null, "web": null, "source": "OpenStreetMap", "source_detail": "Overpass 2026-06-12", "quality": "unverified", "coord_quality": "exact"}}, {"type": "Feature", "geometry": {"type": "Point", "coordinates": [8.9819, 52.40509]}, "properties": {"id": "osm-node-480063105", "kind": "slip", "name": "Slipanlage", "area": "", "region": null, "land": "NW", "desc": null, "tags": [], "tel": null, "web": null, "source": "OpenStreetMap", "source_detail": "Overpass 2026-06-12", "quality": "unverified", "coord_quality": "exact"}}, {"type": "Feature", "geometry": {"type": "Point", "coordinates": [6.39192, 50.62717]}, "properties": {"id": "osm-node-480672402", "kind": "slip", "name": "Slipanlage", "area": "", "region": null, "land": "NW", "desc": null, "tags": [], "tel": null, "web": null, "source": "OpenStreetMap", "source_detail": "Overpass 2026-06-12", "quality": "unverified", "coord_quality": "exact"}}, {"type": "Feature", "geometry": {"type": "Point", "coordinates": [6.45502, 51.67055]}, "properties": {"id": "osm-node-505202536", "kind": "hafen", "name": "Hafen Xanten", "area": "", "region": null, "land": "NW", "desc": null, "tags": [], "tel": null, "web": null, "source": "OpenStreetMap", "source_detail": "Overpass 2026-06-12", "quality": "unverified", "coord_quality": "exact"}}, {"type": "Feature", "geometry": {"type": "Point", "coordinates": [6.4308, 51.69469]}, "properties": {"id": "osm-node-505274710", "kind": "hafen", "name": "Hafen Wardt - Freizeitzentrum Xanten", "area": "", "region": null, "land": "NW", "desc": null, "tags": [], "tel": null, "web": "http://www.freizeitzentrumxanten.de", "source": "OpenStreetMap", "source_detail": "Overpass 2026-06-12", "quality": "unverified", "coord_quality": "exact"}}, {"type": "Feature", "geometry": {"type": "Point", "coordinates": [6.41746, 51.7037]}, "properties": {"id": "osm-node-505274728", "kind": "hafen", "name": "Hafen Vynen", "area": "", "region": null, "land": "NW", "desc": null, "tags": [], "tel": "+49 2801 715656", "web": null, "source": "OpenStreetMap", "source_detail": "Overpass 2026-06-12", "quality": "unverified", "coord_quality": "exact"}}, {"type": "Feature", "geometry": {"type": "Point", "coordinates": [8.85463, 52.20485]}, "properties": {"id": "osm-node-506308858", "kind": "slip", "name": "Slipanlage", "area": "", "region": null, "land": "NW", "desc": null, "tags": [], "tel": null, "web": null, "source": "OpenStreetMap", "source_detail": "Overpass 2026-06-12", "quality": "unverified", "coord_quality": "exact"}}, {"type": "Feature", "geometry": {"type": "Point", "coordinates": [6.9787, 51.37684]}, "properties": {"id": "osm-node-538293146", "kind": "hafen", "name": "Essener Outboard-Club", "area": "", "region": null, "land": "NW", "desc": null, "tags": [], "tel": null, "web": "https://eoc-essen.de/", "source": "OpenStreetMap", "source_detail": "Overpass 2026-06-12", "quality": "unverified", "coord_quality": "exact"}}, {"type": "Feature", "geometry": {"type": "Point", "coordinates": [6.88867, 51.41157]}, "properties": {"id": "osm-node-538301323", "kind": "hafen", "name": "Motor- und Segelyachtclub Mülheim", "area": "", "region": null, "land": "NW", "desc": null, "tags": [], "tel": null, "web": "https://geo.muelheim-ruhr.de/verein/motor-_und_segel-yacht-club_e._v./11784", "source": "OpenStreetMap", "source_detail": "Overpass 2026-06-12", "quality": "unverified", "coord_quality": "exact"}}, {"type": "Feature", "geometry": {"type": "Point", "coordinates": [6.8331, 51.44053]}, "properties": {"id": "osm-node-538307556", "kind": "hafen", "name": "Yacht Club Mülheim/Ruhr", "area": "", "region": null, "land": "NW", "desc": null, "tags": [], "tel": null, "web": "https://www.ycmr.de/", "source": "OpenStreetMap", "source_detail": "Overpass 2026-06-12", "quality": "unverified", "coord_quality": "exact"}}, {"type": "Feature", "geometry": {"type": "Point", "coordinates": [6.68232, 51.34123]}, "properties": {"id": "osm-node-553073701", "kind": "slip", "name": "Slipstelle Krekels (gebührenpflichtig)", "area": "", "region": null, "land": "NW", "desc": null, "tags": [], "tel": null, "web": null, "source": "OpenStreetMap", "source_detail": "Overpass 2026-06-12", "quality": "unverified", "coord_quality": "exact"}}, {"type": "Feature", "geometry": {"type": "Point", "coordinates": [6.96503, 50.92673]}, "properties": {"id": "osm-node-558838623", "kind": "tank", "name": "Bootstankstelle", "area": "", "region": null, "land": "NW", "desc": null, "tags": [], "tel": null, "web": null, "source": "OpenStreetMap", "source_detail": "Overpass 2026-06-12", "quality": "unverified", "coord_quality": "exact"}}, {"type": "Feature", "geometry": {"type": "Point", "coordinates": [6.98617, 50.89989]}, "properties": {"id": "osm-node-558852253", "kind": "slip", "name": "Wasserzugangsstelle (slipway)", "area": "", "region": null, "land": "NW", "desc": null, "tags": [], "tel": null, "web": null, "source": "OpenStreetMap", "source_detail": "Overpass 2026-06-12", "quality": "unverified", "coord_quality": "exact"}}, {"type": "Feature", "geometry": {"type": "Point", "coordinates": [7.21563, 50.64407]}, "properties": {"id": "osm-node-560090784", "kind": "hafen", "name": "Wassersportverein Honnef", "area": "", "region": null, "land": "NW", "desc": null, "tags": [], "tel": null, "web": "https://wsvhonnef.de/", "source": "OpenStreetMap", "source_detail": "Overpass 2026-06-12", "quality": "unverified", "coord_quality": "exact"}}, {"type": "Feature", "geometry": {"type": "Point", "coordinates": [6.40377, 50.63156]}, "properties": {"id": "osm-node-568171928", "kind": "charter", "name": "RWTH Wassersportstätte Wildenhof", "area": "", "region": null, "land": "NW", "desc": null, "tags": [], "tel": null, "web": null, "source": "OpenStreetMap", "source_detail": "Overpass 2026-06-12", "quality": "unverified", "coord_quality": "exact"}}, {"type": "Feature", "geometry": {"type": "Point", "coordinates": [6.73968, 51.21464]}, "properties": {"id": "osm-node-588465780", "kind": "hafen", "name": "Wassersportfreunde Düsseldorf e.V.", "area": "", "region": null, "land": "NW", "desc": null, "tags": [], "tel": null, "web": null, "source": "OpenStreetMap", "source_detail": "Overpass 2026-06-12", "quality": "unverified", "coord_quality": "exact"}}, {"type": "Feature", "geometry": {"type": "Point", "coordinates": [7.0777, 50.77227]}, "properties": {"id": "osm-node-595683946", "kind": "hafen", "name": "Yacht-Club Pirat Niederkassel (YCPN)", "area": "", "region": null, "land": "NW", "desc": null, "tags": [], "tel": "+49 228 9458135", "web": "http://www.piratbergheim.de", "source": "OpenStreetMap", "source_detail": "Overpass 2026-06-12", "quality": "unverified", "coord_quality": "exact"}}, {"type": "Feature", "geometry": {"type": "Point", "coordinates": [7.07678, 50.77176]}, "properties": {"id": "osm-node-595683948", "kind": "hafen", "name": "Mondorfer Yacht Club (MYC)", "area": "", "region": null, "land": "NW", "desc": null, "tags": [], "tel": "+49 151 57545274", "web": "https://www.myc-mondorf.de/", "source": "OpenStreetMap", "source_detail": "Overpass 2026-06-12", "quality": "unverified", "coord_quality": "exact"}}, {"type": "Feature", "geometry": {"type": "Point", "coordinates": [7.04299, 50.77696]}, "properties": {"id": "osm-node-600027777", "kind": "hafen", "name": "Herseler Wassersportfreunde", "area": "", "region": null, "land": "NW", "desc": null, "tags": [], "tel": null, "web": null, "source": "OpenStreetMap", "source_detail": "Overpass 2026-06-12", "quality": "unverified", "coord_quality": "exact"}}, {"type": "Feature", "geometry": {"type": "Point", "coordinates": [7.07755, 50.77188]}, "properties": {"id": "osm-node-600027784", "kind": "hafen", "name": "Rhein Yacht Club (RYC)", "area": "", "region": null, "land": "NW", "desc": null, "tags": [], "tel": "+49 2208 3126", "web": "https://ryc-mondorf.de/", "source": "OpenStreetMap", "source_detail": "Overpass 2026-06-12", "quality": "unverified", "coord_quality": "exact"}}, {"type": "Feature", "geometry": {"type": "Point", "coordinates": [7.07127, 50.77201]}, "properties": {"id": "osm-node-606283238", "kind": "slip", "name": "Slipanlage", "area": "", "region": null, "land": "NW", "desc": null, "tags": [], "tel": null, "web": null, "source": "OpenStreetMap", "source_detail": "Overpass 2026-06-12", "quality": "unverified", "coord_quality": "exact"}}, {"type": "Feature", "geometry": {"type": "Point", "coordinates": [7.63702, 51.93847]}, "properties": {"id": "osm-node-616123686", "kind": "hafen", "name": "Liegestelle für Kleinfahrzeuge", "area": "", "region": null, "land": "NW", "desc": null, "tags": [], "tel": null, "web": null, "source": "OpenStreetMap", "source_detail": "Overpass 2026-06-12", "quality": "unverified", "coord_quality": "exact"}}, {"type": "Feature", "geometry": {"type": "Point", "coordinates": [6.22654, 51.61294]}, "properties": {"id": "osm-node-620052626", "kind": "slip", "name": "Weeze - Schloss Wissen", "area": "", "region": null, "land": "NW", "desc": null, "tags": [], "tel": null, "web": null, "source": "OpenStreetMap", "source_detail": "Overpass 2026-06-12", "quality": "unverified", "coord_quality": "exact"}}, {"type": "Feature", "geometry": {"type": "Point", "coordinates": [7.08583, 51.30491]}, "properties": {"id": "osm-node-622565083", "kind": "entsorgung", "name": "Entsorgungsstation", "area": "", "region": null, "land": "NW", "desc": null, "tags": ["kostenlos"], "tel": null, "web": null, "source": "OpenStreetMap", "source_detail": "Overpass 2026-06-12", "quality": "unverified", "coord_quality": "exact"}}, {"type": "Feature", "geometry": {"type": "Point", "coordinates": [8.98986, 52.18038]}, "properties": {"id": "osm-node-632873552", "kind": "slip", "name": "Slipanlage", "area": "", "region": null, "land": "NW", "desc": null, "tags": [], "tel": null, "web": null, "source": "OpenStreetMap", "source_detail": "Overpass 2026-06-12", "quality": "unverified", "coord_quality": "exact"}}, {"type": "Feature", "geometry": {"type": "Point", "coordinates": [8.85582, 52.20528]}, "properties": {"id": "osm-node-632876845", "kind": "slip", "name": "Slip Vössen", "area": "", "region": null, "land": "NW", "desc": null, "tags": [], "tel": null, "web": null, "source": "OpenStreetMap", "source_detail": "Overpass 2026-06-12", "quality": "unverified", "coord_quality": "exact"}}, {"type": "Feature", "geometry": {"type": "Point", "coordinates": [7.0252, 51.66644]}, "properties": {"id": "osm-node-633268958", "kind": "slip", "name": "Slipanlage", "area": "", "region": null, "land": "NW", "desc": null, "tags": [], "tel": null, "web": null, "source": "OpenStreetMap", "source_detail": "Overpass 2026-06-12", "quality": "unverified", "coord_quality": "exact"}}, {"type": "Feature", "geometry": {"type": "Point", "coordinates": [6.51765, 51.66377]}, "properties": {"id": "osm-node-639189117", "kind": "slip", "name": "Slipanlage", "area": "", "region": null, "land": "NW", "desc": null, "tags": [], "tel": null, "web": null, "source": "OpenStreetMap", "source_detail": "Overpass 2026-06-12", "quality": "unverified", "coord_quality": "exact"}}, {"type": "Feature", "geometry": {"type": "Point", "coordinates": [6.51674, 51.66374]}, "properties": {"id": "osm-node-639189121", "kind": "slip", "name": "Slipanlage", "area": "", "region": null, "land": "NW", "desc": null, "tags": [], "tel": null, "web": null, "source": "OpenStreetMap", "source_detail": "Overpass 2026-06-12", "quality": "unverified", "coord_quality": "exact"}}, {"type": "Feature", "geometry": {"type": "Point", "coordinates": [6.55724, 51.66]}, "properties": {"id": "osm-node-639189125", "kind": "slip", "name": "Slipanlage", "area": "", "region": null, "land": "NW", "desc": null, "tags": [], "tel": null, "web": null, "source": "OpenStreetMap", "source_detail": "Overpass 2026-06-12", "quality": "unverified", "coord_quality": "exact"}}, {"type": "Feature", "geometry": {"type": "Point", "coordinates": [6.55641, 51.66031]}, "properties": {"id": "osm-node-639189129", "kind": "slip", "name": "Slipanlage", "area": "", "region": null, "land": "NW", "desc": null, "tags": [], "tel": null, "web": null, "source": "OpenStreetMap", "source_detail": "Overpass 2026-06-12", "quality": "unverified", "coord_quality": "exact"}}, {"type": "Feature", "geometry": {"type": "Point", "coordinates": [6.38346, 50.60713]}, "properties": {"id": "osm-node-643708924", "kind": "slip", "name": "Slipanlage", "area": "", "region": null, "land": "NW", "desc": null, "tags": [], "tel": null, "web": null, "source": "OpenStreetMap", "source_detail": "Overpass 2026-06-12", "quality": "unverified", "coord_quality": "exact"}}, {"type": "Feature", "geometry": {"type": "Point", "coordinates": [6.68392, 51.33064]}, "properties": {"id": "osm-node-645307710", "kind": "hafen", "name": "Krefelder Segler-Vereinigung 33 e.V.", "area": "", "region": null, "land": "NW", "desc": null, "tags": [], "tel": "+49 2151 573899", "web": "https://ksvg33.de/", "source": "OpenStreetMap", "source_detail": "Overpass 2026-06-12", "quality": "unverified", "coord_quality": "exact"}}, {"type": "Feature", "geometry": {"type": "Point", "coordinates": [6.94019, 51.35931]}, "properties": {"id": "osm-node-692951945", "kind": "charter", "name": "Bootsverleih Kettwig", "area": "", "region": null, "land": "NW", "desc": null, "tags": [], "tel": null, "web": null, "source": "OpenStreetMap", "source_detail": "Overpass 2026-06-12", "quality": "unverified", "coord_quality": "exact"}}, {"type": "Feature", "geometry": {"type": "Point", "coordinates": [6.55655, 51.65701]}, "properties": {"id": "osm-node-694828105", "kind": "slip", "name": "Slipanlage", "area": "", "region": null, "land": "NW", "desc": null, "tags": [], "tel": null, "web": null, "source": "OpenStreetMap", "source_detail": "Overpass 2026-06-12", "quality": "unverified", "coord_quality": "exact"}}, {"type": "Feature", "geometry": {"type": "Point", "coordinates": [6.55778, 51.65718]}, "properties": {"id": "osm-node-694828111", "kind": "slip", "name": "Slipanlage", "area": "", "region": null, "land": "NW", "desc": null, "tags": [], "tel": null, "web": null, "source": "OpenStreetMap", "source_detail": "Overpass 2026-06-12", "quality": "unverified", "coord_quality": "exact"}}, {"type": "Feature", "geometry": {"type": "Point", "coordinates": [6.97601, 50.925]}, "properties": {"id": "osm-node-704629786", "kind": "hafen", "name": "Deutz", "area": "", "region": null, "land": "NW", "desc": null, "tags": [], "tel": null, "web": null, "source": "OpenStreetMap", "source_detail": "Overpass 2026-06-12", "quality": "unverified", "coord_quality": "exact"}}, {"type": "Feature", "geometry": {"type": "Point", "coordinates": [8.92525, 52.27505]}, "properties": {"id": "osm-node-721566123", "kind": "slip", "name": "Slipanlage", "area": "", "region": null, "land": "NW", "desc": null, "tags": [], "tel": null, "web": null, "source": "OpenStreetMap", "source_detail": "Overpass 2026-06-12", "quality": "unverified", "coord_quality": "exact"}}, {"type": "Feature", "geometry": {"type": "Point", "coordinates": [8.92622, 52.27532]}, "properties": {"id": "osm-node-721566124", "kind": "slip", "name": "Slipanlage", "area": "", "region": null, "land": "NW", "desc": null, "tags": [], "tel": null, "web": null, "source": "OpenStreetMap", "source_detail": "Overpass 2026-06-12", "quality": "unverified", "coord_quality": "exact"}}, {"type": "Feature", "geometry": {"type": "Point", "coordinates": [8.92173, 52.27937]}, "properties": {"id": "osm-node-721566141", "kind": "slip", "name": "Slipanlage", "area": "", "region": null, "land": "NW", "desc": null, "tags": [], "tel": null, "web": null, "source": "OpenStreetMap", "source_detail": "Overpass 2026-06-12", "quality": "unverified", "coord_quality": "exact"}}, {"type": "Feature", "geometry": {"type": "Point", "coordinates": [8.92288, 52.27963]}, "properties": {"id": "osm-node-721566142", "kind": "slip", "name": "Slipanlage", "area": "", "region": null, "land": "NW", "desc": null, "tags": [], "tel": null, "web": null, "source": "OpenStreetMap", "source_detail": "Overpass 2026-06-12", "quality": "unverified", "coord_quality": "exact"}}, {"type": "Feature", "geometry": {"type": "Point", "coordinates": [8.33062, 51.6721]}, "properties": {"id": "osm-node-723112269", "kind": "slip", "name": "Slipanlage", "area": "", "region": null, "land": "NW", "desc": null, "tags": [], "tel": null, "web": null, "source": "OpenStreetMap", "source_detail": "Overpass 2026-06-12", "quality": "unverified", "coord_quality": "exact"}}, {"type": "Feature", "geometry": {"type": "Point", "coordinates": [8.98309, 52.40408]}, "properties": {"id": "osm-node-724575039", "kind": "slip", "name": "Slipanlage", "area": "", "region": null, "land": "NW", "desc": null, "tags": [], "tel": null, "web": null, "source": "OpenStreetMap", "source_detail": "Overpass 2026-06-12", "quality": "unverified", "coord_quality": "exact"}}, {"type": "Feature", "geometry": {"type": "Point", "coordinates": [8.98071, 52.40614]}, "properties": {"id": "osm-node-724575053", "kind": "slip", "name": "Slipanlage", "area": "", "region": null, "land": "NW", "desc": null, "tags": [], "tel": null, "web": null, "source": "OpenStreetMap", "source_detail": "Overpass 2026-06-12", "quality": "unverified", "coord_quality": "exact"}}, {"type": "Feature", "geometry": {"type": "Point", "coordinates": [6.58423, 51.22949]}, "properties": {"id": "osm-node-726854562", "kind": "slip", "name": "Slipanlage", "area": "", "region": null, "land": "NW", "desc": null, "tags": [], "tel": null, "web": null, "source": "OpenStreetMap", "source_detail": "Overpass 2026-06-12", "quality": "unverified", "coord_quality": "exact"}}, {"type": "Feature", "geometry": {"type": "Point", "coordinates": [8.92131, 52.28313]}, "properties": {"id": "osm-node-727722620", "kind": "slip", "name": "Slipanlage", "area": "", "region": null, "land": "NW", "desc": null, "tags": [], "tel": null, "web": null, "source": "OpenStreetMap", "source_detail": "Overpass 2026-06-12", "quality": "unverified", "coord_quality": "exact"}}, {"type": "Feature", "geometry": {"type": "Point", "coordinates": [8.92228, 52.27866]}, "properties": {"id": "osm-node-736920857", "kind": "slip", "name": "Slipanlage", "area": "", "region": null, "land": "NW", "desc": null, "tags": [], "tel": null, "web": null, "source": "OpenStreetMap", "source_detail": "Overpass 2026-06-12", "quality": "unverified", "coord_quality": "exact"}}, {"type": "Feature", "geometry": {"type": "Point", "coordinates": [8.84051, 52.2209]}, "properties": {"id": "osm-node-736936792", "kind": "slip", "name": "Slipanlage", "area": "", "region": null, "land": "NW", "desc": null, "tags": [], "tel": null, "web": null, "source": "OpenStreetMap", "source_detail": "Overpass 2026-06-12", "quality": "unverified", "coord_quality": "exact"}}, {"type": "Feature", "geometry": {"type": "Point", "coordinates": [8.88989, 52.30086]}, "properties": {"id": "osm-node-736940651", "kind": "slip", "name": "Slipanlage", "area": "", "region": null, "land": "NW", "desc": null, "tags": [], "tel": null, "web": null, "source": "OpenStreetMap", "source_detail": "Overpass 2026-06-12", "quality": "unverified", "coord_quality": "exact"}}, {"type": "Feature", "geometry": {"type": "Point", "coordinates": [6.23581, 51.82683]}, "properties": {"id": "osm-node-747391890", "kind": "slip", "name": "Slipanlage", "area": "", "region": null, "land": "NW", "desc": null, "tags": [], "tel": null, "web": null, "source": "OpenStreetMap", "source_detail": "Overpass 2026-06-12", "quality": "unverified", "coord_quality": "exact"}}, {"type": "Feature", "geometry": {"type": "Point", "coordinates": [6.73028, 51.2572]}, "properties": {"id": "osm-node-752044731", "kind": "slip", "name": "Slipanlage", "area": "", "region": null, "land": "NW", "desc": null, "tags": [], "tel": null, "web": null, "source": "OpenStreetMap", "source_detail": "Overpass 2026-06-12", "quality": "unverified", "coord_quality": "exact"}}, {"type": "Feature", "geometry": {"type": "Point", "coordinates": [7.61447, 51.95754]}, "properties": {"id": "osm-node-759654378", "kind": "charter", "name": "Bootsverleih Overschmidt", "area": "", "region": null, "land": "NW", "desc": null, "tags": [], "tel": null, "web": null, "source": "OpenStreetMap", "source_detail": "Overpass 2026-06-12", "quality": "unverified", "coord_quality": "exact"}}, {"type": "Feature", "geometry": {"type": "Point", "coordinates": [6.7242, 51.44762]}, "properties": {"id": "osm-node-766904482", "kind": "slip", "name": "Slipanlage \"Am Bört\"", "area": "", "region": null, "land": "NW", "desc": null, "tags": [], "tel": null, "web": null, "source": "OpenStreetMap", "source_detail": "Overpass 2026-06-12", "quality": "unverified", "coord_quality": "exact"}}, {"type": "Feature", "geometry": {"type": "Point", "coordinates": [7.39888, 51.52015]}, "properties": {"id": "osm-node-813341662", "kind": "entsorgung", "name": "Entsorgungsstation", "area": "", "region": null, "land": "NW", "desc": null, "tags": [], "tel": null, "web": null, "source": "OpenStreetMap", "source_detail": "Overpass 2026-06-12", "quality": "unverified", "coord_quality": "exact"}}, {"type": "Feature", "geometry": {"type": "Point", "coordinates": [9.41989, 51.79319]}, "properties": {"id": "osm-node-822942971", "kind": "slip", "name": "Slipanlage", "area": "", "region": null, "land": "NW", "desc": null, "tags": ["kostenlos"], "tel": null, "web": null, "source": "OpenStreetMap", "source_detail": "Overpass 2026-06-12", "quality": "unverified", "coord_quality": "exact"}}, {"type": "Feature", "geometry": {"type": "Point", "coordinates": [6.22578, 51.61353]}, "properties": {"id": "osm-node-827289455", "kind": "slip", "name": "Weeze Schloss Wissen", "area": "", "region": null, "land": "NW", "desc": null, "tags": [], "tel": null, "web": null, "source": "OpenStreetMap", "source_detail": "Overpass 2026-06-12", "quality": "unverified", "coord_quality": "exact"}}, {"type": "Feature", "geometry": {"type": "Point", "coordinates": [6.72997, 51.25791]}, "properties": {"id": "osm-node-849003832", "kind": "slip", "name": "Slipanlage", "area": "", "region": null, "land": "NW", "desc": null, "tags": [], "tel": null, "web": null, "source": "OpenStreetMap", "source_detail": "Overpass 2026-06-12", "quality": "unverified", "coord_quality": "exact"}}, {"type": "Feature", "geometry": {"type": "Point", "coordinates": [6.31738, 51.80938]}, "properties": {"id": "osm-node-897657158", "kind": "slip", "name": "Slipanlage", "area": "", "region": null, "land": "NW", "desc": null, "tags": [], "tel": null, "web": null, "source": "OpenStreetMap", "source_detail": "Overpass 2026-06-12", "quality": "unverified", "coord_quality": "exact"}}, {"type": "Feature", "geometry": {"type": "Point", "coordinates": [9.39131, 51.71269]}, "properties": {"id": "osm-node-928650080", "kind": "slip", "name": "Slip in Wehrden, Westseite", "area": "", "region": null, "land": "NW", "desc": null, "tags": [], "tel": null, "web": null, "source": "OpenStreetMap", "source_detail": "Overpass 2026-06-12", "quality": "unverified", "coord_quality": "exact"}}, {"type": "Feature", "geometry": {"type": "Point", "coordinates": [6.72942, 51.18435]}, "properties": {"id": "osm-node-946548143", "kind": "slip", "name": "Slipanlage", "area": "", "region": null, "land": "NW", "desc": null, "tags": [], "tel": null, "web": null, "source": "OpenStreetMap", "source_detail": "Overpass 2026-06-12", "quality": "unverified", "coord_quality": "exact"}}, {"type": "Feature", "geometry": {"type": "Point", "coordinates": [6.22582, 51.21941]}, "properties": {"id": "osm-node-951398106", "kind": "charter", "name": "Bootsverleih Marina", "area": "", "region": null, "land": "NW", "desc": null, "tags": [], "tel": "+49 2163 579840", "web": null, "source": "OpenStreetMap", "source_detail": "Overpass 2026-06-12", "quality": "unverified", "coord_quality": "exact"}}, {"type": "Feature", "geometry": {"type": "Point", "coordinates": [6.47996, 51.66551]}, "properties": {"id": "osm-node-955193349", "kind": "slip", "name": "Slipanlage", "area": "", "region": null, "land": "NW", "desc": null, "tags": [], "tel": null, "web": null, "source": "OpenStreetMap", "source_detail": "Overpass 2026-06-12", "quality": "unverified", "coord_quality": "exact"}}, {"type": "Feature", "geometry": {"type": "Point", "coordinates": [8.9312, 52.18683]}, "properties": {"id": "osm-node-963213691", "kind": "slip", "name": "Slipanlage WYC Erder", "area": "", "region": null, "land": "NW", "desc": null, "tags": [], "tel": null, "web": null, "source": "OpenStreetMap", "source_detail": "Overpass 2026-06-12", "quality": "unverified", "coord_quality": "exact"}}, {"type": "Feature", "geometry": {"type": "Point", "coordinates": [8.9064, 52.17198]}, "properties": {"id": "osm-node-979059822", "kind": "slip", "name": "Slipanlage", "area": "", "region": null, "land": "NW", "desc": null, "tags": [], "tel": null, "web": null, "source": "OpenStreetMap", "source_detail": "Overpass 2026-06-12", "quality": "unverified", "coord_quality": "exact"}}, {"type": "Feature", "geometry": {"type": "Point", "coordinates": [6.57245, 51.23015]}, "properties": {"id": "osm-node-981124698", "kind": "slip", "name": "Slipanlage", "area": "", "region": null, "land": "NW", "desc": null, "tags": [], "tel": null, "web": null, "source": "OpenStreetMap", "source_detail": "Overpass 2026-06-12", "quality": "unverified", "coord_quality": "exact"}}, {"type": "Feature", "geometry": {"type": "Point", "coordinates": [8.95806, 52.18072]}, "properties": {"id": "osm-node-984660924", "kind": "slip", "name": "Slipanlage", "area": "", "region": null, "land": "NW", "desc": null, "tags": [], "tel": null, "web": null, "source": "OpenStreetMap", "source_detail": "Overpass 2026-06-12", "quality": "unverified", "coord_quality": "exact"}}, {"type": "Feature", "geometry": {"type": "Point", "coordinates": [6.38807, 50.63075]}, "properties": {"id": "osm-node-1005964857", "kind": "slip", "name": "Slipanlage", "area": "", "region": null, "land": "NW", "desc": null, "tags": [], "tel": null, "web": null, "source": "OpenStreetMap", "source_detail": "Overpass 2026-06-12", "quality": "unverified", "coord_quality": "exact"}}, {"type": "Feature", "geometry": {"type": "Point", "coordinates": [6.8464, 51.30306]}, "properties": {"id": "osm-node-1017737344", "kind": "schleuse", "name": "Schleuse", "area": "", "region": null, "land": "NW", "desc": null, "tags": [], "tel": null, "web": null, "source": "OpenStreetMap", "source_detail": "Overpass 2026-06-12", "quality": "unverified", "coord_quality": "exact"}}, {"type": "Feature", "geometry": {"type": "Point", "coordinates": [7.21535, 50.64436]}, "properties": {"id": "osm-node-1029581375", "kind": "slip", "name": "Slipanlage", "area": "", "region": null, "land": "NW", "desc": null, "tags": [], "tel": null, "web": null, "source": "OpenStreetMap", "source_detail": "Overpass 2026-06-12", "quality": "unverified", "coord_quality": "exact"}}, {"type": "Feature", "geometry": {"type": "Point", "coordinates": [8.85498, 52.29924]}, "properties": {"id": "osm-node-1041745906", "kind": "slip", "name": "Slipanlage", "area": "", "region": null, "land": "NW", "desc": null, "tags": [], "tel": null, "web": null, "source": "OpenStreetMap", "source_detail": "Overpass 2026-06-12", "quality": "unverified", "coord_quality": "exact"}}, {"type": "Feature", "geometry": {"type": "Point", "coordinates": [6.4706, 51.6787]}, "properties": {"id": "osm-node-1043116913", "kind": "slip", "name": "Slipanlage", "area": "", "region": null, "land": "NW", "desc": null, "tags": [], "tel": null, "web": null, "source": "OpenStreetMap", "source_detail": "Overpass 2026-06-12", "quality": "unverified", "coord_quality": "exact"}}, {"type": "Feature", "geometry": {"type": "Point", "coordinates": [7.04655, 51.40449]}, "properties": {"id": "osm-node-1057837035", "kind": "hafen", "name": "Sportgemeischaft Ruhr 1929 e.V.", "area": "", "region": null, "land": "NW", "desc": null, "tags": [], "tel": null, "web": "https://www.sg-ruhr1929.de", "source": "OpenStreetMap", "source_detail": "Overpass 2026-06-12", "quality": "unverified", "coord_quality": "exact"}}, {"type": "Feature", "geometry": {"type": "Point", "coordinates": [6.22374, 51.83759]}, "properties": {"id": "osm-node-1083605901", "kind": "slip", "name": "Slipanlage", "area": "", "region": null, "land": "NW", "desc": null, "tags": [], "tel": null, "web": null, "source": "OpenStreetMap", "source_detail": "Overpass 2026-06-12", "quality": "unverified", "coord_quality": "exact"}}, {"type": "Feature", "geometry": {"type": "Point", "coordinates": [7.56171, 51.07452]}, "properties": {"id": "osm-node-1089637160", "kind": "slip", "name": "Slipweg SKGB", "area": "", "region": null, "land": "NW", "desc": null, "tags": [], "tel": null, "web": null, "source": "OpenStreetMap", "source_detail": "Overpass 2026-06-12", "quality": "unverified", "coord_quality": "exact"}}, {"type": "Feature", "geometry": {"type": "Point", "coordinates": [7.02732, 50.80007]}, "properties": {"id": "osm-node-1101928742", "kind": "slip", "name": "Ersatzübergangsstelle Wesseling", "area": "", "region": null, "land": "NW", "desc": null, "tags": [], "tel": null, "web": null, "source": "OpenStreetMap", "source_detail": "Overpass 2026-06-12", "quality": "unverified", "coord_quality": "exact"}}, {"type": "Feature", "geometry": {"type": "Point", "coordinates": [6.86914, 51.1216]}, "properties": {"id": "osm-node-1102443619", "kind": "slip", "name": "Slipanlage", "area": "", "region": null, "land": "NW", "desc": null, "tags": [], "tel": null, "web": null, "source": "OpenStreetMap", "source_detail": "Overpass 2026-06-12", "quality": "unverified", "coord_quality": "exact"}}, {"type": "Feature", "geometry": {"type": "Point", "coordinates": [6.85088, 51.12819]}, "properties": {"id": "osm-node-1103215428", "kind": "slip", "name": "Slipanlage", "area": "", "region": null, "land": "NW", "desc": null, "tags": [], "tel": null, "web": null, "source": "OpenStreetMap", "source_detail": "Overpass 2026-06-12", "quality": "unverified", "coord_quality": "exact"}}, {"type": "Feature", "geometry": {"type": "Point", "coordinates": [6.68984, 51.33678]}, "properties": {"id": "osm-node-1134495148", "kind": "slip", "name": "Slipanlage", "area": "", "region": null, "land": "NW", "desc": null, "tags": [], "tel": null, "web": null, "source": "OpenStreetMap", "source_detail": "Overpass 2026-06-12", "quality": "unverified", "coord_quality": "exact"}}, {"type": "Feature", "geometry": {"type": "Point", "coordinates": [6.63165, 51.83178]}, "properties": {"id": "osm-node-1166540014", "kind": "slip", "name": "Slipanlage", "area": "", "region": null, "land": "NW", "desc": null, "tags": [], "tel": null, "web": null, "source": "OpenStreetMap", "source_detail": "Overpass 2026-06-12", "quality": "unverified", "coord_quality": "exact"}}, {"type": "Feature", "geometry": {"type": "Point", "coordinates": [6.8259, 51.1555]}, "properties": {"id": "osm-node-1178944915", "kind": "slip", "name": "Slipanlage", "area": "", "region": null, "land": "NW", "desc": null, "tags": [], "tel": null, "web": null, "source": "OpenStreetMap", "source_detail": "Overpass 2026-06-12", "quality": "unverified", "coord_quality": "exact"}}, {"type": "Feature", "geometry": {"type": "Point", "coordinates": [7.85687, 51.09316]}, "properties": {"id": "osm-node-1185246285", "kind": "hafen", "name": "Yacht-Club Lister am Biggesee", "area": "", "region": null, "land": "NW", "desc": null, "tags": [], "tel": "+49 2722 7585", "web": "https://ycl.de/", "source": "OpenStreetMap", "source_detail": "Overpass 2026-06-12", "quality": "unverified", "coord_quality": "exact"}}, {"type": "Feature", "geometry": {"type": "Point", "coordinates": [6.47949, 51.66576]}, "properties": {"id": "osm-node-1193531243", "kind": "slip", "name": "Slipanlage", "area": "", "region": null, "land": "NW", "desc": null, "tags": [], "tel": null, "web": null, "source": "OpenStreetMap", "source_detail": "Overpass 2026-06-12", "quality": "unverified", "coord_quality": "exact"}}, {"type": "Feature", "geometry": {"type": "Point", "coordinates": [8.21636, 51.6582]}, "properties": {"id": "osm-node-1195530701", "kind": "slip", "name": "Slipanlage", "area": "", "region": null, "land": "NW", "desc": null, "tags": [], "tel": null, "web": null, "source": "OpenStreetMap", "source_detail": "Overpass 2026-06-12", "quality": "unverified", "coord_quality": "exact"}}, {"type": "Feature", "geometry": {"type": "Point", "coordinates": [7.89856, 51.10624]}, "properties": {"id": "osm-node-1203800573", "kind": "slip", "name": "Slipanlage", "area": "", "region": null, "land": "NW", "desc": null, "tags": [], "tel": null, "web": null, "source": "OpenStreetMap", "source_detail": "Overpass 2026-06-12", "quality": "unverified", "coord_quality": "exact"}}, {"type": "Feature", "geometry": {"type": "Point", "coordinates": [7.85717, 51.07624]}, "properties": {"id": "osm-node-1203800574", "kind": "slip", "name": "Slipanlage", "area": "", "region": null, "land": "NW", "desc": null, "tags": [], "tel": null, "web": null, "source": "OpenStreetMap", "source_detail": "Overpass 2026-06-12", "quality": "unverified", "coord_quality": "exact"}}, {"type": "Feature", "geometry": {"type": "Point", "coordinates": [7.75362, 51.6753]}, "properties": {"id": "osm-node-1232214662", "kind": "slip", "name": "Slipanlage", "area": "", "region": null, "land": "NW", "desc": null, "tags": [], "tel": null, "web": null, "source": "OpenStreetMap", "source_detail": "Overpass 2026-06-12", "quality": "unverified", "coord_quality": "exact"}}, {"type": "Feature", "geometry": {"type": "Point", "coordinates": [7.41802, 51.72333]}, "properties": {"id": "osm-node-1250317265", "kind": "slip", "name": "Slipanlage", "area": "", "region": null, "land": "NW", "desc": null, "tags": [], "tel": null, "web": null, "source": "OpenStreetMap", "source_detail": "Overpass 2026-06-12", "quality": "unverified", "coord_quality": "exact"}}, {"type": "Feature", "geometry": {"type": "Point", "coordinates": [6.98318, 50.96303]}, "properties": {"id": "osm-node-1251047428", "kind": "entsorgung", "name": "Entsorgungsstation", "area": "", "region": null, "land": "NW", "desc": null, "tags": [], "tel": null, "web": null, "source": "OpenStreetMap", "source_detail": "Overpass 2026-06-12", "quality": "unverified", "coord_quality": "exact"}}, {"type": "Feature", "geometry": {"type": "Point", "coordinates": [7.72494, 52.35654]}, "properties": {"id": "osm-node-1255471165", "kind": "slip", "name": "Slipanlage", "area": "", "region": null, "land": "NW", "desc": null, "tags": [], "tel": null, "web": null, "source": "OpenStreetMap", "source_detail": "Overpass 2026-06-12", "quality": "unverified", "coord_quality": "exact"}}, {"type": "Feature", "geometry": {"type": "Point", "coordinates": [6.63189, 51.83516]}, "properties": {"id": "osm-node-1273517556", "kind": "entsorgung", "name": "Entsorgungsstation", "area": "", "region": null, "land": "NW", "desc": null, "tags": [], "tel": null, "web": null, "source": "OpenStreetMap", "source_detail": "Overpass 2026-06-12", "quality": "unverified", "coord_quality": "exact"}}, {"type": "Feature", "geometry": {"type": "Point", "coordinates": [7.51359, 51.48879]}, "properties": {"id": "osm-node-1284016837", "kind": "slip", "name": "Slipanlage", "area": "", "region": null, "land": "NW", "desc": null, "tags": [], "tel": null, "web": null, "source": "OpenStreetMap", "source_detail": "Overpass 2026-06-12", "quality": "unverified", "coord_quality": "exact"}}, {"type": "Feature", "geometry": {"type": "Point", "coordinates": [6.98755, 50.82504]}, "properties": {"id": "osm-node-1288919681", "kind": "slip", "name": "Slipanlage", "area": "", "region": null, "land": "NW", "desc": null, "tags": [], "tel": null, "web": null, "source": "OpenStreetMap", "source_detail": "Overpass 2026-06-12", "quality": "unverified", "coord_quality": "exact"}}, {"type": "Feature", "geometry": {"type": "Point", "coordinates": [7.18749, 50.81227]}, "properties": {"id": "osm-node-1290308327", "kind": "hafen", "name": "kanu club delphin Siegburg 1958 e.V.", "area": "", "region": null, "land": "NW", "desc": null, "tags": [], "tel": null, "web": "https://www.kcd-siegburg.de/", "source": "OpenStreetMap", "source_detail": "Overpass 2026-06-12", "quality": "unverified", "coord_quality": "exact"}}, {"type": "Feature", "geometry": {"type": "Point", "coordinates": [7.02558, 51.40774]}, "properties": {"id": "osm-node-1297221464", "kind": "slip", "name": "Slipanlage", "area": "", "region": null, "land": "NW", "desc": null, "tags": [], "tel": null, "web": null, "source": "OpenStreetMap", "source_detail": "Overpass 2026-06-12", "quality": "unverified", "coord_quality": "exact"}}, {"type": "Feature", "geometry": {"type": "Point", "coordinates": [7.02402, 51.40731]}, "properties": {"id": "osm-node-1297221495", "kind": "slip", "name": "Slipanlage", "area": "", "region": null, "land": "NW", "desc": null, "tags": [], "tel": null, "web": null, "source": "OpenStreetMap", "source_detail": "Overpass 2026-06-12", "quality": "unverified", "coord_quality": "exact"}}, {"type": "Feature", "geometry": {"type": "Point", "coordinates": [6.72827, 51.25451]}, "properties": {"id": "osm-node-1301213317", "kind": "slip", "name": "Slipanlage", "area": "", "region": null, "land": "NW", "desc": null, "tags": [], "tel": null, "web": null, "source": "OpenStreetMap", "source_detail": "Overpass 2026-06-12", "quality": "unverified", "coord_quality": "exact"}}, {"type": "Feature", "geometry": {"type": "Point", "coordinates": [7.07638, 51.44344]}, "properties": {"id": "osm-node-1307874846", "kind": "slip", "name": "Slipanlage", "area": "", "region": null, "land": "NW", "desc": null, "tags": [], "tel": null, "web": null, "source": "OpenStreetMap", "source_detail": "Overpass 2026-06-12", "quality": "unverified", "coord_quality": "exact"}}, {"type": "Feature", "geometry": {"type": "Point", "coordinates": [6.14514, 51.08485]}, "properties": {"id": "osm-node-1309480966", "kind": "slip", "name": "Slipanlage", "area": "", "region": null, "land": "NW", "desc": null, "tags": [], "tel": null, "web": null, "source": "OpenStreetMap", "source_detail": "Overpass 2026-06-12", "quality": "unverified", "coord_quality": "exact"}}, {"type": "Feature", "geometry": {"type": "Point", "coordinates": [9.40183, 51.77617]}, "properties": {"id": "osm-node-1320207880", "kind": "hafen", "name": "WSA Hafen Höxter", "area": "", "region": null, "land": "NW", "desc": null, "tags": [], "tel": "+49 151 16008623", "web": null, "source": "OpenStreetMap", "source_detail": "Overpass 2026-06-12", "quality": "unverified", "coord_quality": "exact"}}, {"type": "Feature", "geometry": {"type": "Point", "coordinates": [8.03445, 51.66422]}, "properties": {"id": "osm-node-1324038707", "kind": "slip", "name": "Slipanlage", "area": "", "region": null, "land": "NW", "desc": null, "tags": [], "tel": null, "web": null, "source": "OpenStreetMap", "source_detail": "Overpass 2026-06-12", "quality": "unverified", "coord_quality": "exact"}}, {"type": "Feature", "geometry": {"type": "Point", "coordinates": [8.111, 51.66263]}, "properties": {"id": "osm-node-1324134791", "kind": "slip", "name": "Slipanlage", "area": "", "region": null, "land": "NW", "desc": null, "tags": [], "tel": null, "web": null, "source": "OpenStreetMap", "source_detail": "Overpass 2026-06-12", "quality": "unverified", "coord_quality": "exact"}}, {"type": "Feature", "geometry": {"type": "Point", "coordinates": [6.62311, 51.38691]}, "properties": {"id": "osm-node-1324256987", "kind": "slip", "name": "Slipanlage", "area": "", "region": null, "land": "NW", "desc": null, "tags": [], "tel": null, "web": null, "source": "OpenStreetMap", "source_detail": "Overpass 2026-06-12", "quality": "unverified", "coord_quality": "exact"}}, {"type": "Feature", "geometry": {"type": "Point", "coordinates": [8.31532, 51.89502]}, "properties": {"id": "osm-node-1324815727", "kind": "slip", "name": "Slipanlage", "area": "", "region": null, "land": "NW", "desc": null, "tags": [], "tel": null, "web": null, "source": "OpenStreetMap", "source_detail": "Overpass 2026-06-12", "quality": "unverified", "coord_quality": "exact"}}, {"type": "Feature", "geometry": {"type": "Point", "coordinates": [7.42952, 51.39604]}, "properties": {"id": "osm-node-1325786206", "kind": "slip", "name": "Slipanlage", "area": "", "region": null, "land": "NW", "desc": null, "tags": [], "tel": null, "web": null, "source": "OpenStreetMap", "source_detail": "Overpass 2026-06-12", "quality": "unverified", "coord_quality": "exact"}}, {"type": "Feature", "geometry": {"type": "Point", "coordinates": [7.2241, 51.49166]}, "properties": {"id": "osm-node-1326323073", "kind": "charter", "name": "Tretboot-Verleih", "area": "", "region": null, "land": "NW", "desc": null, "tags": [], "tel": null, "web": null, "source": "OpenStreetMap", "source_detail": "Overpass 2026-06-12", "quality": "unverified", "coord_quality": "exact"}}, {"type": "Feature", "geometry": {"type": "Point", "coordinates": [7.36464, 51.66136]}, "properties": {"id": "osm-node-1327973893", "kind": "hafen", "name": "Bunkerdienst", "area": "", "region": null, "land": "NW", "desc": null, "tags": [], "tel": null, "web": null, "source": "OpenStreetMap", "source_detail": "Overpass 2026-06-12", "quality": "unverified", "coord_quality": "exact"}}, {"type": "Feature", "geometry": {"type": "Point", "coordinates": [7.36454, 51.66144]}, "properties": {"id": "osm-node-1327973966", "kind": "slip", "name": "Slipanlage", "area": "", "region": null, "land": "NW", "desc": null, "tags": [], "tel": null, "web": null, "source": "OpenStreetMap", "source_detail": "Overpass 2026-06-12", "quality": "unverified", "coord_quality": "exact"}}, {"type": "Feature", "geometry": {"type": "Point", "coordinates": [9.37796, 51.66391]}, "properties": {"id": "osm-node-1336479549", "kind": "slip", "name": "Slipanlage", "area": "", "region": null, "land": "NW", "desc": null, "tags": [], "tel": null, "web": null, "source": "OpenStreetMap", "source_detail": "Overpass 2026-06-12", "quality": "unverified", "coord_quality": "exact"}}, {"type": "Feature", "geometry": {"type": "Point", "coordinates": [7.51853, 50.75814]}, "properties": {"id": "osm-node-1356228723", "kind": "slip", "name": "Wasserzugangsstelle (slipway)", "area": "", "region": null, "land": "NW", "desc": null, "tags": [], "tel": null, "web": null, "source": "OpenStreetMap", "source_detail": "Overpass 2026-06-12", "quality": "unverified", "coord_quality": "exact"}}, {"type": "Feature", "geometry": {"type": "Point", "coordinates": [7.4068, 51.39444]}, "properties": {"id": "osm-node-1364676830", "kind": "slip", "name": "Slipanlage", "area": "", "region": null, "land": "NW", "desc": null, "tags": [], "tel": null, "web": null, "source": "OpenStreetMap", "source_detail": "Overpass 2026-06-12", "quality": "unverified", "coord_quality": "exact"}}, {"type": "Feature", "geometry": {"type": "Point", "coordinates": [7.40702, 51.3947]}, "properties": {"id": "osm-node-1364676848", "kind": "slip", "name": "Slipanlage", "area": "", "region": null, "land": "NW", "desc": null, "tags": [], "tel": null, "web": null, "source": "OpenStreetMap", "source_detail": "Overpass 2026-06-12", "quality": "unverified", "coord_quality": "exact"}}, {"type": "Feature", "geometry": {"type": "Point", "coordinates": [7.63828, 52.33546]}, "properties": {"id": "osm-node-1369767891", "kind": "slip", "name": "Slipanlage", "area": "", "region": null, "land": "NW", "desc": null, "tags": [], "tel": null, "web": null, "source": "OpenStreetMap", "source_detail": "Overpass 2026-06-12", "quality": "unverified", "coord_quality": "exact"}}, {"type": "Feature", "geometry": {"type": "Point", "coordinates": [8.7448, 52.32381]}, "properties": {"id": "osm-node-1369778399", "kind": "slip", "name": "Slipanlage", "area": "", "region": null, "land": "NW", "desc": null, "tags": [], "tel": null, "web": null, "source": "OpenStreetMap", "source_detail": "Overpass 2026-06-12", "quality": "unverified", "coord_quality": "exact"}}, {"type": "Feature", "geometry": {"type": "Point", "coordinates": [9.40996, 51.77713]}, "properties": {"id": "osm-node-1389746904", "kind": "charter", "name": "Krome Kanu", "area": "", "region": null, "land": "NW", "desc": null, "tags": [], "tel": "+4952716946866", "web": "https://www.krome-kanu.de/", "source": "OpenStreetMap", "source_detail": "Overpass 2026-06-12", "quality": "unverified", "coord_quality": "exact"}}, {"type": "Feature", "geometry": {"type": "Point", "coordinates": [7.40495, 51.80207]}, "properties": {"id": "osm-node-1389898678", "kind": "slip", "name": "Motoryachtclub Kanalstadt Datteln", "area": "", "region": null, "land": "NW", "desc": null, "tags": [], "tel": null, "web": null, "source": "OpenStreetMap", "source_detail": "Overpass 2026-06-12", "quality": "unverified", "coord_quality": "exact"}}, {"type": "Feature", "geometry": {"type": "Point", "coordinates": [7.80799, 51.0715]}, "properties": {"id": "osm-node-1412417679", "kind": "hafen", "name": "Hafen Gut Kalberschnacke", "area": "", "region": null, "land": "NW", "desc": null, "tags": [], "tel": null, "web": null, "source": "OpenStreetMap", "source_detail": "Overpass 2026-06-12", "quality": "unverified", "coord_quality": "exact"}}, {"type": "Feature", "geometry": {"type": "Point", "coordinates": [7.53856, 51.09653]}, "properties": {"id": "osm-node-1412614255", "kind": "slip", "name": "Slipanlage", "area": "", "region": null, "land": "NW", "desc": null, "tags": [], "tel": null, "web": null, "source": "OpenStreetMap", "source_detail": "Overpass 2026-06-12", "quality": "unverified", "coord_quality": "exact"}}, {"type": "Feature", "geometry": {"type": "Point", "coordinates": [6.77622, 51.09789]}, "properties": {"id": "osm-node-1413361048", "kind": "slip", "name": "Slipanlage", "area": "", "region": null, "land": "NW", "desc": null, "tags": [], "tel": null, "web": null, "source": "OpenStreetMap", "source_detail": "Overpass 2026-06-12", "quality": "unverified", "coord_quality": "exact"}}, {"type": "Feature", "geometry": {"type": "Point", "coordinates": [6.83817, 50.87897]}, "properties": {"id": "osm-node-1429367499", "kind": "slip", "name": "Slipanlage", "area": "", "region": null, "land": "NW", "desc": null, "tags": [], "tel": null, "web": null, "source": "OpenStreetMap", "source_detail": "Overpass 2026-06-12", "quality": "unverified", "coord_quality": "exact"}}, {"type": "Feature", "geometry": {"type": "Point", "coordinates": [6.22249, 51.83703]}, "properties": {"id": "osm-node-1446067390", "kind": "hafen", "name": "Yachthafen Emmerich", "area": "", "region": null, "land": "NW", "desc": null, "tags": [], "tel": "+49 2822 4091", "web": "https://www.yhe.eu/", "source": "OpenStreetMap", "source_detail": "Overpass 2026-06-12", "quality": "unverified", "coord_quality": "exact"}}, {"type": "Feature", "geometry": {"type": "Point", "coordinates": [6.39316, 51.74984]}, "properties": {"id": "osm-node-1446067398", "kind": "hafen", "name": "WSV Wassersportverein Xanten", "area": "", "region": null, "land": "NW", "desc": null, "tags": [], "tel": "+49 151 61023790", "web": "https://www.wsv-xanten.de/", "source": "OpenStreetMap", "source_detail": "Overpass 2026-06-12", "quality": "unverified", "coord_quality": "exact"}}, {"type": "Feature", "geometry": {"type": "Point", "coordinates": [6.22558, 51.83642]}, "properties": {"id": "osm-node-1446067402", "kind": "hafen", "name": "Neusser Yacht Club", "area": "", "region": null, "land": "NW", "desc": null, "tags": [], "tel": null, "web": null, "source": "OpenStreetMap", "source_detail": "Overpass 2026-06-12", "quality": "unverified", "coord_quality": "exact"}}, {"type": "Feature", "geometry": {"type": "Point", "coordinates": [6.22489, 51.83434]}, "properties": {"id": "osm-node-1446067403", "kind": "hafen", "name": "Emmericher Yacht Club (EYC)", "area": "", "region": null, "land": "NW", "desc": null, "tags": [], "tel": "+49173 9830419", "web": "https://www.emmericher-yachtclub.de/", "source": "OpenStreetMap", "source_detail": "Overpass 2026-06-12", "quality": "unverified", "coord_quality": "exact"}}, {"type": "Feature", "geometry": {"type": "Point", "coordinates": [6.58544, 51.66245]}, "properties": {"id": "osm-node-1446067404", "kind": "hafen", "name": "Yachtabteilung der Ruder- u. Tennisgesellschaft Wesel (RTGW)", "area": "", "region": null, "land": "NW", "desc": null, "tags": [], "tel": "+49 173 2020350", "web": "http://www.ya.rtgw.de", "source": "OpenStreetMap", "source_detail": "Overpass 2026-06-12", "quality": "unverified", "coord_quality": "exact"}}, {"type": "Feature", "geometry": {"type": "Point", "coordinates": [8.26321, 51.31315]}, "properties": {"id": "osm-node-1453057035", "kind": "slip", "name": "Slipanlage", "area": "", "region": null, "land": "NW", "desc": null, "tags": [], "tel": null, "web": null, "source": "OpenStreetMap", "source_detail": "Overpass 2026-06-12", "quality": "unverified", "coord_quality": "exact"}}, {"type": "Feature", "geometry": {"type": "Point", "coordinates": [6.91243, 51.06112]}, "properties": {"id": "osm-node-1460317261", "kind": "slip", "name": "Slipanlage", "area": "", "region": null, "land": "NW", "desc": null, "tags": [], "tel": null, "web": null, "source": "OpenStreetMap", "source_detail": "Overpass 2026-06-12", "quality": "unverified", "coord_quality": "exact"}}, {"type": "Feature", "geometry": {"type": "Point", "coordinates": [6.67731, 51.40009]}, "properties": {"id": "osm-node-1473213338", "kind": "hafen", "name": "Wassersportgemeinschaft Rumeln-Kaldenhausen 1961 e.V.", "area": "", "region": null, "land": "NW", "desc": null, "tags": [], "tel": null, "web": null, "source": "OpenStreetMap", "source_detail": "Overpass 2026-06-12", "quality": "unverified", "coord_quality": "exact"}}, {"type": "Feature", "geometry": {"type": "Point", "coordinates": [7.46918, 51.84538]}, "properties": {"id": "osm-node-1480584351", "kind": "badestelle", "name": "Badestelle", "area": "", "region": null, "land": "NW", "desc": null, "tags": [], "tel": null, "web": null, "source": "OpenStreetMap", "source_detail": "Overpass 2026-06-12", "quality": "unverified", "coord_quality": "exact"}}, {"type": "Feature", "geometry": {"type": "Point", "coordinates": [7.02739, 50.79969]}, "properties": {"id": "osm-node-1515313934", "kind": "slip", "name": "Ersatzübergangsstelle Wesseling", "area": "", "region": null, "land": "NW", "desc": null, "tags": [], "tel": null, "web": null, "source": "OpenStreetMap", "source_detail": "Overpass 2026-06-12", "quality": "unverified", "coord_quality": "exact"}}, {"type": "Feature", "geometry": {"type": "Point", "coordinates": [6.58666, 51.66223]}, "properties": {"id": "osm-node-1544996144", "kind": "hafen", "name": "Weseler Segler Kammeradschaft (WSK)", "area": "", "region": null, "land": "NW", "desc": null, "tags": [], "tel": "+49 2852 3000", "web": null, "source": "OpenStreetMap", "source_detail": "Overpass 2026-06-12", "quality": "unverified", "coord_quality": "exact"}}, {"type": "Feature", "geometry": {"type": "Point", "coordinates": [6.58744, 51.66266]}, "properties": {"id": "osm-node-1544996232", "kind": "hafen", "name": "Weseler Kanu Club (WKC)", "area": "", "region": null, "land": "NW", "desc": null, "tags": [], "tel": null, "web": null, "source": "OpenStreetMap", "source_detail": "Overpass 2026-06-12", "quality": "unverified", "coord_quality": "exact"}}, {"type": "Feature", "geometry": {"type": "Point", "coordinates": [6.58809, 51.66242]}, "properties": {"id": "osm-node-1544996256", "kind": "tank", "name": "nur Diesel", "area": "", "region": null, "land": "NW", "desc": null, "tags": [], "tel": null, "web": null, "source": "OpenStreetMap", "source_detail": "Overpass 2026-06-12", "quality": "unverified", "coord_quality": "exact"}}, {"type": "Feature", "geometry": {"type": "Point", "coordinates": [6.5878, 51.66183]}, "properties": {"id": "osm-node-1544996281", "kind": "hafen", "name": "Yacht Club Wesel (YCW)", "area": "", "region": null, "land": "NW", "desc": null, "tags": [], "tel": "+49 1522 8793184", "web": null, "source": "OpenStreetMap", "source_detail": "Overpass 2026-06-12", "quality": "unverified", "coord_quality": "exact"}}, {"type": "Feature", "geometry": {"type": "Point", "coordinates": [6.91383, 51.05998]}, "properties": {"id": "osm-node-1544997008", "kind": "hafen", "name": "Yacht-Club Leverkusen Hitdorf e.V. (YCLH)", "area": "", "region": null, "land": "NW", "desc": null, "tags": [], "tel": "+49 2173 41875", "web": "https://www.yclh.de/", "source": "OpenStreetMap", "source_detail": "Overpass 2026-06-12", "quality": "unverified", "coord_quality": "exact"}}, {"type": "Feature", "geometry": {"type": "Point", "coordinates": [6.91303, 51.06081]}, "properties": {"id": "osm-node-1544997144", "kind": "hafen", "name": "Leverkusener Marine Club e.V. (LMC)", "area": "", "region": null, "land": "NW", "desc": null, "tags": [], "tel": null, "web": "https://lmc-hitdorf.de/", "source": "OpenStreetMap", "source_detail": "Overpass 2026-06-12", "quality": "unverified", "coord_quality": "exact"}}, {"type": "Feature", "geometry": {"type": "Point", "coordinates": [6.91161, 51.06138]}, "properties": {"id": "osm-node-1544997218", "kind": "hafen", "name": "Nautik Club Köln/Hitdorf e.V.", "area": "", "region": null, "land": "NW", "desc": null, "tags": [], "tel": null, "web": null, "source": "OpenStreetMap", "source_detail": "Overpass 2026-06-12", "quality": "unverified", "coord_quality": "exact"}}, {"type": "Feature", "geometry": {"type": "Point", "coordinates": [6.90818, 51.06255]}, "properties": {"id": "osm-node-1544997271", "kind": "hafen", "name": "Wassersport Hitdorf-Lohr e.V.", "area": "", "region": null, "land": "NW", "desc": null, "tags": [], "tel": "+49 2173 42416", "web": "http://wernerspage.de", "source": "OpenStreetMap", "source_detail": "Overpass 2026-06-12", "quality": "unverified", "coord_quality": "exact"}}, {"type": "Feature", "geometry": {"type": "Point", "coordinates": [6.90745, 51.06289]}, "properties": {"id": "osm-node-1544997300", "kind": "hafen", "name": "Yacht Club Wuppertal-Hitdorf e.V. (YCWH)", "area": "", "region": null, "land": "NW", "desc": null, "tags": [], "tel": "+49 2173 41434", "web": "https://www.ycwh.de/", "source": "OpenStreetMap", "source_detail": "Overpass 2026-06-12", "quality": "unverified", "coord_quality": "exact"}}, {"type": "Feature", "geometry": {"type": "Point", "coordinates": [6.90477, 51.06392]}, "properties": {"id": "osm-node-1544997350", "kind": "hafen", "name": "Segel Motor Club Hitdorf", "area": "", "region": null, "land": "NW", "desc": null, "tags": [], "tel": null, "web": null, "source": "OpenStreetMap", "source_detail": "Overpass 2026-06-12", "quality": "unverified", "coord_quality": "exact"}}, {"type": "Feature", "geometry": {"type": "Point", "coordinates": [6.90409, 51.06419]}, "properties": {"id": "osm-node-1544997369", "kind": "hafen", "name": "Motor Yacht Club Hilden", "area": "", "region": null, "land": "NW", "desc": null, "tags": [], "tel": null, "web": null, "source": "OpenStreetMap", "source_detail": "Overpass 2026-06-12", "quality": "unverified", "coord_quality": "exact"}}, {"type": "Feature", "geometry": {"type": "Point", "coordinates": [6.76437, 51.43922]}, "properties": {"id": "osm-node-1544997433", "kind": "tank", "name": "Tankstation: Marina Duisburg", "area": "", "region": null, "land": "NW", "desc": null, "tags": [], "tel": "+49 203 2895697", "web": null, "source": "OpenStreetMap", "source_detail": "Overpass 2026-06-12", "quality": "unverified", "coord_quality": "exact"}}, {"type": "Feature", "geometry": {"type": "Point", "coordinates": [6.76732, 51.24178]}, "properties": {"id": "osm-node-1572159921", "kind": "hafen", "name": "Sporthafen Rober-Lehr-Ufer", "area": "", "region": null, "land": "NW", "desc": null, "tags": [], "tel": null, "web": null, "source": "OpenStreetMap", "source_detail": "Overpass 2026-06-12", "quality": "unverified", "coord_quality": "exact"}}, {"type": "Feature", "geometry": {"type": "Point", "coordinates": [7.702, 51.96376]}, "properties": {"id": "osm-node-1576980050", "kind": "hafen", "name": "Kanustation Pleister Mühle", "area": "Münster", "region": null, "land": "NW", "desc": null, "tags": [], "tel": null, "web": "https://www.kanuverleih-pleistermuehle.de/", "source": "OpenStreetMap", "source_detail": "Overpass 2026-06-12", "quality": "unverified", "coord_quality": "exact"}}, {"type": "Feature", "geometry": {"type": "Point", "coordinates": [7.63831, 51.93398]}, "properties": {"id": "osm-node-1577009012", "kind": "slip", "name": "Slipanlage", "area": "", "region": null, "land": "NW", "desc": null, "tags": [], "tel": null, "web": null, "source": "OpenStreetMap", "source_detail": "Overpass 2026-06-12", "quality": "unverified", "coord_quality": "exact"}}, {"type": "Feature", "geometry": {"type": "Point", "coordinates": [6.90363, 51.06454]}, "properties": {"id": "osm-node-1588137781", "kind": "hafen", "name": "Bergische Yachtschule", "area": "", "region": null, "land": "NW", "desc": null, "tags": [], "tel": null, "web": "https://yacht-schule.de/", "source": "OpenStreetMap", "source_detail": "Overpass 2026-06-12", "quality": "unverified", "coord_quality": "exact"}}, {"type": "Feature", "geometry": {"type": "Point", "coordinates": [6.90393, 51.06443]}, "properties": {"id": "osm-node-1588148787", "kind": "hafen", "name": "DLRG", "area": "", "region": null, "land": "NW", "desc": null, "tags": [], "tel": null, "web": "https://bez-leverkusen.dlrg.de/", "source": "OpenStreetMap", "source_detail": "Overpass 2026-06-12", "quality": "unverified", "coord_quality": "exact"}}, {"type": "Feature", "geometry": {"type": "Point", "coordinates": [7.08852, 50.75915]}, "properties": {"id": "osm-node-1598997836", "kind": "hafen", "name": "Am Zehnhoff-Söns", "area": "", "region": null, "land": "NW", "desc": null, "tags": [], "tel": null, "web": null, "source": "OpenStreetMap", "source_detail": "Overpass 2026-06-12", "quality": "unverified", "coord_quality": "exact"}}, {"type": "Feature", "geometry": {"type": "Point", "coordinates": [7.55553, 50.80635]}, "properties": {"id": "osm-node-1602150641", "kind": "slip", "name": "Windeck-Dattenfeld Ein-/Ausstieg Nr.5", "area": "", "region": null, "land": "NW", "desc": null, "tags": [], "tel": null, "web": null, "source": "OpenStreetMap", "source_detail": "Overpass 2026-06-12", "quality": "unverified", "coord_quality": "exact"}}, {"type": "Feature", "geometry": {"type": "Point", "coordinates": [7.51849, 50.77459]}, "properties": {"id": "osm-node-1602163122", "kind": "slip", "name": "Offizielle Einsteigstelle Windeck-Herchen/Bahnhof Nr. 8, km 48,3", "area": "", "region": null, "land": "NW", "desc": null, "tags": [], "tel": null, "web": null, "source": "OpenStreetMap", "source_detail": "Overpass 2026-06-12", "quality": "unverified", "coord_quality": "exact"}}, {"type": "Feature", "geometry": {"type": "Point", "coordinates": [7.52512, 50.79942]}, "properties": {"id": "osm-node-1602164075", "kind": "slip", "name": "Offizielle Einsatzstelle Windeck-Hoppengarten km 54", "area": "", "region": null, "land": "NW", "desc": null, "tags": [], "tel": null, "web": null, "source": "OpenStreetMap", "source_detail": "Overpass 2026-06-12", "quality": "unverified", "coord_quality": "exact"}}, {"type": "Feature", "geometry": {"type": "Point", "coordinates": [7.39798, 50.77097]}, "properties": {"id": "osm-node-1602165726", "kind": "slip", "name": "Bach Ein-/Ausstieg Nr.11", "area": "", "region": null, "land": "NW", "desc": null, "tags": [], "tel": null, "web": null, "source": "OpenStreetMap", "source_detail": "Overpass 2026-06-12", "quality": "unverified", "coord_quality": "exact"}}, {"type": "Feature", "geometry": {"type": "Point", "coordinates": [7.3473, 50.77154]}, "properties": {"id": "osm-node-1602166923", "kind": "slip", "name": "Offizielle Einsteigstelle Hennef-Oberauel Straßenbrücke K 36, Ein- und Ausstieg ", "area": "", "region": null, "land": "NW", "desc": null, "tags": [], "tel": null, "web": null, "source": "OpenStreetMap", "source_detail": "Overpass 2026-06-12", "quality": "unverified", "coord_quality": "exact"}}, {"type": "Feature", "geometry": {"type": "Point", "coordinates": [7.32559, 50.7721]}, "properties": {"id": "osm-node-1602167255", "kind": "slip", "name": "Hennef-Lauthausen", "area": "", "region": null, "land": "NW", "desc": null, "tags": [], "tel": null, "web": null, "source": "OpenStreetMap", "source_detail": "Overpass 2026-06-12", "quality": "unverified", "coord_quality": "exact"}}, {"type": "Feature", "geometry": {"type": "Point", "coordinates": [7.29761, 50.77723]}, "properties": {"id": "osm-node-1602167925", "kind": "slip", "name": "Hennef-Allner, Ein-/Ausstieg Nr.13", "area": "", "region": null, "land": "NW", "desc": null, "tags": [], "tel": null, "web": null, "source": "OpenStreetMap", "source_detail": "Overpass 2026-06-12", "quality": "unverified", "coord_quality": "exact"}}, {"type": "Feature", "geometry": {"type": "Point", "coordinates": [7.01531, 50.86275]}, "properties": {"id": "osm-node-1612848372", "kind": "slip", "name": "Nato-Rampe", "area": "", "region": null, "land": "NW", "desc": null, "tags": [], "tel": null, "web": null, "source": "OpenStreetMap", "source_detail": "Overpass 2026-06-12", "quality": "unverified", "coord_quality": "exact"}}, {"type": "Feature", "geometry": {"type": "Point", "coordinates": [7.0143, 50.86381]}, "properties": {"id": "osm-node-1612848660", "kind": "slip", "name": "Nato-Rampe", "area": "", "region": null, "land": "NW", "desc": null, "tags": [], "tel": null, "web": null, "source": "OpenStreetMap", "source_detail": "Overpass 2026-06-12", "quality": "unverified", "coord_quality": "exact"}}, {"type": "Feature", "geometry": {"type": "Point", "coordinates": [7.02385, 51.66493]}, "properties": {"id": "osm-node-1641264622", "kind": "tank", "name": "Bootstankstelle", "area": "", "region": null, "land": "NW", "desc": null, "tags": [], "tel": null, "web": null, "source": "OpenStreetMap", "source_detail": "Overpass 2026-06-12", "quality": "unverified", "coord_quality": "exact"}}, {"type": "Feature", "geometry": {"type": "Point", "coordinates": [6.93467, 51.36144]}, "properties": {"id": "osm-node-1646265305", "kind": "slip", "name": "Slipanlage", "area": "", "region": null, "land": "NW", "desc": null, "tags": [], "tel": null, "web": null, "source": "OpenStreetMap", "source_detail": "Overpass 2026-06-12", "quality": "unverified", "coord_quality": "exact"}}, {"type": "Feature", "geometry": {"type": "Point", "coordinates": [7.64077, 51.64184]}, "properties": {"id": "osm-node-1647382171", "kind": "hafen", "name": "Marina Rünthe", "area": "", "region": null, "land": "NW", "desc": null, "tags": [], "tel": "+49 2389 3163", "web": "http://www.yachthafen-marina-ruenthe.de", "source": "OpenStreetMap", "source_detail": "Overpass 2026-06-12", "quality": "unverified", "coord_quality": "exact"}}, {"type": "Feature", "geometry": {"type": "Point", "coordinates": [7.25483, 51.5659]}, "properties": {"id": "osm-node-1661449074", "kind": "tank", "name": "Bootstankstelle", "area": "", "region": null, "land": "NW", "desc": null, "tags": [], "tel": null, "web": null, "source": "OpenStreetMap", "source_detail": "Overpass 2026-06-12", "quality": "unverified", "coord_quality": "exact"}}, {"type": "Feature", "geometry": {"type": "Point", "coordinates": [8.52654, 51.7327]}, "properties": {"id": "osm-node-1674378969", "kind": "slip", "name": "Slipanlage", "area": "", "region": null, "land": "NW", "desc": null, "tags": [], "tel": null, "web": null, "source": "OpenStreetMap", "source_detail": "Overpass 2026-06-12", "quality": "unverified", "coord_quality": "exact"}}, {"type": "Feature", "geometry": {"type": "Point", "coordinates": [7.84156, 51.6932]}, "properties": {"id": "osm-node-1674816633", "kind": "hafen", "name": "Wasserwanderrastplatz Hamm - Bad Hamm", "area": "", "region": null, "land": "NW", "desc": null, "tags": [], "tel": "+49 2381 174163", "web": "https://www.hamm.de/planen-bauen-verkehr-wohnen/planen-und-entwickeln/stadtentwicklung/hamm-ans-wasser/freizeit-und-erholung/sportbootstourismus-hamm/bad-hamm.html", "source": "OpenStreetMap", "source_detail": "Overpass 2026-06-12", "quality": "unverified", "coord_quality": "exact"}}, {"type": "Feature", "geometry": {"type": "Point", "coordinates": [6.70004, 51.52724]}, "properties": {"id": "osm-node-1702522087", "kind": "slip", "name": "Slipanlage", "area": "", "region": null, "land": "NW", "desc": null, "tags": [], "tel": null, "web": null, "source": "OpenStreetMap", "source_detail": "Overpass 2026-06-12", "quality": "unverified", "coord_quality": "exact"}}, {"type": "Feature", "geometry": {"type": "Point", "coordinates": [7.0196, 50.86155]}, "properties": {"id": "osm-node-1717483380", "kind": "slip", "name": "Nato-Rampe", "area": "", "region": null, "land": "NW", "desc": null, "tags": [], "tel": null, "web": null, "source": "OpenStreetMap", "source_detail": "Overpass 2026-06-12", "quality": "unverified", "coord_quality": "exact"}}, {"type": "Feature", "geometry": {"type": "Point", "coordinates": [6.5922, 51.66113]}, "properties": {"id": "osm-node-1735690826", "kind": "entsorgung", "name": "Entsorgungsstation", "area": "", "region": null, "land": "NW", "desc": null, "tags": [], "tel": null, "web": null, "source": "OpenStreetMap", "source_detail": "Overpass 2026-06-12", "quality": "unverified", "coord_quality": "exact"}}, {"type": "Feature", "geometry": {"type": "Point", "coordinates": [6.44912, 51.36998]}, "properties": {"id": "osm-node-1806548218", "kind": "slip", "name": "Slipanlage", "area": "", "region": null, "land": "NW", "desc": null, "tags": [], "tel": null, "web": null, "source": "OpenStreetMap", "source_detail": "Overpass 2026-06-12", "quality": "unverified", "coord_quality": "exact"}}, {"type": "Feature", "geometry": {"type": "Point", "coordinates": [6.39024, 51.75747]}, "properties": {"id": "osm-node-1820176276", "kind": "slip", "name": "Slipanlage", "area": "", "region": null, "land": "NW", "desc": null, "tags": [], "tel": null, "web": null, "source": "OpenStreetMap", "source_detail": "Overpass 2026-06-12", "quality": "unverified", "coord_quality": "exact"}}, {"type": "Feature", "geometry": {"type": "Point", "coordinates": [6.55492, 51.66901]}, "properties": {"id": "osm-node-1842472578", "kind": "slip", "name": "Wassersportclub Grav-Insel", "area": "", "region": null, "land": "NW", "desc": null, "tags": [], "tel": null, "web": null, "source": "OpenStreetMap", "source_detail": "Overpass 2026-06-12", "quality": "unverified", "coord_quality": "exact"}}, {"type": "Feature", "geometry": {"type": "Point", "coordinates": [7.81442, 51.07108]}, "properties": {"id": "osm-node-1889485559", "kind": "slip", "name": "Slipanlage", "area": "", "region": null, "land": "NW", "desc": null, "tags": [], "tel": null, "web": null, "source": "OpenStreetMap", "source_detail": "Overpass 2026-06-12", "quality": "unverified", "coord_quality": "exact"}}, {"type": "Feature", "geometry": {"type": "Point", "coordinates": [6.30683, 51.80855]}, "properties": {"id": "osm-node-1894699740", "kind": "slip", "name": "Slipanlage", "area": "", "region": null, "land": "NW", "desc": null, "tags": [], "tel": null, "web": null, "source": "OpenStreetMap", "source_detail": "Overpass 2026-06-12", "quality": "unverified", "coord_quality": "exact"}}, {"type": "Feature", "geometry": {"type": "Point", "coordinates": [6.30929, 51.8088]}, "properties": {"id": "osm-node-1894710252", "kind": "slip", "name": "Slipanlage", "area": "", "region": null, "land": "NW", "desc": null, "tags": [], "tel": null, "web": null, "source": "OpenStreetMap", "source_detail": "Overpass 2026-06-12", "quality": "unverified", "coord_quality": "exact"}}, {"type": "Feature", "geometry": {"type": "Point", "coordinates": [6.30961, 51.80759]}, "properties": {"id": "osm-node-1894710305", "kind": "slip", "name": "Slipanlage", "area": "", "region": null, "land": "NW", "desc": null, "tags": [], "tel": null, "web": null, "source": "OpenStreetMap", "source_detail": "Overpass 2026-06-12", "quality": "unverified", "coord_quality": "exact"}}, {"type": "Feature", "geometry": {"type": "Point", "coordinates": [7.04336, 51.40092]}, "properties": {"id": "osm-node-1931663047", "kind": "slip", "name": "Slipanlage", "area": "", "region": null, "land": "NW", "desc": null, "tags": [], "tel": null, "web": null, "source": "OpenStreetMap", "source_detail": "Overpass 2026-06-12", "quality": "unverified", "coord_quality": "exact"}}, {"type": "Feature", "geometry": {"type": "Point", "coordinates": [6.31729, 51.80873]}, "properties": {"id": "osm-node-2001290437", "kind": "slip", "name": "Slipanlage", "area": "", "region": null, "land": "NW", "desc": null, "tags": [], "tel": null, "web": null, "source": "OpenStreetMap", "source_detail": "Overpass 2026-06-12", "quality": "unverified", "coord_quality": "exact"}}, {"type": "Feature", "geometry": {"type": "Point", "coordinates": [6.3175, 51.80894]}, "properties": {"id": "osm-node-2001290440", "kind": "slip", "name": "Slipanlage", "area": "", "region": null, "land": "NW", "desc": null, "tags": [], "tel": null, "web": null, "source": "OpenStreetMap", "source_detail": "Overpass 2026-06-12", "quality": "unverified", "coord_quality": "exact"}}, {"type": "Feature", "geometry": {"type": "Point", "coordinates": [6.30907, 51.80865]}, "properties": {"id": "osm-node-2012209900", "kind": "slip", "name": "Slipanlage", "area": "", "region": null, "land": "NW", "desc": null, "tags": [], "tel": null, "web": null, "source": "OpenStreetMap", "source_detail": "Overpass 2026-06-12", "quality": "unverified", "coord_quality": "exact"}}, {"type": "Feature", "geometry": {"type": "Point", "coordinates": [6.64352, 51.82861]}, "properties": {"id": "osm-node-2017924803", "kind": "hafen", "name": "DLRG Wachstation", "area": "Bocholt", "region": null, "land": "NW", "desc": null, "tags": ["230V", "Entsorgung", "kostenlos"], "tel": null, "web": null, "source": "OpenStreetMap", "source_detail": "Overpass 2026-06-12", "quality": "unverified", "coord_quality": "exact"}}, {"type": "Feature", "geometry": {"type": "Point", "coordinates": [8.17902, 51.59586]}, "properties": {"id": "osm-node-2021252720", "kind": "entsorgung", "name": "Entsorgungsstation", "area": "", "region": null, "land": "NW", "desc": null, "tags": [], "tel": null, "web": null, "source": "OpenStreetMap", "source_detail": "Overpass 2026-06-12", "quality": "unverified", "coord_quality": "exact"}}, {"type": "Feature", "geometry": {"type": "Point", "coordinates": [7.29594, 51.42119]}, "properties": {"id": "osm-node-2026816737", "kind": "slip", "name": "Slipanlage", "area": "", "region": null, "land": "NW", "desc": null, "tags": [], "tel": null, "web": null, "source": "OpenStreetMap", "source_detail": "Overpass 2026-06-12", "quality": "unverified", "coord_quality": "exact"}}, {"type": "Feature", "geometry": {"type": "Point", "coordinates": [8.90652, 52.17118]}, "properties": {"id": "osm-node-2034855920", "kind": "hafen", "name": "Bootshafen Borlefzen", "area": "", "region": null, "land": "NW", "desc": null, "tags": [], "tel": "+49 5733 80008", "web": "http://www.borlefzen.de/", "source": "OpenStreetMap", "source_detail": "Overpass 2026-06-12", "quality": "unverified", "coord_quality": "exact"}}, {"type": "Feature", "geometry": {"type": "Point", "coordinates": [8.98975, 52.1804]}, "properties": {"id": "osm-node-2034855956", "kind": "slip", "name": "Slipanlage", "area": "", "region": null, "land": "NW", "desc": null, "tags": [], "tel": null, "web": null, "source": "OpenStreetMap", "source_detail": "Overpass 2026-06-12", "quality": "unverified", "coord_quality": "exact"}}, {"type": "Feature", "geometry": {"type": "Point", "coordinates": [8.99074, 52.18097]}, "properties": {"id": "osm-node-2034856242", "kind": "hafen", "name": "WSC Rietberg", "area": "", "region": null, "land": "NW", "desc": null, "tags": ["230V"], "tel": "+49 5733 6184", "web": "https://www.wsc-rietberg.de/", "source": "OpenStreetMap", "source_detail": "Overpass 2026-06-12", "quality": "unverified", "coord_quality": "exact"}}, {"type": "Feature", "geometry": {"type": "Point", "coordinates": [7.66243, 51.97208]}, "properties": {"id": "osm-node-2054609214", "kind": "hafen", "name": "Monasteria Yachtclub e.V.", "area": "", "region": null, "land": "NW", "desc": null, "tags": [], "tel": "+49 160 98903133", "web": "http://www.myc-ms.de/", "source": "OpenStreetMap", "source_detail": "Overpass 2026-06-12", "quality": "unverified", "coord_quality": "exact"}}, {"type": "Feature", "geometry": {"type": "Point", "coordinates": [8.62123, 52.33406]}, "properties": {"id": "osm-node-2063045318", "kind": "slip", "name": "Slipanlage", "area": "", "region": null, "land": "NW", "desc": null, "tags": [], "tel": null, "web": null, "source": "OpenStreetMap", "source_detail": "Overpass 2026-06-12", "quality": "unverified", "coord_quality": "exact"}}, {"type": "Feature", "geometry": {"type": "Point", "coordinates": [8.839, 52.22195]}, "properties": {"id": "osm-node-2064843549", "kind": "hafen", "name": "Segelverein Weserbogen", "area": "", "region": null, "land": "NW", "desc": null, "tags": [], "tel": "+49 571 7307776", "web": "https://www.sv-weserbogen.de/", "source": "OpenStreetMap", "source_detail": "Overpass 2026-06-12", "quality": "unverified", "coord_quality": "exact"}}, {"type": "Feature", "geometry": {"type": "Point", "coordinates": [9.40239, 51.7761]}, "properties": {"id": "osm-node-2065026387", "kind": "hafen", "name": "Steganlage Motorbootverein Höxter", "area": "", "region": null, "land": "NW", "desc": null, "tags": [], "tel": null, "web": null, "source": "OpenStreetMap", "source_detail": "Overpass 2026-06-12", "quality": "unverified", "coord_quality": "exact"}}, {"type": "Feature", "geometry": {"type": "Point", "coordinates": [6.72683, 51.18526]}, "properties": {"id": "osm-node-2072067753", "kind": "hafen", "name": "Marine-Verein Neuss 1895 e.V.(MVN)", "area": "", "region": null, "land": "NW", "desc": null, "tags": [], "tel": "+49 173 2826885", "web": "https://www.marinevereinneuss.de/Regattaverein.html", "source": "OpenStreetMap", "source_detail": "Overpass 2026-06-12", "quality": "unverified", "coord_quality": "exact"}}, {"type": "Feature", "geometry": {"type": "Point", "coordinates": [6.26013, 51.82879]}, "properties": {"id": "osm-node-2083475651", "kind": "hafen", "name": "Emmericher Kanu Verein (EKV)", "area": "", "region": null, "land": "NW", "desc": null, "tags": [], "tel": null, "web": null, "source": "OpenStreetMap", "source_detail": "Overpass 2026-06-12", "quality": "unverified", "coord_quality": "exact"}}, {"type": "Feature", "geometry": {"type": "Point", "coordinates": [7.75514, 51.67568]}, "properties": {"id": "osm-node-2103512833", "kind": "hafen", "name": "Yachthafen Club Nautico Hamm", "area": "", "region": null, "land": "NW", "desc": null, "tags": [], "tel": "+49 2381 461727", "web": "www.clubnautico-hamm.de/", "source": "OpenStreetMap", "source_detail": "Overpass 2026-06-12", "quality": "unverified", "coord_quality": "exact"}}, {"type": "Feature", "geometry": {"type": "Point", "coordinates": [7.26089, 51.71193]}, "properties": {"id": "osm-node-2104044867", "kind": "hafen", "name": "Marina Flaesheim", "area": "", "region": null, "land": "NW", "desc": null, "tags": ["230V", "Entsorgung"], "tel": "+49 170 9334411", "web": "https://marina.freizeit-oasen.de/", "source": "OpenStreetMap", "source_detail": "Overpass 2026-06-12", "quality": "unverified", "coord_quality": "exact"}},