{"type": "FeatureCollection", "features": [{"type": "Feature", "geometry": {"type": "Point", "coordinates": [11.70963, 52.03948]}, "properties": {"id": "osm-node-59706195", "kind": "slip", "name": "Slipanlage", "area": "", "region": null, "land": "ST", "desc": null, "tags": [], "tel": null, "web": null, "source": "OpenStreetMap", "source_detail": "Overpass 2026-06-12", "quality": "unverified", "coord_quality": "exact"}}, {"type": "Feature", "geometry": {"type": "Point", "coordinates": [11.95065, 51.49282]}, "properties": {"id": "osm-node-245432612", "kind": "charter", "name": "Bootsverleih Halle", "area": "Halle (Saale)", "region": null, "land": "ST", "desc": null, "tags": [], "tel": "+49 345 20369087", "web": "https://bootsverleih-halle.de/", "source": "OpenStreetMap", "source_detail": "Overpass 2026-06-12", "quality": "unverified", "coord_quality": "exact"}}, {"type": "Feature", "geometry": {"type": "Point", "coordinates": [11.40357, 52.27998]}, "properties": {"id": "osm-node-262206348", "kind": "slip", "name": "Slipanlage", "area": "", "region": null, "land": "ST", "desc": null, "tags": [], "tel": null, "web": null, "source": "OpenStreetMap", "source_detail": "Overpass 2026-06-12", "quality": "unverified", "coord_quality": "exact"}}, {"type": "Feature", "geometry": {"type": "Point", "coordinates": [12.25856, 51.61404]}, "properties": {"id": "osm-node-270757655", "kind": "slip", "name": "Slipanlage", "area": "", "region": null, "land": "ST", "desc": null, "tags": [], "tel": null, "web": null, "source": "OpenStreetMap", "source_detail": "Overpass 2026-06-12", "quality": "unverified", "coord_quality": "exact"}}, {"type": "Feature", "geometry": {"type": "Point", "coordinates": [11.64452, 52.12405]}, "properties": {"id": "osm-node-295138695", "kind": "slip", "name": "Slipanlage", "area": "", "region": null, "land": "ST", "desc": null, "tags": [], "tel": null, "web": null, "source": "OpenStreetMap", "source_detail": "Overpass 2026-06-12", "quality": "unverified", "coord_quality": "exact"}}, {"type": "Feature", "geometry": {"type": "Point", "coordinates": [11.9588, 51.40763]}, "properties": {"id": "osm-node-305467439", "kind": "slip", "name": "Slipanlage", "area": "", "region": null, "land": "ST", "desc": null, "tags": [], "tel": null, "web": null, "source": "OpenStreetMap", "source_detail": "Overpass 2026-06-12", "quality": "unverified", "coord_quality": "exact"}}, {"type": "Feature", "geometry": {"type": "Point", "coordinates": [11.66599, 52.0993]}, "properties": {"id": "osm-node-305924920", "kind": "slip", "name": "Slipanlage", "area": "", "region": null, "land": "ST", "desc": null, "tags": [], "tel": null, "web": null, "source": "OpenStreetMap", "source_detail": "Overpass 2026-06-12", "quality": "unverified", "coord_quality": "exact"}}, {"type": "Feature", "geometry": {"type": "Point", "coordinates": [11.66455, 52.09817]}, "properties": {"id": "osm-node-305928994", "kind": "slip", "name": "Slipanlage", "area": "", "region": null, "land": "ST", "desc": null, "tags": [], "tel": null, "web": null, "source": "OpenStreetMap", "source_detail": "Overpass 2026-06-12", "quality": "unverified", "coord_quality": "exact"}}, {"type": "Feature", "geometry": {"type": "Point", "coordinates": [11.95219, 52.63657]}, "properties": {"id": "osm-node-364692550", "kind": "badestelle", "name": "Waldbad Wischer", "area": "", "region": null, "land": "ST", "desc": null, "tags": [], "tel": null, "web": null, "source": "OpenStreetMap", "source_detail": "Overpass 2026-06-12", "quality": "unverified", "coord_quality": "exact"}}, {"type": "Feature", "geometry": {"type": "Point", "coordinates": [11.70913, 52.03853]}, "properties": {"id": "osm-node-388443407", "kind": "hafen", "name": "Wassersportzentrum Henning Frohse", "area": "", "region": null, "land": "ST", "desc": null, "tags": [], "tel": "+49 391 4082435", "web": "http://www.wsz-henning.de", "source": "OpenStreetMap", "source_detail": "Overpass 2026-06-12", "quality": "unverified", "coord_quality": "exact"}}, {"type": "Feature", "geometry": {"type": "Point", "coordinates": [11.82472, 51.53094]}, "properties": {"id": "osm-node-410448318", "kind": "hafen", "name": "Yachthafen Salzmünde", "area": "", "region": null, "land": "ST", "desc": null, "tags": [], "tel": "+49 34609 25882", "web": "https://www.yachthafen-saale.de/", "source": "OpenStreetMap", "source_detail": "Overpass 2026-06-12", "quality": "unverified", "coord_quality": "exact"}}, {"type": "Feature", "geometry": {"type": "Point", "coordinates": [12.45404, 51.87904]}, "properties": {"id": "osm-node-411725560", "kind": "hafen", "name": "Seglerverein Coswig (Anhalt) e.V.", "area": "", "region": null, "land": "ST", "desc": null, "tags": [], "tel": null, "web": null, "source": "OpenStreetMap", "source_detail": "Overpass 2026-06-12", "quality": "unverified", "coord_quality": "exact"}}, {"type": "Feature", "geometry": {"type": "Point", "coordinates": [11.64597, 52.12493]}, "properties": {"id": "osm-node-431049612", "kind": "hafen", "name": "Yachthafen Magdeburg", "area": "", "region": null, "land": "ST", "desc": null, "tags": [], "tel": "+49 171 6283079", "web": "https://www.yachthafen-magdeburg.com/", "source": "OpenStreetMap", "source_detail": "Overpass 2026-06-12", "quality": "unverified", "coord_quality": "exact"}}, {"type": "Feature", "geometry": {"type": "Point", "coordinates": [11.70955, 52.03761]}, "properties": {"id": "osm-node-431049615", "kind": "hafen", "name": "Schönebeck Hafen", "area": "", "region": null, "land": "ST", "desc": null, "tags": [], "tel": null, "web": null, "source": "OpenStreetMap", "source_detail": "Overpass 2026-06-12", "quality": "unverified", "coord_quality": "exact"}}, {"type": "Feature", "geometry": {"type": "Point", "coordinates": [12.04329, 51.85691]}, "properties": {"id": "osm-node-431049616", "kind": "hafen", "name": "Ruder-Club Aken Abt. Motorwassersport", "area": "", "region": null, "land": "ST", "desc": null, "tags": ["230V", "Entsorgung"], "tel": "+49 173 4718588", "web": "https://www.rca-mws.de/", "source": "OpenStreetMap", "source_detail": "Overpass 2026-06-12", "quality": "unverified", "coord_quality": "exact"}}, {"type": "Feature", "geometry": {"type": "Point", "coordinates": [12.22042, 51.85617]}, "properties": {"id": "osm-node-431049621", "kind": "hafen", "name": "Seesportverein Dessau e.V.", "area": "Dessau-Roßlau", "region": null, "land": "ST", "desc": null, "tags": [], "tel": "+49 340 617235; +49 177 4000539", "web": "https://www.seesport-dessau.de/", "source": "OpenStreetMap", "source_detail": "Overpass 2026-06-12", "quality": "unverified", "coord_quality": "exact"}}, {"type": "Feature", "geometry": {"type": "Point", "coordinates": [12.65916, 51.86182]}, "properties": {"id": "osm-node-431049633", "kind": "hafen", "name": "Wassersportgemeinschaft Wittenberg 1962 e. V. (Campingmöglichkeit)", "area": "Wittenberg", "region": null, "land": "ST", "desc": null, "tags": [], "tel": "+49 3491 886330", "web": "https://www.wsg-wittenberg.de/", "source": "OpenStreetMap", "source_detail": "Overpass 2026-06-12", "quality": "unverified", "coord_quality": "exact"}}, {"type": "Feature", "geometry": {"type": "Point", "coordinates": [12.06824, 52.82926]}, "properties": {"id": "osm-node-431049846", "kind": "hafen", "name": "Yachthafen Havelberg", "area": "", "region": null, "land": "ST", "desc": null, "tags": [], "tel": null, "web": "https://www.campinginsel-havelberg.de/", "source": "OpenStreetMap", "source_detail": "Overpass 2026-06-12", "quality": "unverified", "coord_quality": "exact"}}, {"type": "Feature", "geometry": {"type": "Point", "coordinates": [12.20239, 52.75301]}, "properties": {"id": "osm-node-431052817", "kind": "hafen", "name": "Hafen Garz", "area": "", "region": null, "land": "ST", "desc": null, "tags": [], "tel": null, "web": "https://www.hafen-garz.de/", "source": "OpenStreetMap", "source_detail": "Overpass 2026-06-12", "quality": "unverified", "coord_quality": "exact"}}, {"type": "Feature", "geometry": {"type": "Point", "coordinates": [12.08021, 52.82421]}, "properties": {"id": "osm-node-431053757", "kind": "hafen", "name": "Marina Schiffswerft Kiebitzberg", "area": "", "region": null, "land": "ST", "desc": null, "tags": [], "tel": "+49 39387 72540", "web": "https://kiebitzberg.de/", "source": "OpenStreetMap", "source_detail": "Overpass 2026-06-12", "quality": "unverified", "coord_quality": "exact"}}, {"type": "Feature", "geometry": {"type": "Point", "coordinates": [11.98031, 52.38677]}, "properties": {"id": "osm-node-431089685", "kind": "hafen", "name": "Anleger Parey", "area": "", "region": null, "land": "ST", "desc": null, "tags": [], "tel": null, "web": null, "source": "OpenStreetMap", "source_detail": "Overpass 2026-06-12", "quality": "unverified", "coord_quality": "exact"}}, {"type": "Feature", "geometry": {"type": "Point", "coordinates": [12.003, 51.33915]}, "properties": {"id": "osm-node-795367413", "kind": "slip", "name": "Slipanlage", "area": "", "region": null, "land": "ST", "desc": null, "tags": [], "tel": null, "web": null, "source": "OpenStreetMap", "source_detail": "Overpass 2026-06-12", "quality": "unverified", "coord_quality": "exact"}}, {"type": "Feature", "geometry": {"type": "Point", "coordinates": [11.78938, 52.27264]}, "properties": {"id": "osm-node-1139518561", "kind": "slip", "name": "Slipanlage", "area": "", "region": null, "land": "ST", "desc": null, "tags": [], "tel": null, "web": null, "source": "OpenStreetMap", "source_detail": "Overpass 2026-06-12", "quality": "unverified", "coord_quality": "exact"}}, {"type": "Feature", "geometry": {"type": "Point", "coordinates": [12.93637, 51.64695]}, "properties": {"id": "osm-node-1284199301", "kind": "hafen", "name": "Prettin", "area": "", "region": null, "land": "ST", "desc": null, "tags": [], "tel": null, "web": null, "source": "OpenStreetMap", "source_detail": "Overpass 2026-06-12", "quality": "unverified", "coord_quality": "exact"}}, {"type": "Feature", "geometry": {"type": "Point", "coordinates": [12.66915, 51.86322]}, "properties": {"id": "osm-node-1295046442", "kind": "hafen", "name": "Marine-Sportclub Wittenberg", "area": "", "region": null, "land": "ST", "desc": null, "tags": [], "tel": "+49 3491 414969", "web": "https://www.marine-sc-wittenberg.de/", "source": "OpenStreetMap", "source_detail": "Overpass 2026-06-12", "quality": "unverified", "coord_quality": "exact"}}, {"type": "Feature", "geometry": {"type": "Point", "coordinates": [12.66113, 51.8616]}, "properties": {"id": "osm-node-1295046448", "kind": "hafen", "name": "WSG 1962", "area": "", "region": null, "land": "ST", "desc": null, "tags": [], "tel": null, "web": null, "source": "OpenStreetMap", "source_detail": "Overpass 2026-06-12", "quality": "unverified", "coord_quality": "exact"}}, {"type": "Feature", "geometry": {"type": "Point", "coordinates": [12.23407, 51.88161]}, "properties": {"id": "osm-node-1312674262", "kind": "hafen", "name": "Roßlau", "area": "", "region": null, "land": "ST", "desc": null, "tags": [], "tel": null, "web": null, "source": "OpenStreetMap", "source_detail": "Overpass 2026-06-12", "quality": "unverified", "coord_quality": "exact"}}, {"type": "Feature", "geometry": {"type": "Point", "coordinates": [12.23398, 51.86092]}, "properties": {"id": "osm-node-1312674449", "kind": "hafen", "name": "Wassersportclub Wallwitzhafen e. V.", "area": "", "region": null, "land": "ST", "desc": null, "tags": [], "tel": "+49 34901 808533", "web": "http://www.wallwitzhafen.de/", "source": "OpenStreetMap", "source_detail": "Overpass 2026-06-12", "quality": "unverified", "coord_quality": "exact"}}, {"type": "Feature", "geometry": {"type": "Point", "coordinates": [11.94741, 51.93185]}, "properties": {"id": "osm-node-1320547009", "kind": "hafen", "name": "Anleger Maria Gerda", "area": "", "region": null, "land": "ST", "desc": null, "tags": [], "tel": null, "web": null, "source": "OpenStreetMap", "source_detail": "Overpass 2026-06-12", "quality": "unverified", "coord_quality": "exact"}}, {"type": "Feature", "geometry": {"type": "Point", "coordinates": [11.70471, 52.22398]}, "properties": {"id": "osm-node-1321731838", "kind": "hafen", "name": "Hohenwarthe", "area": "", "region": null, "land": "ST", "desc": null, "tags": [], "tel": null, "web": null, "source": "OpenStreetMap", "source_detail": "Overpass 2026-06-12", "quality": "unverified", "coord_quality": "exact"}}, {"type": "Feature", "geometry": {"type": "Point", "coordinates": [11.7689, 52.31367]}, "properties": {"id": "osm-node-1338503718", "kind": "hafen", "name": "WSG Rogätz", "area": "", "region": null, "land": "ST", "desc": null, "tags": [], "tel": null, "web": null, "source": "OpenStreetMap", "source_detail": "Overpass 2026-06-12", "quality": "unverified", "coord_quality": "exact"}}, {"type": "Feature", "geometry": {"type": "Point", "coordinates": [12.2322, 51.86144]}, "properties": {"id": "osm-node-1369525570", "kind": "slip", "name": "Wallwitzhafen", "area": "", "region": null, "land": "ST", "desc": null, "tags": [], "tel": null, "web": null, "source": "OpenStreetMap", "source_detail": "Overpass 2026-06-12", "quality": "unverified", "coord_quality": "exact"}}, {"type": "Feature", "geometry": {"type": "Point", "coordinates": [11.99602, 51.37718]}, "properties": {"id": "osm-node-1378762818", "kind": "hafen", "name": "Marina Merseburger Rudergesellschaft", "area": "", "region": null, "land": "ST", "desc": null, "tags": [], "tel": "+49 3461 215151", "web": "https://www.merseburger-rudergesellschaft.de/", "source": "OpenStreetMap", "source_detail": "Overpass 2026-06-12", "quality": "unverified", "coord_quality": "exact"}}, {"type": "Feature", "geometry": {"type": "Point", "coordinates": [11.77884, 51.15691]}, "properties": {"id": "osm-node-1421743239", "kind": "slip", "name": "Slipanlage", "area": "", "region": null, "land": "ST", "desc": null, "tags": ["kostenlos"], "tel": null, "web": null, "source": "OpenStreetMap", "source_detail": "Overpass 2026-06-12", "quality": "unverified", "coord_quality": "exact"}}, {"type": "Feature", "geometry": {"type": "Point", "coordinates": [11.77953, 51.1575]}, "properties": {"id": "osm-node-1421743241", "kind": "slip", "name": "Slipanlage", "area": "", "region": null, "land": "ST", "desc": null, "tags": ["kostenlos"], "tel": null, "web": null, "source": "OpenStreetMap", "source_detail": "Overpass 2026-06-12", "quality": "unverified", "coord_quality": "exact"}}, {"type": "Feature", "geometry": {"type": "Point", "coordinates": [12.22079, 51.85595]}, "properties": {"id": "osm-node-1474046633", "kind": "slip", "name": "Leopoldshafen", "area": "", "region": null, "land": "ST", "desc": null, "tags": [], "tel": null, "web": null, "source": "OpenStreetMap", "source_detail": "Overpass 2026-06-12", "quality": "unverified", "coord_quality": "exact"}}, {"type": "Feature", "geometry": {"type": "Point", "coordinates": [12.00112, 51.34956]}, "properties": {"id": "osm-node-1505557977", "kind": "hafen", "name": "Wassersportfreunde Merseburg e.V.", "area": "", "region": null, "land": "ST", "desc": null, "tags": [], "tel": "+49 172 3435289", "web": null, "source": "OpenStreetMap", "source_detail": "Overpass 2026-06-12", "quality": "unverified", "coord_quality": "exact"}}, {"type": "Feature", "geometry": {"type": "Point", "coordinates": [12.00115, 51.34918]}, "properties": {"id": "osm-node-1505561252", "kind": "hafen", "name": "Marinekameraden Merseburg e.V.", "area": "", "region": null, "land": "ST", "desc": null, "tags": [], "tel": "+49 34636 69470", "web": "https://www.mk-merseburg.de/", "source": "OpenStreetMap", "source_detail": "Overpass 2026-06-12", "quality": "unverified", "coord_quality": "exact"}}, {"type": "Feature", "geometry": {"type": "Point", "coordinates": [12.00099, 51.34815]}, "properties": {"id": "osm-node-1505562524", "kind": "hafen", "name": "Sportbootgemeinschaft Saale-Elster e.V.", "area": "", "region": null, "land": "ST", "desc": null, "tags": [], "tel": null, "web": null, "source": "OpenStreetMap", "source_detail": "Overpass 2026-06-12", "quality": "unverified", "coord_quality": "exact"}}, {"type": "Feature", "geometry": {"type": "Point", "coordinates": [12.00051, 51.34781]}, "properties": {"id": "osm-node-1505568071", "kind": "hafen", "name": "Saalepier Merseburg e.V.", "area": "", "region": null, "land": "ST", "desc": null, "tags": [], "tel": null, "web": null, "source": "OpenStreetMap", "source_detail": "Overpass 2026-06-12", "quality": "unverified", "coord_quality": "exact"}}, {"type": "Feature", "geometry": {"type": "Point", "coordinates": [11.99361, 51.35176]}, "properties": {"id": "osm-node-1634514402", "kind": "slip", "name": "Slipanlage", "area": "", "region": null, "land": "ST", "desc": null, "tags": [], "tel": null, "web": null, "source": "OpenStreetMap", "source_detail": "Overpass 2026-06-12", "quality": "unverified", "coord_quality": "exact"}}, {"type": "Feature", "geometry": {"type": "Point", "coordinates": [11.80654, 51.17616]}, "properties": {"id": "osm-node-1657431465", "kind": "slip", "name": "Blütengrund", "area": "", "region": null, "land": "ST", "desc": null, "tags": ["kostenlos"], "tel": null, "web": null, "source": "OpenStreetMap", "source_detail": "Overpass 2026-06-12", "quality": "unverified", "coord_quality": "exact"}}, {"type": "Feature", "geometry": {"type": "Point", "coordinates": [11.87093, 51.53371]}, "properties": {"id": "osm-node-1710739240", "kind": "hafen", "name": "Marina Brachwitz", "area": "", "region": null, "land": "ST", "desc": null, "tags": [], "tel": "+49 34606 29160", "web": "https://www.wwz-halle.de/", "source": "OpenStreetMap", "source_detail": "Overpass 2026-06-12", "quality": "unverified", "coord_quality": "exact"}}, {"type": "Feature", "geometry": {"type": "Point", "coordinates": [11.82334, 51.53112]}, "properties": {"id": "osm-node-1710741308", "kind": "slip", "name": "Slipanlage", "area": "", "region": null, "land": "ST", "desc": null, "tags": [], "tel": null, "web": null, "source": "OpenStreetMap", "source_detail": "Overpass 2026-06-12", "quality": "unverified", "coord_quality": "exact"}}, {"type": "Feature", "geometry": {"type": "Point", "coordinates": [12.65906, 51.86129]}, "properties": {"id": "osm-node-1756176509", "kind": "slip", "name": "Slipanlage WSG Wittenberg 1962 e.V. - Abteilung Motorboot", "area": "", "region": null, "land": "ST", "desc": null, "tags": [], "tel": null, "web": null, "source": "OpenStreetMap", "source_detail": "Overpass 2026-06-12", "quality": "unverified", "coord_quality": "exact"}}, {"type": "Feature", "geometry": {"type": "Point", "coordinates": [11.65003, 51.27944]}, "properties": {"id": "osm-node-1774072273", "kind": "charter", "name": "Fluss & Zeit", "area": "Karsdorf", "region": null, "land": "ST", "desc": null, "tags": [], "tel": null, "web": "https://fluss-und-zeit.de/", "source": "OpenStreetMap", "source_detail": "Overpass 2026-06-12", "quality": "unverified", "coord_quality": "exact"}}, {"type": "Feature", "geometry": {"type": "Point", "coordinates": [11.65481, 51.2456]}, "properties": {"id": "osm-node-1774203743", "kind": "slip", "name": "Unstrut-Tours Aktivreisen", "area": "", "region": null, "land": "ST", "desc": null, "tags": [], "tel": null, "web": null, "source": "OpenStreetMap", "source_detail": "Overpass 2026-06-12", "quality": "unverified", "coord_quality": "exact"}}, {"type": "Feature", "geometry": {"type": "Point", "coordinates": [11.21167, 51.93507]}, "properties": {"id": "osm-node-1779499063", "kind": "slip", "name": "Fülle", "area": "", "region": null, "land": "ST", "desc": null, "tags": [], "tel": null, "web": null, "source": "OpenStreetMap", "source_detail": "Overpass 2026-06-12", "quality": "unverified", "coord_quality": "exact"}}, {"type": "Feature", "geometry": {"type": "Point", "coordinates": [11.83542, 52.03797]}, "properties": {"id": "osm-node-1795220673", "kind": "slip", "name": "Slipanlage", "area": "", "region": null, "land": "ST", "desc": null, "tags": [], "tel": null, "web": null, "source": "OpenStreetMap", "source_detail": "Overpass 2026-06-12", "quality": "unverified", "coord_quality": "exact"}}, {"type": "Feature", "geometry": {"type": "Point", "coordinates": [11.45599, 51.2782]}, "properties": {"id": "osm-node-1854060465", "kind": "slip", "name": "Slipanlage Wendelstein", "area": "", "region": null, "land": "ST", "desc": null, "tags": [], "tel": null, "web": null, "source": "OpenStreetMap", "source_detail": "Overpass 2026-06-12", "quality": "unverified", "coord_quality": "exact"}}, {"type": "Feature", "geometry": {"type": "Point", "coordinates": [11.86669, 51.18685]}, "properties": {"id": "osm-node-1868784143", "kind": "slip", "name": "Slipstelle vor Oeblitzschleuse", "area": "", "region": null, "land": "ST", "desc": null, "tags": [], "tel": null, "web": null, "source": "OpenStreetMap", "source_detail": "Overpass 2026-06-12", "quality": "unverified", "coord_quality": "exact"}}, {"type": "Feature", "geometry": {"type": "Point", "coordinates": [11.97685, 51.2044]}, "properties": {"id": "osm-node-1879754213", "kind": "slip", "name": "Slipstelle Alte Trommelfabrik", "area": "", "region": null, "land": "ST", "desc": null, "tags": [], "tel": null, "web": null, "source": "OpenStreetMap", "source_detail": "Overpass 2026-06-12", "quality": "unverified", "coord_quality": "exact"}}, {"type": "Feature", "geometry": {"type": "Point", "coordinates": [10.91583, 51.74071]}, "properties": {"id": "osm-node-1916964262", "kind": "charter", "name": "Wendefurther Bootsverleih", "area": "", "region": null, "land": "ST", "desc": null, "tags": [], "tel": null, "web": "http://www.erlebnis-talsperre-harz.de/", "source": "OpenStreetMap", "source_detail": "Overpass 2026-06-12", "quality": "unverified", "coord_quality": "exact"}}, {"type": "Feature", "geometry": {"type": "Point", "coordinates": [12.0109, 52.67459]}, "properties": {"id": "osm-node-1921663561", "kind": "tank", "name": "Bootstankstelle", "area": "", "region": null, "land": "ST", "desc": null, "tags": [], "tel": null, "web": null, "source": "OpenStreetMap", "source_detail": "Overpass 2026-06-12", "quality": "unverified", "coord_quality": "exact"}}, {"type": "Feature", "geometry": {"type": "Point", "coordinates": [12.89629, 51.64955]}, "properties": {"id": "osm-node-1925275653", "kind": "slip", "name": "Slipanlage", "area": "", "region": null, "land": "ST", "desc": null, "tags": [], "tel": null, "web": null, "source": "OpenStreetMap", "source_detail": "Overpass 2026-06-12", "quality": "unverified", "coord_quality": "exact"}}, {"type": "Feature", "geometry": {"type": "Point", "coordinates": [11.27237, 52.40932]}, "properties": {"id": "osm-node-1938032354", "kind": "slip", "name": "Slipanlage", "area": "", "region": null, "land": "ST", "desc": null, "tags": [], "tel": null, "web": null, "source": "OpenStreetMap", "source_detail": "Overpass 2026-06-12", "quality": "unverified", "coord_quality": "exact"}}, {"type": "Feature", "geometry": {"type": "Point", "coordinates": [11.85443, 51.30081]}, "properties": {"id": "osm-node-2000546398", "kind": "slip", "name": "Slipanlage", "area": "", "region": null, "land": "ST", "desc": null, "tags": [], "tel": null, "web": null, "source": "OpenStreetMap", "source_detail": "Overpass 2026-06-12", "quality": "unverified", "coord_quality": "exact"}}, {"type": "Feature", "geometry": {"type": "Point", "coordinates": [11.64935, 51.27891]}, "properties": {"id": "osm-node-2048020965", "kind": "slip", "name": "Slipanlage", "area": "", "region": null, "land": "ST", "desc": null, "tags": [], "tel": null, "web": null, "source": "OpenStreetMap", "source_detail": "Overpass 2026-06-12", "quality": "unverified", "coord_quality": "exact"}}, {"type": "Feature", "geometry": {"type": "Point", "coordinates": [11.86844, 51.16265]}, "properties": {"id": "osm-node-2068147129", "kind": "slip", "name": "Slipstelle an der \" Schönburg \"", "area": "", "region": null, "land": "ST", "desc": null, "tags": [], "tel": null, "web": null, "source": "OpenStreetMap", "source_detail": "Overpass 2026-06-12", "quality": "unverified", "coord_quality": "exact"}}, {"type": "Feature", "geometry": {"type": "Point", "coordinates": [11.72693, 51.79006]}, "properties": {"id": "osm-node-2071402347", "kind": "hafen", "name": "Bernburger Maritimer Club", "area": "", "region": null, "land": "ST", "desc": null, "tags": [], "tel": null, "web": "http://www.maritimer-club.de/", "source": "OpenStreetMap", "source_detail": "Overpass 2026-06-12", "quality": "unverified", "coord_quality": "exact"}}, {"type": "Feature", "geometry": {"type": "Point", "coordinates": [11.78071, 51.8983]}, "properties": {"id": "osm-node-2071402348", "kind": "hafen", "name": "Bootshaus Calbe", "area": "", "region": null, "land": "ST", "desc": null, "tags": [], "tel": "+49 173 3644021", "web": null, "source": "OpenStreetMap", "source_detail": "Overpass 2026-06-12", "quality": "unverified", "coord_quality": "exact"}}, {"type": "Feature", "geometry": {"type": "Point", "coordinates": [11.71594, 51.78518]}, "properties": {"id": "osm-node-2071402539", "kind": "hafen", "name": "Wassersportverein Empor Bernburg", "area": "", "region": null, "land": "ST", "desc": null, "tags": [], "tel": null, "web": "http://www.wsv-empor.de/", "source": "OpenStreetMap", "source_detail": "Overpass 2026-06-12", "quality": "unverified", "coord_quality": "exact"}}, {"type": "Feature", "geometry": {"type": "Point", "coordinates": [11.75656, 51.58867]}, "properties": {"id": "osm-node-2071486779", "kind": "hafen", "name": "Anleger Campingplatz Saaletal", "area": "", "region": null, "land": "ST", "desc": null, "tags": [], "tel": "+49 34607 20533", "web": "http://www.camping-saaletal.de/", "source": "OpenStreetMap", "source_detail": "Overpass 2026-06-12", "quality": "unverified", "coord_quality": "exact"}}, {"type": "Feature", "geometry": {"type": "Point", "coordinates": [11.80215, 51.58424]}, "properties": {"id": "osm-node-2071486781", "kind": "hafen", "name": "Bootsservice Wettin", "area": "", "region": null, "land": "ST", "desc": null, "tags": [], "tel": "+49 34607 34694; +49 174 1336330", "web": "www.bootsservice-wettin.de/", "source": "OpenStreetMap", "source_detail": "Overpass 2026-06-12", "quality": "unverified", "coord_quality": "exact"}}, {"type": "Feature", "geometry": {"type": "Point", "coordinates": [11.68672, 51.6974]}, "properties": {"id": "osm-node-2071486783", "kind": "hafen", "name": "Kirschke Helmut Yachthafen", "area": "", "region": null, "land": "ST", "desc": null, "tags": [], "tel": "+49 171 1943456", "web": null, "source": "OpenStreetMap", "source_detail": "Overpass 2026-06-12", "quality": "unverified", "coord_quality": "exact"}}, {"type": "Feature", "geometry": {"type": "Point", "coordinates": [11.86388, 51.16036]}, "properties": {"id": "osm-node-2071546656", "kind": "hafen", "name": "Kanuclub Schönburg e. V", "area": "", "region": null, "land": "ST", "desc": null, "tags": [], "tel": null, "web": "http://www.kanuclub-schoenburg.de/", "source": "OpenStreetMap", "source_detail": "Overpass 2026-06-12", "quality": "unverified", "coord_quality": "exact"}}, {"type": "Feature", "geometry": {"type": "Point", "coordinates": [12.66728, 51.86309]}, "properties": {"id": "osm-node-2077427764", "kind": "hafen", "name": "Ruder Club Wittenberrg", "area": "", "region": null, "land": "ST", "desc": null, "tags": [], "tel": "+49 3491 403125", "web": "www.ruderclubwittenberg.de", "source": "OpenStreetMap", "source_detail": "Overpass 2026-06-12", "quality": "unverified", "coord_quality": "exact"}}, {"type": "Feature", "geometry": {"type": "Point", "coordinates": [12.2218, 51.85579]}, "properties": {"id": "osm-node-2077427765", "kind": "hafen", "name": "Seesportverein Dessau", "area": "", "region": null, "land": "ST", "desc": null, "tags": [], "tel": "+49 340 617235", "web": "https://www.seesport-dessau.de/", "source": "OpenStreetMap", "source_detail": "Overpass 2026-06-12", "quality": "unverified", "coord_quality": "exact"}}, {"type": "Feature", "geometry": {"type": "Point", "coordinates": [11.83807, 52.04246]}, "properties": {"id": "osm-node-2077427766", "kind": "hafen", "name": "Steinhafen Pretzien", "area": "", "region": null, "land": "ST", "desc": null, "tags": [], "tel": "+49 39200 51585", "web": null, "source": "OpenStreetMap", "source_detail": "Overpass 2026-06-12", "quality": "unverified", "coord_quality": "exact"}}, {"type": "Feature", "geometry": {"type": "Point", "coordinates": [12.22167, 51.85615]}, "properties": {"id": "osm-node-2077427767", "kind": "hafen", "name": "Yachtclub Dessau", "area": "", "region": null, "land": "ST", "desc": null, "tags": [], "tel": "+49 340 2211739", "web": "http://www.yachtclub-dessau.de/", "source": "OpenStreetMap", "source_detail": "Overpass 2026-06-12", "quality": "unverified", "coord_quality": "exact"}}, {"type": "Feature", "geometry": {"type": "Point", "coordinates": [11.65723, 52.11026]}, "properties": {"id": "osm-node-2077504186", "kind": "hafen", "name": "Magdeburger Seglerverein MSV", "area": "", "region": null, "land": "ST", "desc": null, "tags": [], "tel": "+49 391 5412541", "web": null, "source": "OpenStreetMap", "source_detail": "Overpass 2026-06-12", "quality": "unverified", "coord_quality": "exact"}}, {"type": "Feature", "geometry": {"type": "Point", "coordinates": [11.65739, 52.1115]}, "properties": {"id": "osm-node-2077504188", "kind": "hafen", "name": "Post-SV Magdeburg", "area": "", "region": null, "land": "ST", "desc": null, "tags": [], "tel": null, "web": null, "source": "OpenStreetMap", "source_detail": "Overpass 2026-06-12", "quality": "unverified", "coord_quality": "exact"}}, {"type": "Feature", "geometry": {"type": "Point", "coordinates": [12.0337, 51.32702]}, "properties": {"id": "osm-node-2085674581", "kind": "slip", "name": "Slipanlage", "area": "", "region": null, "land": "ST", "desc": null, "tags": [], "tel": null, "web": null, "source": "OpenStreetMap", "source_detail": "Overpass 2026-06-12", "quality": "unverified", "coord_quality": "exact"}}, {"type": "Feature", "geometry": {"type": "Point", "coordinates": [12.00388, 51.34069]}, "properties": {"id": "osm-node-2092243385", "kind": "slip", "name": "Slipanlage", "area": "", "region": null, "land": "ST", "desc": null, "tags": [], "tel": null, "web": null, "source": "OpenStreetMap", "source_detail": "Overpass 2026-06-12", "quality": "unverified", "coord_quality": "exact"}}, {"type": "Feature", "geometry": {"type": "Point", "coordinates": [12.37392, 51.63803]}, "properties": {"id": "osm-node-2100300090", "kind": "hafen", "name": "Marina Mühlbeck", "area": "", "region": null, "land": "ST", "desc": null, "tags": [], "tel": null, "web": null, "source": "OpenStreetMap", "source_detail": "Overpass 2026-06-12", "quality": "unverified", "coord_quality": "exact"}}, {"type": "Feature", "geometry": {"type": "Point", "coordinates": [12.43625, 51.88026]}, "properties": {"id": "osm-node-2117525560", "kind": "hafen", "name": "Marina Coswig (Anhalt)", "area": "", "region": null, "land": "ST", "desc": null, "tags": [], "tel": "+49 34903 496224", "web": "https://www.marina-coswig.de/", "source": "OpenStreetMap", "source_detail": "Overpass 2026-06-12", "quality": "unverified", "coord_quality": "exact"}}, {"type": "Feature", "geometry": {"type": "Point", "coordinates": [12.14814, 51.87456]}, "properties": {"id": "osm-node-2117525566", "kind": "hafen", "name": "Marina Elbterrassen zu Brambach", "area": "", "region": null, "land": "ST", "desc": null, "tags": [], "tel": "+49 34901 82675", "web": "https://www.elbterrassen.de/", "source": "OpenStreetMap", "source_detail": "Overpass 2026-06-12", "quality": "unverified", "coord_quality": "exact"}}, {"type": "Feature", "geometry": {"type": "Point", "coordinates": [11.6462, 52.12448]}, "properties": {"id": "osm-node-2117763730", "kind": "tank", "name": "Bootstankstelle", "area": "", "region": null, "land": "ST", "desc": null, "tags": [], "tel": null, "web": null, "source": "OpenStreetMap", "source_detail": "Overpass 2026-06-12", "quality": "unverified", "coord_quality": "exact"}}, {"type": "Feature", "geometry": {"type": "Point", "coordinates": [11.97237, 52.53823]}, "properties": {"id": "osm-node-2117763860", "kind": "slip", "name": "Slipanlage", "area": "", "region": null, "land": "ST", "desc": null, "tags": [], "tel": null, "web": null, "source": "OpenStreetMap", "source_detail": "Overpass 2026-06-12", "quality": "unverified", "coord_quality": "exact"}}, {"type": "Feature", "geometry": {"type": "Point", "coordinates": [12.01179, 52.67471]}, "properties": {"id": "osm-node-2117763862", "kind": "slip", "name": "Slipanlage", "area": "", "region": null, "land": "ST", "desc": null, "tags": [], "tel": null, "web": null, "source": "OpenStreetMap", "source_detail": "Overpass 2026-06-12", "quality": "unverified", "coord_quality": "exact"}}, {"type": "Feature", "geometry": {"type": "Point", "coordinates": [11.71015, 52.03914]}, "properties": {"id": "osm-node-2117763870", "kind": "hafen", "name": "Wassersportzentrum Henning Frohse", "area": "", "region": null, "land": "ST", "desc": null, "tags": [], "tel": "+49 391 4082435", "web": "http://www.wsz-henning.de", "source": "OpenStreetMap", "source_detail": "Overpass 2026-06-12", "quality": "unverified", "coord_quality": "exact"}}, {"type": "Feature", "geometry": {"type": "Point", "coordinates": [11.49955, 52.89002]}, "properties": {"id": "osm-node-2125320193", "kind": "hafen", "name": "Segler-Club Arendsee von 1953", "area": "", "region": null, "land": "ST", "desc": null, "tags": [], "tel": "+49 39384 21576", "web": "https://www.sc-arendsee.de/", "source": "OpenStreetMap", "source_detail": "Overpass 2026-06-12", "quality": "unverified", "coord_quality": "exact"}}, {"type": "Feature", "geometry": {"type": "Point", "coordinates": [12.04938, 52.8747]}, "properties": {"id": "osm-node-2209610045", "kind": "slip", "name": "Slipanlage", "area": "", "region": null, "land": "ST", "desc": null, "tags": [], "tel": null, "web": null, "source": "OpenStreetMap", "source_detail": "Overpass 2026-06-12", "quality": "unverified", "coord_quality": "exact"}}, {"type": "Feature", "geometry": {"type": "Point", "coordinates": [11.86986, 51.18729]}, "properties": {"id": "osm-node-2260128596", "kind": "slip", "name": "Slipanlage", "area": "", "region": null, "land": "ST", "desc": null, "tags": ["kostenlos"], "tel": null, "web": null, "source": "OpenStreetMap", "source_detail": "Overpass 2026-06-12", "quality": "unverified", "coord_quality": "exact"}}, {"type": "Feature", "geometry": {"type": "Point", "coordinates": [11.87234, 51.18675]}, "properties": {"id": "osm-node-2260134361", "kind": "slip", "name": "Slipanlage", "area": "", "region": null, "land": "ST", "desc": null, "tags": ["kostenlos"], "tel": null, "web": null, "source": "OpenStreetMap", "source_detail": "Overpass 2026-06-12", "quality": "unverified", "coord_quality": "exact"}}, {"type": "Feature", "geometry": {"type": "Point", "coordinates": [11.80269, 51.5842]}, "properties": {"id": "osm-node-2264433405", "kind": "slip", "name": "Slipanlage", "area": "", "region": null, "land": "ST", "desc": null, "tags": [], "tel": null, "web": null, "source": "OpenStreetMap", "source_detail": "Overpass 2026-06-12", "quality": "unverified", "coord_quality": "exact"}}, {"type": "Feature", "geometry": {"type": "Point", "coordinates": [12.20204, 52.75321]}, "properties": {"id": "osm-node-2273169199", "kind": "tank", "name": "Bootstankstelle", "area": "", "region": null, "land": "ST", "desc": null, "tags": [], "tel": null, "web": null, "source": "OpenStreetMap", "source_detail": "Overpass 2026-06-12", "quality": "unverified", "coord_quality": "exact"}}, {"type": "Feature", "geometry": {"type": "Point", "coordinates": [10.78149, 51.83868]}, "properties": {"id": "osm-node-2275709600", "kind": "entsorgung", "name": "Entsorgungsstation", "area": "", "region": null, "land": "ST", "desc": null, "tags": [], "tel": null, "web": null, "source": "OpenStreetMap", "source_detail": "Overpass 2026-06-12", "quality": "unverified", "coord_quality": "exact"}}, {"type": "Feature", "geometry": {"type": "Point", "coordinates": [11.77008, 51.20861]}, "properties": {"id": "osm-node-2458441928", "kind": "slip", "name": "Slipanlage", "area": "", "region": null, "land": "ST", "desc": null, "tags": [], "tel": null, "web": null, "source": "OpenStreetMap", "source_detail": "Overpass 2026-06-12", "quality": "unverified", "coord_quality": "exact"}}, {"type": "Feature", "geometry": {"type": "Point", "coordinates": [11.29399, 52.38797]}, "properties": {"id": "osm-node-2459386630", "kind": "slip", "name": "Slipanlage", "area": "", "region": null, "land": "ST", "desc": null, "tags": [], "tel": null, "web": null, "source": "OpenStreetMap", "source_detail": "Overpass 2026-06-12", "quality": "unverified", "coord_quality": "exact"}}, {"type": "Feature", "geometry": {"type": "Point", "coordinates": [11.60054, 52.22987]}, "properties": {"id": "osm-node-2461344844", "kind": "slip", "name": "Slipanlage", "area": "", "region": null, "land": "ST", "desc": null, "tags": [], "tel": null, "web": null, "source": "OpenStreetMap", "source_detail": "Overpass 2026-06-12", "quality": "unverified", "coord_quality": "exact"}}, {"type": "Feature", "geometry": {"type": "Point", "coordinates": [12.22119, 51.85673]}, "properties": {"id": "osm-node-2516066664", "kind": "slip", "name": "Paddelsteg", "area": "", "region": null, "land": "ST", "desc": null, "tags": [], "tel": null, "web": null, "source": "OpenStreetMap", "source_detail": "Overpass 2026-06-12", "quality": "unverified", "coord_quality": "exact"}}, {"type": "Feature", "geometry": {"type": "Point", "coordinates": [12.22228, 51.85599]}, "properties": {"id": "osm-node-2520358318", "kind": "slip", "name": "Leopoldshafen", "area": "", "region": null, "land": "ST", "desc": null, "tags": [], "tel": null, "web": null, "source": "OpenStreetMap", "source_detail": "Overpass 2026-06-12", "quality": "unverified", "coord_quality": "exact"}}, {"type": "Feature", "geometry": {"type": "Point", "coordinates": [11.70597, 51.11022]}, "properties": {"id": "osm-node-2565522944", "kind": "hafen", "name": "Bootsanleger Saaleck", "area": "", "region": null, "land": "ST", "desc": null, "tags": [], "tel": null, "web": null, "source": "OpenStreetMap", "source_detail": "Overpass 2026-06-12", "quality": "unverified", "coord_quality": "exact"}}, {"type": "Feature", "geometry": {"type": "Point", "coordinates": [11.97052, 51.20301]}, "properties": {"id": "osm-node-2607975865", "kind": "charter", "name": "Bootsverleih Weißenfels", "area": "", "region": null, "land": "ST", "desc": null, "tags": [], "tel": null, "web": "http://bootsverleih.diartfoto.de/", "source": "OpenStreetMap", "source_detail": "Overpass 2026-06-12", "quality": "unverified", "coord_quality": "exact"}}, {"type": "Feature", "geometry": {"type": "Point", "coordinates": [12.14779, 51.87462]}, "properties": {"id": "osm-node-2749812068", "kind": "slip", "name": "Slipanlage", "area": "", "region": null, "land": "ST", "desc": null, "tags": [], "tel": null, "web": null, "source": "OpenStreetMap", "source_detail": "Overpass 2026-06-12", "quality": "unverified", "coord_quality": "exact"}}, {"type": "Feature", "geometry": {"type": "Point", "coordinates": [11.92673, 51.29058]}, "properties": {"id": "osm-node-2784593925", "kind": "hafen", "name": "Yachthafen", "area": "", "region": null, "land": "ST", "desc": null, "tags": [], "tel": null, "web": null, "source": "OpenStreetMap", "source_detail": "Overpass 2026-06-12", "quality": "unverified", "coord_quality": "exact"}}, {"type": "Feature", "geometry": {"type": "Point", "coordinates": [12.21621, 52.69703]}, "properties": {"id": "osm-node-2874444422", "kind": "hafen", "name": "Marina Molkenberg", "area": "", "region": null, "land": "ST", "desc": null, "tags": ["230V"], "tel": null, "web": null, "source": "OpenStreetMap", "source_detail": "Overpass 2026-06-12", "quality": "unverified", "coord_quality": "exact"}}, {"type": "Feature", "geometry": {"type": "Point", "coordinates": [12.07075, 52.82731]}, "properties": {"id": "osm-node-2874444424", "kind": "hafen", "name": "Ruderriege Havelberg von 1909 e. V.", "area": "", "region": null, "land": "ST", "desc": null, "tags": [], "tel": null, "web": "https://www.ruderriege-hv.de/", "source": "OpenStreetMap", "source_detail": "Overpass 2026-06-12", "quality": "unverified", "coord_quality": "exact"}}, {"type": "Feature", "geometry": {"type": "Point", "coordinates": [11.95155, 51.50364]}, "properties": {"id": "osm-node-3011932246", "kind": "charter", "name": "Wassertouristik Saaletal", "area": "", "region": null, "land": "ST", "desc": null, "tags": [], "tel": "+49 170 2345100", "web": "https://www.halle-bootsverleih.de/", "source": "OpenStreetMap", "source_detail": "Overpass 2026-06-12", "quality": "unverified", "coord_quality": "exact"}}, {"type": "Feature", "geometry": {"type": "Point", "coordinates": [11.24023, 52.32659]}, "properties": {"id": "osm-node-3112512029", "kind": "charter", "name": "Bootsverleih Hafenbar", "area": "", "region": null, "land": "ST", "desc": null, "tags": [], "tel": null, "web": null, "source": "OpenStreetMap", "source_detail": "Overpass 2026-06-12", "quality": "unverified", "coord_quality": "exact"}}, {"type": "Feature", "geometry": {"type": "Point", "coordinates": [11.71349, 51.78423]}, "properties": {"id": "osm-node-3120777291", "kind": "slip", "name": "Slipanlage", "area": "", "region": null, "land": "ST", "desc": null, "tags": [], "tel": null, "web": null, "source": "OpenStreetMap", "source_detail": "Overpass 2026-06-12", "quality": "unverified", "coord_quality": "exact"}}, {"type": "Feature", "geometry": {"type": "Point", "coordinates": [12.26337, 51.58102]}, "properties": {"id": "osm-node-3123797527", "kind": "hafen", "name": "Marineclub Delitzsch e.V.", "area": "", "region": null, "land": "ST", "desc": null, "tags": [], "tel": null, "web": "https://www.marineclub-delitzsch.de/", "source": "OpenStreetMap", "source_detail": "Overpass 2026-06-12", "quality": "unverified", "coord_quality": "exact"}}, {"type": "Feature", "geometry": {"type": "Point", "coordinates": [12.25809, 51.58327]}, "properties": {"id": "osm-node-3123797732", "kind": "hafen", "name": "Verein Roitzsch-Südufer e.V.", "area": "", "region": null, "land": "ST", "desc": null, "tags": [], "tel": null, "web": "https://www.roitzsch-suedufer.de/", "source": "OpenStreetMap", "source_detail": "Overpass 2026-06-12", "quality": "unverified", "coord_quality": "exact"}}, {"type": "Feature", "geometry": {"type": "Point", "coordinates": [11.73834, 52.80022]}, "properties": {"id": "osm-node-3308057623", "kind": "entsorgung", "name": "Entsorgungsstation", "area": "", "region": null, "land": "ST", "desc": null, "tags": [], "tel": null, "web": null, "source": "OpenStreetMap", "source_detail": "Overpass 2026-06-12", "quality": "unverified", "coord_quality": "exact"}}, {"type": "Feature", "geometry": {"type": "Point", "coordinates": [11.48568, 52.255]}, "properties": {"id": "osm-node-3328816823", "kind": "slip", "name": "Slipanlage", "area": "", "region": null, "land": "ST", "desc": null, "tags": [], "tel": null, "web": null, "source": "OpenStreetMap", "source_detail": "Overpass 2026-06-12", "quality": "unverified", "coord_quality": "exact"}}, {"type": "Feature", "geometry": {"type": "Point", "coordinates": [11.92433, 51.69304]}, "properties": {"id": "osm-node-3426985192", "kind": "charter", "name": "Seebad Edderitz", "area": "", "region": null, "land": "ST", "desc": null, "tags": [], "tel": null, "web": null, "source": "OpenStreetMap", "source_detail": "Overpass 2026-06-12", "quality": "unverified", "coord_quality": "exact"}}, {"type": "Feature", "geometry": {"type": "Point", "coordinates": [11.96888, 52.53824]}, "properties": {"id": "osm-node-3510042227", "kind": "entsorgung", "name": "Entsorgungsstation", "area": "", "region": null, "land": "ST", "desc": null, "tags": [], "tel": null, "web": null, "source": "OpenStreetMap", "source_detail": "Overpass 2026-06-12", "quality": "unverified", "coord_quality": "exact"}}, {"type": "Feature", "geometry": {"type": "Point", "coordinates": [12.21579, 52.69772]}, "properties": {"id": "osm-node-3558432613", "kind": "slip", "name": "Molkenberg", "area": "", "region": null, "land": "ST", "desc": null, "tags": [], "tel": null, "web": null, "source": "OpenStreetMap", "source_detail": "Overpass 2026-06-12", "quality": "unverified", "coord_quality": "exact"}}, {"type": "Feature", "geometry": {"type": "Point", "coordinates": [12.3464, 51.62699]}, "properties": {"id": "osm-node-3671315621", "kind": "slip", "name": "Slipanlage", "area": "", "region": null, "land": "ST", "desc": null, "tags": [], "tel": null, "web": null, "source": "OpenStreetMap", "source_detail": "Overpass 2026-06-12", "quality": "unverified", "coord_quality": "exact"}}, {"type": "Feature", "geometry": {"type": "Point", "coordinates": [11.62881, 52.7879]}, "properties": {"id": "osm-node-3722491581", "kind": "slip", "name": "Slipanlage", "area": "", "region": null, "land": "ST", "desc": null, "tags": [], "tel": null, "web": null, "source": "OpenStreetMap", "source_detail": "Overpass 2026-06-12", "quality": "unverified", "coord_quality": "exact"}}, {"type": "Feature", "geometry": {"type": "Point", "coordinates": [11.76534, 52.26899]}, "properties": {"id": "osm-node-3786728317", "kind": "slip", "name": "Slipanlage", "area": "", "region": null, "land": "ST", "desc": null, "tags": [], "tel": null, "web": null, "source": "OpenStreetMap", "source_detail": "Overpass 2026-06-12", "quality": "unverified", "coord_quality": "exact"}}, {"type": "Feature", "geometry": {"type": "Point", "coordinates": [11.18468, 52.62906]}, "properties": {"id": "osm-node-3789931012", "kind": "entsorgung", "name": "Entsorgungsstation", "area": "", "region": null, "land": "ST", "desc": null, "tags": ["kostenlos"], "tel": null, "web": null, "source": "OpenStreetMap", "source_detail": "Overpass 2026-06-12", "quality": "unverified", "coord_quality": "exact"}}, {"type": "Feature", "geometry": {"type": "Point", "coordinates": [11.95172, 51.49685]}, "properties": {"id": "osm-node-3967629637", "kind": "charter", "name": "Bootshaus 5", "area": "", "region": null, "land": "ST", "desc": null, "tags": [], "tel": null, "web": null, "source": "OpenStreetMap", "source_detail": "Overpass 2026-06-12", "quality": "unverified", "coord_quality": "exact"}}, {"type": "Feature", "geometry": {"type": "Point", "coordinates": [11.95509, 51.41754]}, "properties": {"id": "osm-node-4147420612", "kind": "slip", "name": "Schleuse Planena", "area": "", "region": null, "land": "ST", "desc": null, "tags": [], "tel": null, "web": null, "source": "OpenStreetMap", "source_detail": "Overpass 2026-06-12", "quality": "unverified", "coord_quality": "exact"}}, {"type": "Feature", "geometry": {"type": "Point", "coordinates": [11.13941, 52.85011]}, "properties": {"id": "osm-node-4196500811", "kind": "entsorgung", "name": "Entsorgungsstation", "area": "", "region": null, "land": "ST", "desc": null, "tags": [], "tel": null, "web": null, "source": "OpenStreetMap", "source_detail": "Overpass 2026-06-12", "quality": "unverified", "coord_quality": "exact"}}, {"type": "Feature", "geometry": {"type": "Point", "coordinates": [11.63929, 51.24444]}, "properties": {"id": "osm-node-4327072913", "kind": "slip", "name": "Slipanlage", "area": "", "region": null, "land": "ST", "desc": null, "tags": [], "tel": null, "web": null, "source": "OpenStreetMap", "source_detail": "Overpass 2026-06-12", "quality": "unverified", "coord_quality": "exact"}}, {"type": "Feature", "geometry": {"type": "Point", "coordinates": [10.67038, 51.85493]}, "properties": {"id": "osm-node-4484403403", "kind": "entsorgung", "name": "Entsorgungsstation", "area": "", "region": null, "land": "ST", "desc": null, "tags": [], "tel": null, "web": null, "source": "OpenStreetMap", "source_detail": "Overpass 2026-06-12", "quality": "unverified", "coord_quality": "exact"}}, {"type": "Feature", "geometry": {"type": "Point", "coordinates": [11.82973, 51.17105]}, "properties": {"id": "osm-node-4876732178", "kind": "charter", "name": "Saalestrand Kanu", "area": "", "region": null, "land": "ST", "desc": null, "tags": [], "tel": "+49 3445 677141", "web": "https://www.saalestrand-kanu.de/", "source": "OpenStreetMap", "source_detail": "Overpass 2026-06-12", "quality": "unverified", "coord_quality": "exact"}}, {"type": "Feature", "geometry": {"type": "Point", "coordinates": [11.69663, 51.49331]}, "properties": {"id": "osm-node-4940263337", "kind": "hafen", "name": "SG Segeln 90 e.V.", "area": "", "region": null, "land": "ST", "desc": null, "tags": ["230V", "Entsorgung"], "tel": null, "web": null, "source": "OpenStreetMap", "source_detail": "Overpass 2026-06-12", "quality": "unverified", "coord_quality": "exact"}}, {"type": "Feature", "geometry": {"type": "Point", "coordinates": [11.64398, 52.12532]}, "properties": {"id": "osm-node-5060544023", "kind": "charter", "name": "Elbe-Grill-Spass", "area": "", "region": null, "land": "ST", "desc": null, "tags": [], "tel": null, "web": null, "source": "OpenStreetMap", "source_detail": "Overpass 2026-06-12", "quality": "unverified", "coord_quality": "exact"}}, {"type": "Feature", "geometry": {"type": "Point", "coordinates": [12.35653, 51.63395]}, "properties": {"id": "osm-node-5491095688", "kind": "hafen", "name": "Marina Bernsteinsee", "area": "", "region": null, "land": "ST", "desc": null, "tags": [], "tel": null, "web": null, "source": "OpenStreetMap", "source_detail": "Overpass 2026-06-12", "quality": "unverified", "coord_quality": "exact"}}, {"type": "Feature", "geometry": {"type": "Point", "coordinates": [11.64948, 52.12527]}, "properties": {"id": "osm-node-5591532253", "kind": "entsorgung", "name": "Entsorgungsstation", "area": "", "region": null, "land": "ST", "desc": null, "tags": [], "tel": null, "web": null, "source": "OpenStreetMap", "source_detail": "Overpass 2026-06-12", "quality": "unverified", "coord_quality": "exact"}}, {"type": "Feature", "geometry": {"type": "Point", "coordinates": [11.79304, 52.2718]}, "properties": {"id": "osm-node-5835824194", "kind": "slip", "name": "Slipanlage", "area": "", "region": null, "land": "ST", "desc": null, "tags": [], "tel": null, "web": null, "source": "OpenStreetMap", "source_detail": "Overpass 2026-06-12", "quality": "unverified", "coord_quality": "exact"}}, {"type": "Feature", "geometry": {"type": "Point", "coordinates": [11.40124, 52.5312]}, "properties": {"id": "osm-node-5847021824", "kind": "entsorgung", "name": "Entsorgungsstation", "area": "", "region": null, "land": "ST", "desc": null, "tags": [], "tel": null, "web": null, "source": "OpenStreetMap", "source_detail": "Overpass 2026-06-12", "quality": "unverified", "coord_quality": "exact"}}, {"type": "Feature", "geometry": {"type": "Point", "coordinates": [11.40123, 52.53118]}, "properties": {"id": "osm-node-5847021826", "kind": "entsorgung", "name": "Entsorgungsstation", "area": "", "region": null, "land": "ST", "desc": null, "tags": [], "tel": null, "web": null, "source": "OpenStreetMap", "source_detail": "Overpass 2026-06-12", "quality": "unverified", "coord_quality": "exact"}}, {"type": "Feature", "geometry": {"type": "Point", "coordinates": [11.75799, 51.21318]}, "properties": {"id": "osm-node-5964371752", "kind": "charter", "name": "Kanu-Fahrrad-Station Freyburg", "area": "", "region": null, "land": "ST", "desc": null, "tags": [], "tel": "+49 34461 24388", "web": "https://fluss-und-zeit.de", "source": "OpenStreetMap", "source_detail": "Overpass 2026-06-12", "quality": "unverified", "coord_quality": "exact"}}, {"type": "Feature", "geometry": {"type": "Point", "coordinates": [11.86631, 51.3]}, "properties": {"id": "osm-node-6404854204", "kind": "slip", "name": "Slipanlage Braunsbedra", "area": "", "region": null, "land": "ST", "desc": null, "tags": [], "tel": null, "web": null, "source": "OpenStreetMap", "source_detail": "Overpass 2026-06-12", "quality": "unverified", "coord_quality": "exact"}}, {"type": "Feature", "geometry": {"type": "Point", "coordinates": [11.65643, 52.10993]}, "properties": {"id": "osm-node-6494327328", "kind": "charter", "name": "Biber Kanu Touristik", "area": "Magdeburg", "region": null, "land": "ST", "desc": null, "tags": [], "tel": null, "web": null, "source": "OpenStreetMap", "source_detail": "Overpass 2026-06-12", "quality": "unverified", "coord_quality": "exact"}}, {"type": "Feature", "geometry": {"type": "Point", "coordinates": [12.06704, 52.82776]}, "properties": {"id": "osm-node-6540819216", "kind": "slip", "name": "Slipanlage", "area": "", "region": null, "land": "ST", "desc": null, "tags": [], "tel": null, "web": null, "source": "OpenStreetMap", "source_detail": "Overpass 2026-06-12", "quality": "unverified", "coord_quality": "exact"}}, {"type": "Feature", "geometry": {"type": "Point", "coordinates": [12.00964, 52.87898]}, "properties": {"id": "osm-node-6540868792", "kind": "slip", "name": "Slipanlage", "area": "", "region": null, "land": "ST", "desc": null, "tags": [], "tel": null, "web": null, "source": "OpenStreetMap", "source_detail": "Overpass 2026-06-12", "quality": "unverified", "coord_quality": "exact"}}, {"type": "Feature", "geometry": {"type": "Point", "coordinates": [11.96052, 51.20508]}, "properties": {"id": "osm-node-6542270750", "kind": "slip", "name": "Slipanlage", "area": "", "region": null, "land": "ST", "desc": null, "tags": ["kostenlos"], "tel": null, "web": null, "source": "OpenStreetMap", "source_detail": "Overpass 2026-06-12", "quality": "unverified", "coord_quality": "exact"}}, {"type": "Feature", "geometry": {"type": "Point", "coordinates": [11.95917, 51.20582]}, "properties": {"id": "osm-node-6542270755", "kind": "slip", "name": "Slipanlage", "area": "", "region": null, "land": "ST", "desc": null, "tags": ["kostenlos"], "tel": null, "web": null, "source": "OpenStreetMap", "source_detail": "Overpass 2026-06-12", "quality": "unverified", "coord_quality": "exact"}}, {"type": "Feature", "geometry": {"type": "Point", "coordinates": [12.23536, 51.88167]}, "properties": {"id": "osm-node-7745029440", "kind": "slip", "name": "Slipanlage", "area": "", "region": null, "land": "ST", "desc": null, "tags": [], "tel": null, "web": null, "source": "OpenStreetMap", "source_detail": "Overpass 2026-06-12", "quality": "unverified", "coord_quality": "exact"}}, {"type": "Feature", "geometry": {"type": "Point", "coordinates": [11.13944, 51.79114]}, "properties": {"id": "osm-node-7819515289", "kind": "entsorgung", "name": "Entsorgungsstation", "area": "", "region": null, "land": "ST", "desc": null, "tags": [], "tel": null, "web": null, "source": "OpenStreetMap", "source_detail": "Overpass 2026-06-12", "quality": "unverified", "coord_quality": "exact"}}, {"type": "Feature", "geometry": {"type": "Point", "coordinates": [10.87763, 52.75165]}, "properties": {"id": "osm-node-8602986148", "kind": "entsorgung", "name": "Entsorgungsstation", "area": "", "region": null, "land": "ST", "desc": null, "tags": [], "tel": null, "web": null, "source": "OpenStreetMap", "source_detail": "Overpass 2026-06-12", "quality": "unverified", "coord_quality": "exact"}}, {"type": "Feature", "geometry": {"type": "Point", "coordinates": [11.86942, 51.29737]}, "properties": {"id": "osm-node-8676941056", "kind": "charter", "name": "familyboat.de", "area": "Braunsbedra", "region": null, "land": "ST", "desc": null, "tags": [], "tel": null, "web": "http://www.familyboat.de", "source": "OpenStreetMap", "source_detail": "Overpass 2026-06-12", "quality": "unverified", "coord_quality": "exact"}}, {"type": "Feature", "geometry": {"type": "Point", "coordinates": [11.74459, 51.66536]}, "properties": {"id": "osm-node-8762531590", "kind": "slip", "name": "Slipanlage", "area": "", "region": null, "land": "ST", "desc": null, "tags": ["kostenlos"], "tel": null, "web": null, "source": "OpenStreetMap", "source_detail": "Overpass 2026-06-12", "quality": "unverified", "coord_quality": "exact"}}, {"type": "Feature", "geometry": {"type": "Point", "coordinates": [10.91513, 51.74013]}, "properties": {"id": "osm-node-9599047399", "kind": "charter", "name": "Wendefurther Bootsverleih", "area": "", "region": null, "land": "ST", "desc": null, "tags": [], "tel": null, "web": "http://www.erlebnis-talsperre-harz.de/", "source": "OpenStreetMap", "source_detail": "Overpass 2026-06-12", "quality": "unverified", "coord_quality": "exact"}}, {"type": "Feature", "geometry": {"type": "Point", "coordinates": [10.91556, 51.74042]}, "properties": {"id": "osm-node-9599047409", "kind": "charter", "name": "Wendefurther Bootsverleih", "area": "", "region": null, "land": "ST", "desc": null, "tags": [], "tel": null, "web": "http://www.wendefurther-bootsverleih.de/", "source": "OpenStreetMap", "source_detail": "Overpass 2026-06-12", "quality": "unverified", "coord_quality": "exact"}}, {"type": "Feature", "geometry": {"type": "Point", "coordinates": [12.17211, 51.08825]}, "properties": {"id": "osm-node-9706780600", "kind": "charter", "name": "Bootsverleih-Elstertal", "area": "Elsteraue", "region": null, "land": "ST", "desc": null, "tags": [], "tel": null, "web": "https://bootsverleih-elstertal.de/", "source": "OpenStreetMap", "source_detail": "Overpass 2026-06-12", "quality": "unverified", "coord_quality": "exact"}}, {"type": "Feature", "geometry": {"type": "Point", "coordinates": [12.06811, 52.82952]}, "properties": {"id": "osm-node-9711928009", "kind": "charter", "name": "Yachthafen Havelberg", "area": "", "region": null, "land": "ST", "desc": null, "tags": [], "tel": null, "web": null, "source": "OpenStreetMap", "source_detail": "Overpass 2026-06-12", "quality": "unverified", "coord_quality": "exact"}}, {"type": "Feature", "geometry": {"type": "Point", "coordinates": [12.35602, 51.63315]}, "properties": {"id": "osm-node-9757443653", "kind": "slip", "name": "Slipanlage", "area": "", "region": null, "land": "ST", "desc": null, "tags": [], "tel": null, "web": null, "source": "OpenStreetMap", "source_detail": "Overpass 2026-06-12", "quality": "unverified", "coord_quality": "exact"}}, {"type": "Feature", "geometry": {"type": "Point", "coordinates": [12.34168, 51.6181]}, "properties": {"id": "osm-node-9757443654", "kind": "slip", "name": "Slipanlage", "area": "", "region": null, "land": "ST", "desc": null, "tags": [], "tel": null, "web": null, "source": "OpenStreetMap", "source_detail": "Overpass 2026-06-12", "quality": "unverified", "coord_quality": "exact"}}, {"type": "Feature", "geometry": {"type": "Point", "coordinates": [11.74342, 52.27083]}, "properties": {"id": "osm-node-9793868398", "kind": "charter", "name": "GERMARIN Bootsverleih", "area": "", "region": null, "land": "ST", "desc": null, "tags": [], "tel": null, "web": null, "source": "OpenStreetMap", "source_detail": "Overpass 2026-06-12", "quality": "unverified", "coord_quality": "exact"}}, {"type": "Feature", "geometry": {"type": "Point", "coordinates": [11.8431, 52.35484]}, "properties": {"id": "osm-node-9876661757", "kind": "entsorgung", "name": "Entsorgungsstation", "area": "", "region": null, "land": "ST", "desc": null, "tags": [], "tel": null, "web": null, "source": "OpenStreetMap", "source_detail": "Overpass 2026-06-12", "quality": "unverified", "coord_quality": "exact"}}, {"type": "Feature", "geometry": {"type": "Point", "coordinates": [11.84846, 52.2825]}, "properties": {"id": "osm-node-9883602361", "kind": "slip", "name": "Slipanlage", "area": "", "region": null, "land": "ST", "desc": null, "tags": [], "tel": null, "web": null, "source": "OpenStreetMap", "source_detail": "Overpass 2026-06-12", "quality": "unverified", "coord_quality": "exact"}}, {"type": "Feature", "geometry": {"type": "Point", "coordinates": [12.45431, 51.91546]}, "properties": {"id": "osm-node-9922052710", "kind": "entsorgung", "name": "Entsorgungsstation", "area": "", "region": null, "land": "ST", "desc": null, "tags": ["kostenlos"], "tel": null, "web": null, "source": "OpenStreetMap", "source_detail": "Overpass 2026-06-12", "quality": "unverified", "coord_quality": "exact"}}, {"type": "Feature", "geometry": {"type": "Point", "coordinates": [11.56235, 51.52869]}, "properties": {"id": "osm-node-10057891089", "kind": "entsorgung", "name": "Entsorgungsstation", "area": "", "region": null, "land": "ST", "desc": null, "tags": [], "tel": null, "web": null, "source": "OpenStreetMap", "source_detail": "Overpass 2026-06-12", "quality": "unverified", "coord_quality": "exact"}}, {"type": "Feature", "geometry": {"type": "Point", "coordinates": [11.82159, 52.27427]}, "properties": {"id": "osm-node-10868900413", "kind": "slip", "name": "Slipanlage", "area": "", "region": null, "land": "ST", "desc": null, "tags": [], "tel": null, "web": null, "source": "OpenStreetMap", "source_detail": "Overpass 2026-06-12", "quality": "unverified", "coord_quality": "exact"}}, {"type": "Feature", "geometry": {"type": "Point", "coordinates": [11.79707, 52.27462]}, "properties": {"id": "osm-node-10872349865", "kind": "slip", "name": "Slipanlage", "area": "", "region": null, "land": "ST", "desc": null, "tags": [], "tel": null, "web": null, "source": "OpenStreetMap", "source_detail": "Overpass 2026-06-12", "quality": "unverified", "coord_quality": "exact"}}, {"type": "Feature", "geometry": {"type": "Point", "coordinates": [11.85005, 52.2812]}, "properties": {"id": "osm-node-10874217959", "kind": "charter", "name": "Bootsverleih-Führerscheinfrei", "area": "Burg", "region": null, "land": "ST", "desc": null, "tags": [], "tel": null, "web": null, "source": "OpenStreetMap", "source_detail": "Overpass 2026-06-12", "quality": "unverified", "coord_quality": "exact"}}, {"type": "Feature", "geometry": {"type": "Point", "coordinates": [12.05528, 51.36947]}, "properties": {"id": "osm-node-11025006405", "kind": "badestelle", "name": "Badestelle", "area": "", "region": null, "land": "ST", "desc": null, "tags": [], "tel": null, "web": null, "source": "OpenStreetMap", "source_detail": "Overpass 2026-06-12", "quality": "unverified", "coord_quality": "exact"}}, {"type": "Feature", "geometry": {"type": "Point", "coordinates": [11.80603, 51.17525]}, "properties": {"id": "osm-node-11687416079", "kind": "entsorgung", "name": "Entsorgungsstation", "area": "", "region": null, "land": "ST", "desc": null, "tags": ["kostenlos"], "tel": null, "web": null, "source": "OpenStreetMap", "source_detail": "Overpass 2026-06-12", "quality": "unverified", "coord_quality": "exact"}}, {"type": "Feature", "geometry": {"type": "Point", "coordinates": [11.40255, 52.27912]}, "properties": {"id": "osm-node-11810033258", "kind": "entsorgung", "name": "Entsorgungsstation", "area": "", "region": null, "land": "ST", "desc": null, "tags": [], "tel": null, "web": null, "source": "OpenStreetMap", "source_detail": "Overpass 2026-06-12", "quality": "unverified", "coord_quality": "exact"}}, {"type": "Feature", "geometry": {"type": "Point", "coordinates": [12.34165, 51.6157]}, "properties": {"id": "osm-node-11932360287", "kind": "entsorgung", "name": "Entsorgungsstation", "area": "", "region": null, "land": "ST", "desc": null, "tags": ["kostenlos"], "tel": null, "web": null, "source": "OpenStreetMap", "source_detail": "Overpass 2026-06-12", "quality": "unverified", "coord_quality": "exact"}}, {"type": "Feature", "geometry": {"type": "Point", "coordinates": [11.95693, 51.50567]}, "properties": {"id": "osm-node-11986080468", "kind": "slip", "name": "Slipanlage", "area": "", "region": null, "land": "ST", "desc": null, "tags": ["kostenlos"], "tel": null, "web": null, "source": "OpenStreetMap", "source_detail": "Overpass 2026-06-12", "quality": "unverified", "coord_quality": "exact"}}, {"type": "Feature", "geometry": {"type": "Point", "coordinates": [11.64744, 52.13312]}, "properties": {"id": "osm-node-12014556204", "kind": "entsorgung", "name": "Entsorgungsstation", "area": "", "region": null, "land": "ST", "desc": null, "tags": [], "tel": null, "web": null, "source": "OpenStreetMap", "source_detail": "Overpass 2026-06-12", "quality": "unverified", "coord_quality": "exact"}}, {"type": "Feature", "geometry": {"type": "Point", "coordinates": [12.40128, 51.62959]}, "properties": {"id": "osm-node-12022845501", "kind": "slip", "name": "Slipanlage", "area": "", "region": null, "land": "ST", "desc": null, "tags": [], "tel": null, "web": null, "source": "OpenStreetMap", "source_detail": "Overpass 2026-06-12", "quality": "unverified", "coord_quality": "exact"}}, {"type": "Feature", "geometry": {"type": "Point", "coordinates": [11.83216, 51.1569]}, "properties": {"id": "osm-node-12033691461", "kind": "slip", "name": "Slipway", "area": "", "region": null, "land": "ST", "desc": null, "tags": [], "tel": null, "web": null, "source": "OpenStreetMap", "source_detail": "Overpass 2026-06-12", "quality": "unverified", "coord_quality": "exact"}}, {"type": "Feature", "geometry": {"type": "Point", "coordinates": [11.14042, 52.50833]}, "properties": {"id": "osm-node-12049181689", "kind": "entsorgung", "name": "Entsorgungsstation", "area": "", "region": null, "land": "ST", "desc": null, "tags": [], "tel": null, "web": null, "source": "OpenStreetMap", "source_detail": "Overpass 2026-06-12", "quality": "unverified", "coord_quality": "exact"}}, {"type": "Feature", "geometry": {"type": "Point", "coordinates": [11.95184, 52.63865]}, "properties": {"id": "osm-node-12135853326", "kind": "entsorgung", "name": "Entsorgungsstation", "area": "", "region": null, "land": "ST", "desc": null, "tags": [], "tel": null, "web": null, "source": "OpenStreetMap", "source_detail": "Overpass 2026-06-12", "quality": "unverified", "coord_quality": "exact"}}, {"type": "Feature", "geometry": {"type": "Point", "coordinates": [11.65613, 51.24557]}, "properties": {"id": "osm-node-12139776165", "kind": "charter", "name": "Outtour", "area": "", "region": null, "land": "ST", "desc": null, "tags": [], "tel": "+49 34462 601951", "web": "https://www.outtour.de/", "source": "OpenStreetMap", "source_detail": "Overpass 2026-06-12", "quality": "unverified", "coord_quality": "exact"}}, {"type": "Feature", "geometry": {"type": "Point", "coordinates": [12.57648, 51.79324]}, "properties": {"id": "osm-node-12147206933", "kind": "entsorgung", "name": "Entsorgungsstation", "area": "", "region": null, "land": "ST", "desc": null, "tags": [], "tel": null, "web": null, "source": "OpenStreetMap", "source_detail": "Overpass 2026-06-12", "quality": "unverified", "coord_quality": "exact"}}, {"type": "Feature", "geometry": {"type": "Point", "coordinates": [11.13456, 51.7873]}, "properties": {"id": "osm-node-12294670767", "kind": "entsorgung", "name": "Entsorgungsstation", "area": "", "region": null, "land": "ST", "desc": null, "tags": ["kostenlos"], "tel": null, "web": null, "source": "OpenStreetMap", "source_detail": "Overpass 2026-06-12", "quality": "unverified", "coord_quality": "exact"}}, {"type": "Feature", "geometry": {"type": "Point", "coordinates": [11.45719, 51.76069]}, "properties": {"id": "osm-node-12294711839", "kind": "entsorgung", "name": "Entsorgungsstation", "area": "", "region": null, "land": "ST", "desc": null, "tags": [], "tel": null, "web": null, "source": "OpenStreetMap", "source_detail": "Overpass 2026-06-12", "quality": "unverified", "coord_quality": "exact"}}, {"type": "Feature", "geometry": {"type": "Point", "coordinates": [11.95134, 51.29447]}, "properties": {"id": "osm-node-12504995921", "kind": "slip", "name": "Slipanlage", "area": "", "region": null, "land": "ST", "desc": null, "tags": [], "tel": null, "web": null, "source": "OpenStreetMap", "source_detail": "Overpass 2026-06-12", "quality": "unverified", "coord_quality": "exact"}}, {"type": "Feature", "geometry": {"type": "Point", "coordinates": [11.95121, 51.29435]}, "properties": {"id": "osm-node-12504995924", "kind": "slip", "name": "Slipanlage", "area": "", "region": null, "land": "ST", "desc": null, "tags": [], "tel": null, "web": null, "source": "OpenStreetMap", "source_detail": "Overpass 2026-06-12", "quality": "unverified", "coord_quality": "exact"}}, {"type": "Feature", "geometry": {"type": "Point", "coordinates": [12.07052, 52.82839]}, "properties": {"id": "osm-node-12596002836", "kind": "hafen", "name": "BunBo - das Bungalowboot / Standort Havelberg", "area": "", "region": null, "land": "ST", "desc": null, "tags": [], "tel": "+49 3381 890460", "web": "https://bunbo.de/standorte/havelberg", "source": "OpenStreetMap", "source_detail": "Overpass 2026-06-12", "quality": "unverified", "coord_quality": "exact"}}, {"type": "Feature", "geometry": {"type": "Point", "coordinates": [12.57229, 51.79122]}, "properties": {"id": "osm-node-13011395574", "kind": "slip", "name": "Slipanlage", "area": "", "region": null, "land": "ST", "desc": null, "tags": [], "tel": null, "web": null, "source": "OpenStreetMap", "source_detail": "Overpass 2026-06-12", "quality": "unverified", "coord_quality": "exact"}}, {"type": "Feature", "geometry": {"type": "Point", "coordinates": [12.57203, 51.79107]}, "properties": {"id": "osm-node-13011395575", "kind": "slip", "name": "Slipanlage", "area": "", "region": null, "land": "ST", "desc": null, "tags": [], "tel": null, "web": null, "source": "OpenStreetMap", "source_detail": "Overpass 2026-06-12", "quality": "unverified", "coord_quality": "exact"}}, {"type": "Feature", "geometry": {"type": "Point", "coordinates": [11.63305, 52.33357]}, "properties": {"id": "osm-node-13081239366", "kind": "entsorgung", "name": "Entsorgungsstation", "area": "", "region": null, "land": "ST", "desc": null, "tags": ["kostenlos"], "tel": null, "web": null, "source": "OpenStreetMap", "source_detail": "Overpass 2026-06-12", "quality": "unverified", "coord_quality": "exact"}}, {"type": "Feature", "geometry": {"type": "Point", "coordinates": [11.87038, 51.5338]}, "properties": {"id": "osm-node-13165648301", "kind": "slip", "name": "Slipanlage", "area": "", "region": null, "land": "ST", "desc": null, "tags": [], "tel": null, "web": null, "source": "OpenStreetMap", "source_detail": "Overpass 2026-06-12", "quality": "unverified", "coord_quality": "exact"}}, {"type": "Feature", "geometry": {"type": "Point", "coordinates": [12.01653, 51.46915]}, "properties": {"id": "osm-node-13273899309", "kind": "slip", "name": "Slipanlage", "area": "", "region": null, "land": "ST", "desc": null, "tags": [], "tel": null, "web": null, "source": "OpenStreetMap", "source_detail": "Overpass 2026-06-12", "quality": "unverified", "coord_quality": "exact"}}, {"type": "Feature", "geometry": {"type": "Point", "coordinates": [11.69876, 51.49227]}, "properties": {"id": "osm-node-13904045606", "kind": "hafen", "name": "SegelSportClub \"Süßer See\" e.V.", "area": "", "region": null, "land": "ST", "desc": null, "tags": [], "tel": null, "web": null, "source": "OpenStreetMap", "source_detail": "Overpass 2026-06-12", "quality": "unverified", "coord_quality": "exact"}}, {"type": "Feature", "geometry": {"type": "Point", "coordinates": [11.69796, 51.49047]}, "properties": {"id": "osm-node-13904045607", "kind": "hafen", "name": "Seesportclub Seeburg", "area": "", "region": null, "land": "ST", "desc": null, "tags": [], "tel": null, "web": null, "source": "OpenStreetMap", "source_detail": "Overpass 2026-06-12", "quality": "unverified", "coord_quality": "exact"}}, {"type": "Feature", "geometry": {"type": "Point", "coordinates": [11.67858, 51.49795]}, "properties": {"id": "osm-node-13904045608", "kind": "hafen", "name": "Segelsportgemeinschaft Seeburg e.V.", "area": "", "region": null, "land": "ST", "desc": null, "tags": [], "tel": null, "web": null, "source": "OpenStreetMap", "source_detail": "Overpass 2026-06-12", "quality": "unverified", "coord_quality": "exact"}}, {"type": "Feature", "geometry": {"type": "Point", "coordinates": [12.00825, 52.87846]}, "properties": {"id": "osm-way-4580591", "kind": "schleuse", "name": "Havel", "area": "", "region": null, "land": "ST", "desc": null, "tags": [], "tel": "+49 39387 7288-237", "web": null, "source": "OpenStreetMap", "source_detail": "Overpass 2026-06-12", "quality": "unverified", "coord_quality": "exact"}}, {"type": "Feature", "geometry": {"type": "Point", "coordinates": [12.05554, 52.83234]}, "properties": {"id": "osm-way-4580611", "kind": "schleuse", "name": "Schleuse Havelberg", "area": "", "region": null, "land": "ST", "desc": null, "tags": [], "tel": "+49 3385 539830", "web": null, "source": "OpenStreetMap", "source_detail": "Overpass 2026-06-12", "quality": "unverified", "coord_quality": "exact"}}, {"type": "Feature", "geometry": {"type": "Point", "coordinates": [11.73948, 52.24149]}, "properties": {"id": "osm-way-5372978", "kind": "schleuse", "name": "Schleuse", "area": "", "region": null, "land": "ST", "desc": null, "tags": [], "tel": "+49 39222 9517200", "web": null, "source": "OpenStreetMap", "source_detail": "Overpass 2026-06-12", "quality": "unverified", "coord_quality": "exact"}}, {"type": "Feature", "geometry": {"type": "Point", "coordinates": [11.66839, 52.22466]}, "properties": {"id": "osm-way-24064716", "kind": "schleuse", "name": "Schleuse", "area": "", "region": null, "land": "ST", "desc": null, "tags": [], "tel": "+49 391 244748200", "web": null, "source": "OpenStreetMap", "source_detail": "Overpass 2026-06-12", "quality": "unverified", "coord_quality": "exact"}}, {"type": "Feature", "geometry": {"type": "Point", "coordinates": [11.95473, 51.41611]}, "properties": {"id": "osm-way-26396568", "kind": "schleuse", "name": "Saale", "area": "", "region": null, "land": "ST", "desc": null, "tags": [], "tel": "+49 345 7758739", "web": null, "source": "OpenStreetMap", "source_detail": "Overpass 2026-06-12", "quality": "unverified", "coord_quality": "exact"}}, {"type": "Feature", "geometry": {"type": "Point", "coordinates": [11.95478, 51.51395]}, "properties": {"id": "osm-way-33525911", "kind": "schleuse", "name": "Schleuse Trotha", "area": "", "region": null, "land": "ST", "desc": null, "tags": [], "tel": "+49 3461 331611; +49 345 5201787", "web": null, "source": "OpenStreetMap", "source_detail": "Overpass 2026-06-12", "quality": "unverified", "coord_quality": "exact"}}, {"type": "Feature", "geometry": {"type": "Point", "coordinates": [11.97182, 52.53828]}, "properties": {"id": "osm-way-54293891", "kind": "anleger", "name": "Gastanleger", "area": "", "region": null, "land": "ST", "desc": null, "tags": [], "tel": null, "web": null, "source": "OpenStreetMap", "source_detail": "Overpass 2026-06-12", "quality": "unverified", "coord_quality": "exact"}}, {"type": "Feature", "geometry": {"type": "Point", "coordinates": [11.68613, 52.19163]}, "properties": {"id": "osm-way-120846989", "kind": "schleuse", "name": "Niedrigwasserschleuse", "area": "", "region": null, "land": "ST", "desc": null, "tags": [], "tel": null, "web": null, "source": "OpenStreetMap", "source_detail": "Overpass 2026-06-12", "quality": "unverified", "coord_quality": "exact"}}, {"type": "Feature", "geometry": {"type": "Point", "coordinates": [11.73927, 52.24167]}, "properties": {"id": "osm-way-123523923", "kind": "schleuse", "name": "Schleuse", "area": "", "region": null, "land": "ST", "desc": null, "tags": [], "tel": "+49 39222 9517200", "web": null, "source": "OpenStreetMap", "source_detail": "Overpass 2026-06-12", "quality": "unverified", "coord_quality": "exact"}}, {"type": "Feature", "geometry": {"type": "Point", "coordinates": [11.65588, 52.21885]}, "properties": {"id": "osm-way-133502912", "kind": "charter", "name": "Bootsverleih", "area": "", "region": null, "land": "ST", "desc": null, "tags": [], "tel": null, "web": null, "source": "OpenStreetMap", "source_detail": "Overpass 2026-06-12", "quality": "unverified", "coord_quality": "exact"}}, {"type": "Feature", "geometry": {"type": "Point", "coordinates": [11.64441, 52.11925]}, "properties": {"id": "osm-way-133763591", "kind": "charter", "name": "Bootsverleih am Adolf-Mittag-See", "area": "", "region": null, "land": "ST", "desc": null, "tags": [], "tel": null, "web": "https://www.magdeburg.de/index.php?NavID=37.385&object=tx|37.13980.1&La=1", "source": "OpenStreetMap", "source_detail": "Overpass 2026-06-12", "quality": "unverified", "coord_quality": "exact"}}, {"type": "Feature", "geometry": {"type": "Point", "coordinates": [11.74371, 51.21167]}, "properties": {"id": "osm-way-160048798", "kind": "schleuse", "name": "Unstrut", "area": "", "region": null, "land": "ST", "desc": null, "tags": [], "tel": "+49 34464 35982", "web": null, "source": "OpenStreetMap", "source_detail": "Overpass 2026-06-12", "quality": "unverified", "coord_quality": "exact"}}, {"type": "Feature", "geometry": {"type": "Point", "coordinates": [11.76861, 51.20973]}, "properties": {"id": "osm-way-160048801", "kind": "schleuse", "name": "Schleuse Freyburg", "area": "", "region": null, "land": "ST", "desc": null, "tags": [], "tel": "+49 34464 28095", "web": null, "source": "OpenStreetMap", "source_detail": "Overpass 2026-06-12", "quality": "unverified", "coord_quality": "exact"}}, {"type": "Feature", "geometry": {"type": "Point", "coordinates": [11.95061, 51.20531]}, "properties": {"id": "osm-way-160679159", "kind": "schleuse", "name": "Schleuse Beuditz", "area": "", "region": null, "land": "ST", "desc": null, "tags": [], "tel": "+49 3443 802640", "web": null, "source": "OpenStreetMap", "source_detail": "Overpass 2026-06-12", "quality": "unverified", "coord_quality": "exact"}}, {"type": "Feature", "geometry": {"type": "Point", "coordinates": [11.87077, 51.18708]}, "properties": {"id": "osm-way-160679164", "kind": "schleuse", "name": "Oeblitzschleuse", "area": "", "region": null, "land": "ST", "desc": null, "tags": [], "tel": "+49 3443 200228", "web": null, "source": "OpenStreetMap", "source_detail": "Overpass 2026-06-12", "quality": "unverified", "coord_quality": "exact"}}, {"type": "Feature", "geometry": {"type": "Point", "coordinates": [11.95978, 51.20559]}, "properties": {"id": "osm-way-160679167", "kind": "schleuse", "name": "Schleuse Brückenmühle", "area": "", "region": null, "land": "ST", "desc": null, "tags": [], "tel": "+49 3443 307155", "web": null, "source": "OpenStreetMap", "source_detail": "Overpass 2026-06-12", "quality": "unverified", "coord_quality": "exact"}}, {"type": "Feature", "geometry": {"type": "Point", "coordinates": [11.97762, 51.20536]}, "properties": {"id": "osm-way-160823342", "kind": "schleuse", "name": "Schleuse", "area": "", "region": null, "land": "ST", "desc": null, "tags": [], "tel": "+49 3443 341490", "web": null, "source": "OpenStreetMap", "source_detail": "Overpass 2026-06-12", "quality": "unverified", "coord_quality": "exact"}}, {"type": "Feature", "geometry": {"type": "Point", "coordinates": [11.67724, 51.22604]}, "properties": {"id": "osm-way-161143426", "kind": "schleuse", "name": "Unstrut", "area": "", "region": null, "land": "ST", "desc": null, "tags": [], "tel": "+49 34462 22902", "web": null, "source": "OpenStreetMap", "source_detail": "Overpass 2026-06-12", "quality": "unverified", "coord_quality": "exact"}}, {"type": "Feature", "geometry": {"type": "Point", "coordinates": [11.96336, 52.34565]}, "properties": {"id": "osm-way-161202825", "kind": "schleuse", "name": "Elbe-Havel-Kanal", "area": "", "region": null, "land": "ST", "desc": null, "tags": [], "tel": "+49 39344 9669921", "web": null, "source": "OpenStreetMap", "source_detail": "Overpass 2026-06-12", "quality": "unverified", "coord_quality": "exact"}}, {"type": "Feature", "geometry": {"type": "Point", "coordinates": [11.63226, 51.24863]}, "properties": {"id": "osm-way-161442762", "kind": "schleuse", "name": "Unstrut", "area": "", "region": null, "land": "ST", "desc": null, "tags": [], "tel": "+49 34462 20031", "web": null, "source": "OpenStreetMap", "source_detail": "Overpass 2026-06-12", "quality": "unverified", "coord_quality": "exact"}}, {"type": "Feature", "geometry": {"type": "Point", "coordinates": [11.74054, 52.24912]}, "properties": {"id": "osm-way-161851215", "kind": "schleuse", "name": "Niegripper Verbindungskanal", "area": "", "region": null, "land": "ST", "desc": null, "tags": [], "tel": "+49 39222 2663", "web": null, "source": "OpenStreetMap", "source_detail": "Overpass 2026-06-12", "quality": "unverified", "coord_quality": "exact"}}, {"type": "Feature", "geometry": {"type": "Point", "coordinates": [12.21347, 52.74724]}, "properties": {"id": "osm-way-161965993", "kind": "schleuse", "name": "Havel", "area": "", "region": null, "land": "ST", "desc": null, "tags": [], "tel": "+49 3385 539830", "web": null, "source": "OpenStreetMap", "source_detail": "Overpass 2026-06-12", "quality": "unverified", "coord_quality": "exact"}}, {"type": "Feature", "geometry": {"type": "Point", "coordinates": [11.97785, 52.40358]}, "properties": {"id": "osm-way-165574619", "kind": "schleuse", "name": "Schleuse Parey", "area": "", "region": null, "land": "ST", "desc": null, "tags": [], "tel": "+49 39349 9459851", "web": null, "source": "OpenStreetMap", "source_detail": "Overpass 2026-06-12", "quality": "unverified", "coord_quality": "exact"}}, {"type": "Feature", "geometry": {"type": "Point", "coordinates": [11.78914, 51.90334]}, "properties": {"id": "osm-way-165745481", "kind": "schleuse", "name": "Saale", "area": "", "region": null, "land": "ST", "desc": null, "tags": [], "tel": "+49 3471 34664081", "web": null, "source": "OpenStreetMap", "source_detail": "Overpass 2026-06-12", "quality": "unverified", "coord_quality": "exact"}}, {"type": "Feature", "geometry": {"type": "Point", "coordinates": [11.67027, 51.23099]}, "properties": {"id": "osm-way-165914389", "kind": "charter", "name": "Unstrutcamp", "area": "Laucha an der Unstrut", "region": null, "land": "ST", "desc": null, "tags": [], "tel": "+49 34462 37009", "web": "http://kanuverleih.saale-unstrut-camp.de", "source": "OpenStreetMap", "source_detail": "Overpass 2026-06-12", "quality": "unverified", "coord_quality": "exact"}}, {"type": "Feature", "geometry": {"type": "Point", "coordinates": [12.01626, 51.34869]}, "properties": {"id": "osm-way-166120366", "kind": "schleuse", "name": "Mittelkanal", "area": "", "region": null, "land": "ST", "desc": null, "tags": [], "tel": null, "web": null, "source": "OpenStreetMap", "source_detail": "Overpass 2026-06-12", "quality": "unverified", "coord_quality": "exact"}}, {"type": "Feature", "geometry": {"type": "Point", "coordinates": [11.67828, 51.70696]}, "properties": {"id": "osm-way-166120369", "kind": "schleuse", "name": "Saale", "area": "", "region": null, "land": "ST", "desc": null, "tags": [], "tel": "+49 3471 34664081", "web": null, "source": "OpenStreetMap", "source_detail": "Overpass 2026-06-12", "quality": "unverified", "coord_quality": "exact"}}, {"type": "Feature", "geometry": {"type": "Point", "coordinates": [11.7519, 51.6546]}, "properties": {"id": "osm-way-166120373", "kind": "schleuse", "name": "Saale", "area": "", "region": null, "land": "ST", "desc": null, "tags": [], "tel": "+49 3471 34664081", "web": null, "source": "OpenStreetMap", "source_detail": "Overpass 2026-06-12", "quality": "unverified", "coord_quality": "exact"}}, {"type": "Feature", "geometry": {"type": "Point", "coordinates": [11.73472, 51.79627]}, "properties": {"id": "osm-way-166120378", "kind": "schleuse", "name": "Saale", "area": "", "region": null, "land": "ST", "desc": null, "tags": [], "tel": "+49 3471 34664081", "web": null, "source": "OpenStreetMap", "source_detail": "Overpass 2026-06-12", "quality": "unverified", "coord_quality": "exact"}}, {"type": "Feature", "geometry": {"type": "Point", "coordinates": [11.79415, 51.58234]}, "properties": {"id": "osm-way-166120388", "kind": "schleuse", "name": "Schleuse", "area": "", "region": null, "land": "ST", "desc": null, "tags": [], "tel": "+49 3471 34664081", "web": null, "source": "OpenStreetMap", "source_detail": "Overpass 2026-06-12", "quality": "unverified", "coord_quality": "exact"}}, {"type": "Feature", "geometry": {"type": "Point", "coordinates": [11.95568, 51.48855]}, "properties": {"id": "osm-way-166122902", "kind": "schleuse", "name": "Schleuse Gimritz", "area": "", "region": null, "land": "ST", "desc": null, "tags": [], "tel": "+49 345 2901651", "web": null, "source": "OpenStreetMap", "source_detail": "Overpass 2026-06-12", "quality": "unverified", "coord_quality": "exact"}}, {"type": "Feature", "geometry": {"type": "Point", "coordinates": [11.96032, 51.48046]}, "properties": {"id": "osm-way-166122903", "kind": "schleuse", "name": "Saale", "area": "", "region": null, "land": "ST", "desc": null, "tags": [], "tel": "+49 345 2833716", "web": null, "source": "OpenStreetMap", "source_detail": "Overpass 2026-06-12", "quality": "unverified", "coord_quality": "exact"}}, {"type": "Feature", "geometry": {"type": "Point", "coordinates": [11.94674, 51.46349]}, "properties": {"id": "osm-way-166123536", "kind": "schleuse", "name": "Saale", "area": "", "region": null, "land": "ST", "desc": null, "tags": [], "tel": "+49 345 4441096", "web": null, "source": "OpenStreetMap", "source_detail": "Overpass 2026-06-12", "quality": "unverified", "coord_quality": "exact"}}, {"type": "Feature", "geometry": {"type": "Point", "coordinates": [11.20887, 51.93306]}, "properties": {"id": "osm-way-171666144", "kind": "charter", "name": "Campingplatz mit Wassersport und Bootsverleih / Gröninger Bode Bootsverleih", "area": "Gröningen", "region": null, "land": "ST", "desc": null, "tags": [], "tel": null, "web": null, "source": "OpenStreetMap", "source_detail": "Overpass 2026-06-12", "quality": "unverified", "coord_quality": "exact"}}, {"type": "Feature", "geometry": {"type": "Point", "coordinates": [12.01591, 51.34922]}, "properties": {"id": "osm-way-174418754", "kind": "schleuse", "name": "Schleuse", "area": "", "region": null, "land": "ST", "desc": null, "tags": [], "tel": null, "web": null, "source": "OpenStreetMap", "source_detail": "Overpass 2026-06-12", "quality": "unverified", "coord_quality": "exact"}}, {"type": "Feature", "geometry": {"type": "Point", "coordinates": [12.04853, 51.38914]}, "properties": {"id": "osm-way-174583563", "kind": "badestelle", "name": "Badestelle", "area": "", "region": null, "land": "ST", "desc": null, "tags": [], "tel": null, "web": null, "source": "OpenStreetMap", "source_detail": "Overpass 2026-06-12", "quality": "unverified", "coord_quality": "exact"}}, {"type": "Feature", "geometry": {"type": "Point", "coordinates": [11.46711, 51.27525]}, "properties": {"id": "osm-way-174763811", "kind": "schleuse", "name": "Schleuse Wendelstein", "area": "", "region": null, "land": "ST", "desc": null, "tags": [], "tel": "+49 34672 93147", "web": null, "source": "OpenStreetMap", "source_detail": "Overpass 2026-06-12", "quality": "unverified", "coord_quality": "exact"}}, {"type": "Feature", "geometry": {"type": "Point", "coordinates": [11.94608, 51.45916]}, "properties": {"id": "osm-way-189642360", "kind": "hafen", "name": "Wassersportclub Rabeninsel Halle", "area": "", "region": null, "land": "ST", "desc": null, "tags": [], "tel": "+49 345 47225437", "web": "www.wsc-rabeninsel.com/", "source": "OpenStreetMap", "source_detail": "Overpass 2026-06-12", "quality": "unverified", "coord_quality": "exact"}}, {"type": "Feature", "geometry": {"type": "Point", "coordinates": [11.6766, 52.16697]}, "properties": {"id": "osm-way-208279031", "kind": "slip", "name": "Slipanlage", "area": "", "region": null, "land": "ST", "desc": null, "tags": [], "tel": null, "web": null, "source": "OpenStreetMap", "source_detail": "Overpass 2026-06-12", "quality": "unverified", "coord_quality": "exact"}}, {"type": "Feature", "geometry": {"type": "Point", "coordinates": [11.67663, 52.16671]}, "properties": {"id": "osm-way-219781849", "kind": "hafen", "name": "Jachthafen Rothenseer Elbebiber e.V.", "area": "", "region": null, "land": "ST", "desc": null, "tags": [], "tel": null, "web": null, "source": "OpenStreetMap", "source_detail": "Overpass 2026-06-12", "quality": "unverified", "coord_quality": "exact"}}, {"type": "Feature", "geometry": {"type": "Point", "coordinates": [12.93652, 51.64714]}, "properties": {"id": "osm-way-237748752", "kind": "slip", "name": "Slipanlage", "area": "", "region": null, "land": "ST", "desc": null, "tags": [], "tel": null, "web": null, "source": "OpenStreetMap", "source_detail": "Overpass 2026-06-12", "quality": "unverified", "coord_quality": "exact"}}, {"type": "Feature", "geometry": {"type": "Point", "coordinates": [12.00264, 51.35033]}, "properties": {"id": "osm-way-244842350", "kind": "schleuse", "name": "Schleuse", "area": "", "region": null, "land": "ST", "desc": null, "tags": [], "tel": "+49 3461 211216", "web": null, "source": "OpenStreetMap", "source_detail": "Overpass 2026-06-12", "quality": "unverified", "coord_quality": "exact"}}, {"type": "Feature", "geometry": {"type": "Point", "coordinates": [12.00384, 51.35996]}, "properties": {"id": "osm-way-244842352", "kind": "schleuse", "name": "Schleuse", "area": "", "region": null, "land": "ST", "desc": null, "tags": [], "tel": "+49 3461 331611", "web": null, "source": "OpenStreetMap", "source_detail": "Overpass 2026-06-12", "quality": "unverified", "coord_quality": "exact"}}, {"type": "Feature", "geometry": {"type": "Point", "coordinates": [12.05971, 51.29465]}, "properties": {"id": "osm-way-244846374", "kind": "schleuse", "name": "Schleuse Bad Dürrenberg", "area": "", "region": null, "land": "ST", "desc": null, "tags": [], "tel": "+49 3462 80530", "web": null, "source": "OpenStreetMap", "source_detail": "Overpass 2026-06-12", "quality": "unverified", "coord_quality": "exact"}}, {"type": "Feature", "geometry": {"type": "Point", "coordinates": [12.23559, 51.88164]}, "properties": {"id": "osm-way-244945441", "kind": "slip", "name": "Slipanlage", "area": "", "region": null, "land": "ST", "desc": null, "tags": [], "tel": null, "web": null, "source": "OpenStreetMap", "source_detail": "Overpass 2026-06-12", "quality": "unverified", "coord_quality": "exact"}}, {"type": "Feature", "geometry": {"type": "Point", "coordinates": [12.22931, 51.87375]}, "properties": {"id": "osm-way-245585345", "kind": "slip", "name": "Slipanlage", "area": "", "region": null, "land": "ST", "desc": null, "tags": [], "tel": null, "web": null, "source": "OpenStreetMap", "source_detail": "Overpass 2026-06-12", "quality": "unverified", "coord_quality": "exact"}}, {"type": "Feature", "geometry": {"type": "Point", "coordinates": [11.30122, 52.38356]}, "properties": {"id": "osm-way-281251230", "kind": "hafen", "name": "Sportboothafen Calvörde", "area": "", "region": null, "land": "ST", "desc": null, "tags": ["Entsorgung"], "tel": null, "web": null, "source": "OpenStreetMap", "source_detail": "Overpass 2026-06-12", "quality": "unverified", "coord_quality": "exact"}}, {"type": "Feature", "geometry": {"type": "Point", "coordinates": [11.70473, 52.22375]}, "properties": {"id": "osm-way-301106743", "kind": "slip", "name": "Slipanlage", "area": "", "region": null, "land": "ST", "desc": null, "tags": [], "tel": null, "web": null, "source": "OpenStreetMap", "source_detail": "Overpass 2026-06-12", "quality": "unverified", "coord_quality": "exact"}}, {"type": "Feature", "geometry": {"type": "Point", "coordinates": [11.76945, 52.31398]}, "properties": {"id": "osm-way-301107733", "kind": "slip", "name": "Slipanlage", "area": "", "region": null, "land": "ST", "desc": null, "tags": [], "tel": null, "web": null, "source": "OpenStreetMap", "source_detail": "Overpass 2026-06-12", "quality": "unverified", "coord_quality": "exact"}}, {"type": "Feature", "geometry": {"type": "Point", "coordinates": [11.95301, 51.48578]}, "properties": {"id": "osm-way-303786742", "kind": "hafen", "name": "Stadthafen Halle (Saale)", "area": "", "region": null, "land": "ST", "desc": null, "tags": [], "tel": "+49 345 2989799", "web": null, "source": "OpenStreetMap", "source_detail": "Overpass 2026-06-12", "quality": "unverified", "coord_quality": "exact"}}, {"type": "Feature", "geometry": {"type": "Point", "coordinates": [11.4856, 52.25498]}, "properties": {"id": "osm-way-326261716", "kind": "slip", "name": "Slipanlage", "area": "", "region": null, "land": "ST", "desc": null, "tags": [], "tel": null, "web": null, "source": "OpenStreetMap", "source_detail": "Overpass 2026-06-12", "quality": "unverified", "coord_quality": "exact"}}, {"type": "Feature", "geometry": {"type": "Point", "coordinates": [11.92999, 51.4174]}, "properties": {"id": "osm-way-359863749", "kind": "slip", "name": "Slipanlage", "area": "", "region": null, "land": "ST", "desc": null, "tags": [], "tel": null, "web": null, "source": "OpenStreetMap", "source_detail": "Overpass 2026-06-12", "quality": "unverified", "coord_quality": "exact"}}, {"type": "Feature", "geometry": {"type": "Point", "coordinates": [11.6742, 52.08093]}, "properties": {"id": "osm-way-390133184", "kind": "slip", "name": "Slipanlage", "area": "", "region": null, "land": "ST", "desc": null, "tags": [], "tel": null, "web": null, "source": "OpenStreetMap", "source_detail": "Overpass 2026-06-12", "quality": "unverified", "coord_quality": "exact"}}, {"type": "Feature", "geometry": {"type": "Point", "coordinates": [11.65571, 52.22611]}, "properties": {"id": "osm-way-434361619", "kind": "slip", "name": "Slipanlage", "area": "", "region": null, "land": "ST", "desc": null, "tags": [], "tel": null, "web": null, "source": "OpenStreetMap", "source_detail": "Overpass 2026-06-12", "quality": "unverified", "coord_quality": "exact"}}, {"type": "Feature", "geometry": {"type": "Point", "coordinates": [11.65528, 52.22615]}, "properties": {"id": "osm-way-434361621", "kind": "slip", "name": "Slipanlage", "area": "", "region": null, "land": "ST", "desc": null, "tags": [], "tel": null, "web": null, "source": "OpenStreetMap", "source_detail": "Overpass 2026-06-12", "quality": "unverified", "coord_quality": "exact"}}, {"type": "Feature", "geometry": {"type": "Point", "coordinates": [11.64568, 52.22627]}, "properties": {"id": "osm-way-434362378", "kind": "slip", "name": "Slipanlage", "area": "", "region": null, "land": "ST", "desc": null, "tags": [], "tel": null, "web": null, "source": "OpenStreetMap", "source_detail": "Overpass 2026-06-12", "quality": "unverified", "coord_quality": "exact"}}, {"type": "Feature", "geometry": {"type": "Point", "coordinates": [11.86959, 51.29784]}, "properties": {"id": "osm-way-443080677", "kind": "hafen", "name": "Marina Braunsbedra", "area": "", "region": null, "land": "ST", "desc": null, "tags": ["230V", "Entsorgung"], "tel": null, "web": "https://www.hasse-see.de/hafen-braunsbedra", "source": "OpenStreetMap", "source_detail": "Overpass 2026-06-12", "quality": "unverified", "coord_quality": "exact"}}, {"type": "Feature", "geometry": {"type": "Point", "coordinates": [11.64313, 52.10742]}, "properties": {"id": "osm-way-444914327", "kind": "hafen", "name": "Sülzehafen", "area": "Magdeburg", "region": null, "land": "ST", "desc": null, "tags": ["230V"], "tel": "+49 391 5209337", "web": "https://mueckenwirt.de/suelzehafen.html", "source": "OpenStreetMap", "source_detail": "Overpass 2026-06-12", "quality": "unverified", "coord_quality": "exact"}}, {"type": "Feature", "geometry": {"type": "Point", "coordinates": [11.73107, 51.79238]}, "properties": {"id": "osm-way-488822436", "kind": "charter", "name": "Funda - Bootsverleih", "area": "", "region": null, "land": "ST", "desc": null, "tags": [], "tel": "+4917624799952", "web": "https://fundaboat.de/", "source": "OpenStreetMap", "source_detail": "Overpass 2026-06-12", "quality": "unverified", "coord_quality": "exact"}}, {"type": "Feature", "geometry": {"type": "Point", "coordinates": [12.63983, 51.8569]}, "properties": {"id": "osm-way-524506574", "kind": "hafen", "name": "Marina-Camp Elbe", "area": "", "region": null, "land": "ST", "desc": null, "tags": [], "tel": "+49 178 6017666", "web": "https://www.marina-camp-elbe.de/angebote/caravaning.htm", "source": "OpenStreetMap", "source_detail": "Overpass 2026-06-12", "quality": "unverified", "coord_quality": "exact"}}, {"type": "Feature", "geometry": {"type": "Point", "coordinates": [11.96394, 52.34546]}, "properties": {"id": "osm-way-603119108", "kind": "schleuse", "name": "Elbe-Havel-Kanal", "area": "", "region": null, "land": "ST", "desc": null, "tags": [], "tel": "+49 39344 9669921", "web": null, "source": "OpenStreetMap", "source_detail": "Overpass 2026-06-12", "quality": "unverified", "coord_quality": "exact"}}, {"type": "Feature", "geometry": {"type": "Point", "coordinates": [11.81343, 51.30768]}, "properties": {"id": "osm-way-683756600", "kind": "hafen", "name": "Marina Mücheln", "area": "", "region": null, "land": "ST", "desc": null, "tags": ["230V"], "tel": null, "web": "https://www.geiseltalsee.de/geiseltalsee/marina-muecheln.html", "source": "OpenStreetMap", "source_detail": "Overpass 2026-06-12", "quality": "unverified", "coord_quality": "exact"}}, {"type": "Feature", "geometry": {"type": "Point", "coordinates": [12.46366, 51.70493]}, "properties": {"id": "osm-way-727856343", "kind": "slip", "name": "Slipanlage", "area": "", "region": null, "land": "ST", "desc": null, "tags": [], "tel": null, "web": null, "source": "OpenStreetMap", "source_detail": "Overpass 2026-06-12", "quality": "unverified", "coord_quality": "exact"}}, {"type": "Feature", "geometry": {"type": "Point", "coordinates": [11.49065, 52.88487]}, "properties": {"id": "osm-way-738855367", "kind": "charter", "name": "Segeln auf dem Arendsee", "area": "", "region": null, "land": "ST", "desc": null, "tags": [], "tel": null, "web": "https://www.segelnheikoseifert.de", "source": "OpenStreetMap", "source_detail": "Overpass 2026-06-12", "quality": "unverified", "coord_quality": "exact"}}, {"type": "Feature", "geometry": {"type": "Point", "coordinates": [11.22457, 52.02061]}, "properties": {"id": "osm-way-974080204", "kind": "charter", "name": "Oschersleber Bootsverleih", "area": "Oschersleben", "region": null, "land": "ST", "desc": null, "tags": [], "tel": null, "web": null, "source": "OpenStreetMap", "source_detail": "Overpass 2026-06-12", "quality": "unverified", "coord_quality": "exact"}}, {"type": "Feature", "geometry": {"type": "Point", "coordinates": [11.97958, 52.38824]}, "properties": {"id": "osm-way-987727153", "kind": "anleger", "name": "Gästesteg", "area": "", "region": null, "land": "ST", "desc": null, "tags": [], "tel": null, "web": null, "source": "OpenStreetMap", "source_detail": "Overpass 2026-06-12", "quality": "unverified", "coord_quality": "exact"}}, {"type": "Feature", "geometry": {"type": "Point", "coordinates": [11.95638, 51.48686]}, "properties": {"id": "osm-way-1028766493", "kind": "tank", "name": "Bootstankstelle", "area": "", "region": null, "land": "ST", "desc": null, "tags": [], "tel": null, "web": null, "source": "OpenStreetMap", "source_detail": "Overpass 2026-06-12", "quality": "unverified", "coord_quality": "exact"}}, {"type": "Feature", "geometry": {"type": "Point", "coordinates": [12.41432, 51.61483]}, "properties": {"id": "osm-way-1033303997", "kind": "slip", "name": "Slipanlage", "area": "", "region": null, "land": "ST", "desc": null, "tags": [], "tel": null, "web": null, "source": "OpenStreetMap", "source_detail": "Overpass 2026-06-12", "quality": "unverified", "coord_quality": "exact"}}, {"type": "Feature", "geometry": {"type": "Point", "coordinates": [11.40325, 52.2794]}, "properties": {"id": "osm-way-1035800705", "kind": "hafen", "name": "Sportboothafen Haldensleben", "area": "Haldensleben", "region": null, "land": "ST", "desc": null, "tags": [], "tel": null, "web": null, "source": "OpenStreetMap", "source_detail": "Overpass 2026-06-12", "quality": "unverified", "coord_quality": "exact"}}, {"type": "Feature", "geometry": {"type": "Point", "coordinates": [11.49809, 52.88898]}, "properties": {"id": "osm-way-1134020017", "kind": "slip", "name": "Slipanlage", "area": "", "region": null, "land": "ST", "desc": null, "tags": [], "tel": null, "web": null, "source": "OpenStreetMap", "source_detail": "Overpass 2026-06-12", "quality": "unverified", "coord_quality": "exact"}}, {"type": "Feature", "geometry": {"type": "Point", "coordinates": [11.76662, 52.26877]},